{"geometry": {"coordinates": [-82.1197436, 36.633837], "type": "Point"}, "id": "B-hmVkxxGOjkmrnpc9hgaPw3tqY=", "properties": {"@spider": "usps_collection_boxes", "addr:city": "BRISTOL", "addr:country": "US", "addr:full": "3325 LEE HWY", "addr:postcode": "24201", "addr:state": "VA", "brand": "USPS", "collection_times": "Mo-Fr 11:00", "name": "USPS COLLECTION BOX - BLUE BOX", "ref": "2420100001"}, "type": "Feature"}
{"geometry": {"coordinates": [-82.1623184, 36.620605], "type": "Point"}, "id": "baVKDMPd7uzSRLr_pgVHt2RmsOA=", "properties": {"@spider": "usps_collection_boxes", "addr:city": "BRISTOL", "addr:country": "US", "addr:full": "1875 LEE HWY", "addr:postcode": "24201", "addr:state": "VA", "brand": "USPS", "collection_times": "Mo-Sa 09:00", "name": "USPS COLLECTION BOX - BLUE BOX", "ref": "2420100002"}, "type": "Feature"}
{"geometry": {"coordinates": [-82.1768861, 36.609287], "type": "Point"}, "id": "8B-NXc_uY8clMUCyuylG9S5eMZs=", "properties": {"@spider": "usps_collection_boxes", "addr:city": "BRISTOL", "addr:country": "US", "addr:full": "5 EUCLID AVE", "addr:postcode": "24201", "addr:state": "VA", "brand": "USPS", "collection_times": "Mo-Sa 09:00", "name": "USPS COLLECTION BOX - BLUE BOX", "ref": "2420100006"}, "type": "Feature"}
{"geometry": {"coordinates": [-82.1463221, 36.618191], "type": "Point"}, "id": "DQysyvxndHXrc81hRyJEqVdgMkM=", "properties": {"@spider": "usps_collection_boxes", "addr:city": "BRISTOL", "addr:country": "US", "addr:full": "106 OAKCREST CIR", "addr:postcode": "24201", "addr:state": "VA", "brand": "USPS", "collection_times": "Mo-Sa 09:30", "name": "USPS COLLECTION BOX - BLUE BOX", "ref": "2420100007"}, "type": "Feature"}
{"geometry": {"coordinates": [-82.1936018, 36.600602], "type": "Point"}, "id": "gI8ZRICmtadA2KqfVUGuUWQ4xbE=", "properties": {"@spider": "usps_collection_boxes", "addr:city": "BRISTOL", "addr:country": "US", "addr:full": "1318 EUCLID AVE", "addr:postcode": "24201", "addr:state": "VA", "brand": "USPS", "collection_times": "Mo-Sa 12:00", "name": "USPS COLLECTION BOX - BLUE BOX", "ref": "2420100009"}, "type": "Feature"}
{"geometry": {"coordinates": [-82.1558511, 36.608645], "type": "Point"}, "id": "annDfLRUwExU2IzvvSQmI8gkKfs=", "properties": {"@spider": "usps_collection_boxes", "addr:city": "BRISTOL", "addr:country": "US", "addr:full": "100 PEBBLE DR", "addr:postcode": "24201", "addr:state": "VA", "brand": "USPS", "collection_times": "Mo-Sa 09:00", "name": "USPS COLLECTION BOX - BLUE BOX", "ref": "2420100017"}, "type": "Feature"}
{"geometry": {"coordinates": [-82.1773999, 36.600678], "type": "Point"}, "id": "Zr-AwF6gU5x93aO7HHV_HaiCAOg=", "properties": {"@spider": "usps_collection_boxes", "addr:city": "BRISTOL", "addr:country": "US", "addr:full": "314 W MARY ST", "addr:postcode": "24201", "addr:state": "VA", "brand": "USPS", "collection_times": "Mo-Sa 12:00", "name": "USPS COLLECTION BOX - BLUE BOX", "ref": "2420100018"}, "type": "Feature"}
{"geometry": {"coordinates": [-82.2017705, 36.603064], "type": "Point"}, "id": "eIp2b3Gx6koKcAz92Ao4-tiqxrU=", "properties": {"@spider": "usps_collection_boxes", "addr:city": "BRISTOL", "addr:country": "US", "addr:full": "603 RANDOLPH ST", "addr:postcode": "24201", "addr:state": "VA", "brand": "USPS", "collection_times": "Mo-Sa 10:00", "name": "USPS COLLECTION BOX - BLUE BOX", "ref": "2420100030"}, "type": "Feature"}
{"geometry": {"coordinates": [-82.1830999, 36.597666], "type": "Point"}, "id": "Oqcuys7UPm63om5H3JpeIxPWRNk=", "properties": {"@spider": "usps_collection_boxes", "addr:city": "BRISTOL", "addr:country": "US", "addr:full": "100 MOORE ST", "addr:postcode": "24201", "addr:state": "VA", "brand": "USPS", "collection_times": "Mo-Fr 12:00; Sa 11:15", "name": "USPS COLLECTION BOX - BLUE BOX", "ref": "2420100038"}, "type": "Feature"}
{"geometry": {"coordinates": [-82.1779768, 36.599791], "type": "Point"}, "id": "NjSOLPnyHn2fKCSSru9TbLZVUCQ=", "properties": {"@spider": "usps_collection_boxes", "addr:city": "BRISTOL", "addr:country": "US", "addr:full": "325 EDMOND ST", "addr:postcode": "24201", "addr:state": "VA", "brand": "USPS", "collection_times": "Mo-Sa 12:00", "name": "USPS COLLECTION BOX - BLUE BOX", "ref": "2420100039"}, "type": "Feature"}
{"geometry": {"coordinates": [-82.1834514, 36.595014], "type": "Point"}, "id": "OnOk3YEEVf87foLCUaVfvr8zFNg=", "properties": {"@spider": "usps_collection_boxes", "addr:city": "BRISTOL", "addr:country": "US", "addr:full": "601 STATE ST", "addr:postcode": "24201", "addr:state": "VA", "brand": "USPS", "collection_times": "Mo-Sa 12:00", "name": "USPS COLLECTION BOX - BLUE BOX", "ref": "2420100040"}, "type": "Feature"}
{"geometry": {"coordinates": [-82.182042021, 36.596046282], "type": "Point"}, "id": "tPBGvgjKphOGnZCBzeWSdmAZcE0=", "properties": {"@spider": "usps_collection_boxes", "addr:city": "BRISTOL", "addr:country": "US", "addr:full": "510 CUMBERLAND ST", "addr:postcode": "24201", "addr:state": "VA", "brand": "USPS", "collection_times": "Mo-Fr 12:00", "name": "USPS COLLECTION BOX - BLUE BOX", "ref": "2420100061"}, "type": "Feature"}
{"geometry": {"coordinates": [-82.1383668, 36.61113], "type": "Point"}, "id": "DQufCc2c_ReyN-Df9gqPDd7mq30=", "properties": {"@spider": "usps_collection_boxes", "addr:city": "BRISTOL", "addr:country": "US", "addr:full": "75 OLD AIRPORT RD", "addr:postcode": "24201", "addr:state": "VA", "brand": "USPS", "collection_times": "Mo-Sa 11:00", "name": "USPS COLLECTION BOX - BLUE BOX", "ref": "2420100064"}, "type": "Feature"}
{"geometry": {"coordinates": [-82.1343147, 36.622687], "type": "Point"}, "id": "e_yidIpAb1-Tpvcw8iKwD4TvAHg=", "properties": {"@spider": "usps_collection_boxes", "addr:city": "BRISTOL", "addr:country": "US", "addr:full": "17 HERITAGE DR", "addr:postcode": "24201", "addr:state": "VA", "brand": "USPS", "collection_times": "Mo-Sa 10:00", "name": "USPS COLLECTION BOX - BLUE BOX", "ref": "2420100066"}, "type": "Feature"}
{"geometry": {"coordinates": [-82.2150852, 36.596615], "type": "Point"}, "id": "bBj2MzBNJOFaEudXz86MIp1eW0E=", "properties": {"@spider": "usps_collection_boxes", "addr:city": "BRISTOL", "addr:country": "US", "addr:full": "33 MIDWAY ST", "addr:postcode": "24201", "addr:state": "VA", "brand": "USPS", "collection_times": "Mo-Sa 11:00", "name": "USPS COLLECTION BOX - BLUE BOX", "ref": "2420100072"}, "type": "Feature"}
{"geometry": {"coordinates": [-82.16124328, 36.624465476], "type": "Point"}, "id": "Pwkc7aYhGkmOop8vm8j6bcRDCi0=", "properties": {"@spider": "usps_collection_boxes", "addr:city": "BRISTOL", "addr:country": "US", "addr:full": "2002 LEE HWY", "addr:postcode": "24201", "addr:state": "VA", "brand": "USPS", "collection_times": "Mo-Fr 17:00; Sa 12:00", "name": "USPS COLLECTION BOX - BLUE BOX", "note": "ON 12/24 AND 12/31, THIS BOX MAY BE COLLECTED AS EARLY AS 12 NOON.", "ref": "2420100074"}, "type": "Feature"}
{"geometry": {"coordinates": [-82.16124328, 36.624465476], "type": "Point"}, "id": "N9Vygud88hDT48pijFuT0Jq6gN0=", "properties": {"@spider": "usps_collection_boxes", "addr:city": "BRISTOL", "addr:country": "US", "addr:full": "2002 LEE HWY", "addr:postcode": "24201", "addr:state": "VA", "brand": "USPS", "collection_times": "Mo-Fr 17:00; Sa 10:00", "name": "USPS COLLECTION BOX - PO LOBBY", "note": "ON 12/24 AND 12/31, THIS BOX MAY BE COLLECTED AS EARLY AS 12 NOON.", "ref": "2420100078"}, "type": "Feature"}
{"geometry": {"coordinates": [-82.16124328, 36.624465476], "type": "Point"}, "id": "jWKzbG9R7HFUrlCZMCRMzKjBv8k=", "properties": {"@spider": "usps_collection_boxes", "addr:city": "BRISTOL", "addr:country": "US", "addr:full": "2002 LEE HWY", "addr:postcode": "24201", "addr:state": "VA", "brand": "USPS", "collection_times": "Mo-Fr 17:00; Sa 10:00", "name": "USPS COLLECTION BOX - PO LOBBY", "note": "ON 12/24 AND 12/31, THIS BOX MAY BE COLLECTED AS EARLY AS 12 NOON.", "ref": "2420100079"}, "type": "Feature"}
{"geometry": {"coordinates": [-82.16124328, 36.624465476], "type": "Point"}, "id": "DeyoXzpmeAhi7a0-34XDQKN44GQ=", "properties": {"@spider": "usps_collection_boxes", "addr:city": "BRISTOL", "addr:country": "US", "addr:full": "2002 LEE HWY", "addr:postcode": "24201", "addr:state": "VA", "brand": "USPS", "collection_times": "Mo-Fr 17:00; Sa 10:00", "name": "USPS COLLECTION BOX - PO LOBBY", "note": "ON 12/24 AND 12/31, THIS BOX MAY BE COLLECTED AS EARLY AS 12 NOON.", "ref": "2420100080"}, "type": "Feature"}
{"geometry": {"coordinates": [-82.1320614, 36.6303], "type": "Point"}, "id": "1pM0Ui6icAWTxdKhr6egexhJ7UA=", "properties": {"@spider": "usps_collection_boxes", "addr:city": "BRISTOL", "addr:country": "US", "addr:full": "102 BONHAM RD", "addr:postcode": "24201", "addr:state": "VA", "brand": "USPS", "collection_times": "Mo-Fr 10:00", "name": "USPS COLLECTION BOX - BLUE BOX", "ref": "2420100085"}, "type": "Feature"}
{"geometry": {"coordinates": [-82.177658735, 36.594863199], "type": "Point"}, "id": "nS4cok8jz5oIW3pZc9nPRfK3Klk=", "properties": {"@spider": "usps_collection_boxes", "addr:city": "BRISTOL", "addr:country": "US", "addr:full": "111 6TH ST", "addr:postcode": "24201", "addr:state": "VA", "brand": "USPS", "collection_times": "Mo-Fr 17:00; Sa 12:00", "name": "USPS COLLECTION BOX - PO LOBBY", "note": "ON 12/24 AND 12/31, THIS BOX MAY BE COLLECTED AS EARLY AS 12 NOON.", "ref": "2420100088"}, "type": "Feature"}
{"geometry": {"coordinates": [-82.16124328, 36.624465476], "type": "Point"}, "id": "o-oSrqWQ78LuycMNRGHheG2r_1c=", "properties": {"@spider": "usps_collection_boxes", "addr:city": "BRISTOL", "addr:country": "US", "addr:full": "2002 LEE HWY", "addr:postcode": "24201", "addr:state": "VA", "brand": "USPS", "collection_times": "Mo-Fr 17:00", "name": "USPS COLLECTION BOX - PO LOBBY", "note": "ON 12/24 AND 12/31, THIS BOX MAY BE COLLECTED AS EARLY AS 12 NOON.", "ref": "2420100089"}, "type": "Feature"}
{"geometry": {"coordinates": [-82.1274249, 36.633445], "type": "Point"}, "id": "g_yPUh_cRmrdV-NZ4uY-9gUBJ5w=", "properties": {"@spider": "usps_collection_boxes", "addr:city": "BRISTOL", "addr:country": "US", "addr:full": "3124 LEE HWY", "addr:postcode": "24202", "addr:state": "VA", "brand": "USPS", "collection_times": "Mo-Sa 11:00", "name": "USPS COLLECTION BOX - BLUE BOX", "ref": "2420200004"}, "type": "Feature"}
{"geometry": {"coordinates": [-82.784524, 36.903888], "type": "Point"}, "id": "-ixydICIvyr2oZuVFwKSfMyZzjs=", "properties": {"@spider": "usps_collection_boxes", "addr:city": "APPALACHIA", "addr:country": "US", "addr:full": "534 W MAIN ST", "addr:postcode": "24216", "addr:state": "VA", "brand": "USPS", "collection_times": "Mo-Fr 16:30; Sa 10:45", "name": "USPS COLLECTION BOX - PO LOBBY", "note": "ON 12/24 AND 12/31, THIS BOX MAY BE COLLECTED AS EARLY AS 12 NOON.", "ref": "2421600003"}, "type": "Feature"}
{"geometry": {"coordinates": [-82.7849625834, 36.9035212642], "type": "Point"}, "id": "DIQrlcMnGaOtQISHBRkgQVk7QZ4=", "properties": {"@spider": "usps_collection_boxes", "addr:city": "APPALACHIA", "addr:country": "US", "addr:full": "534 W MAIN ST", "addr:postcode": "24216", "addr:state": "VA", "brand": "USPS", "collection_times": "Mo-Fr 16:30; Sa 11:00", "name": "USPS COLLECTION BOX - PO LOBBY", "note": "ON 12/24 AND 12/31, THIS BOX MAY BE COLLECTED AS EARLY AS 12 NOON.", "ref": "2421600005"}, "type": "Feature"}
{"geometry": {"coordinates": [-83.0831195106, 36.7321693822], "type": "Point"}, "id": "H3qLxoPezzB0UV7KNxQjQyPo8go=", "properties": {"@spider": "usps_collection_boxes", "addr:city": "BEN HUR", "addr:country": "US", "addr:full": "37997 VETERANS MEMORIAL HWY", "addr:postcode": "24218", "addr:state": "VA", "brand": "USPS", "collection_times": "Mo-Sa 11:30", "name": "USPS COLLECTION BOX - PO LOBBY", "ref": "2421800000"}, "type": "Feature"}
{"geometry": {"coordinates": [-83.083315, 36.732231], "type": "Point"}, "id": "MdBz24FoSf7nh718HpUE62y_ULw=", "properties": {"@spider": "usps_collection_boxes", "addr:city": "BEN HUR", "addr:country": "US", "addr:full": "37997 VETERANS MEMORIAL HWY", "addr:postcode": "24218", "addr:state": "VA", "brand": "USPS", "collection_times": "Mo-Sa 11:30", "name": "USPS COLLECTION BOX - PO LOBBY", "ref": "2421800001"}, "type": "Feature"}
{"geometry": {"coordinates": [-83.083119259, 36.732159492], "type": "Point"}, "id": "EGg5cJ_MMD1EQKvCZYRZSbNadRU=", "properties": {"@spider": "usps_collection_boxes", "addr:city": "BEN HUR", "addr:country": "US", "addr:full": "37997 VETERANS MEMORIAL HWY", "addr:postcode": "24218", "addr:state": "VA", "brand": "USPS", "collection_times": "Mo-Fr 11:45; Sa 11:30", "name": "USPS COLLECTION BOX - PO LOBBY", "ref": "2421800003"}, "type": "Feature"}
{"geometry": {"coordinates": [-82.781248, 36.871903], "type": "Point"}, "id": "0OYfDSdnVYG6ScvczR6PNXqwLwU=", "properties": {"@spider": "usps_collection_boxes", "addr:city": "BIG STONE GAP", "addr:country": "US", "addr:full": "19 4TH ST E", "addr:postcode": "24219", "addr:state": "VA", "brand": "USPS", "collection_times": "Mo-Fr 12:00; Sa 11:00", "name": "USPS COLLECTION BOX - BLUE BOX", "ref": "2421900007"}, "type": "Feature"}
{"geometry": {"coordinates": [-82.775667457, 36.866434025], "type": "Point"}, "id": "pctLEIzMkmI1il1FjsprvXn5-ws=", "properties": {"@spider": "usps_collection_boxes", "addr:city": "BIG STONE GAP", "addr:country": "US", "addr:full": "322 WOOD AVE E", "addr:postcode": "24219", "addr:state": "VA", "brand": "USPS", "collection_times": "Mo-Fr 16:30; Sa 11:00", "name": "USPS COLLECTION BOX - PO LOBBY", "note": "ON 12/24 AND 12/31, THIS BOX MAY BE COLLECTED AS EARLY AS 12 NOON.", "ref": "2421900014"}, "type": "Feature"}
{"geometry": {"coordinates": [-82.775667457, 36.866434025], "type": "Point"}, "id": "ec2kopZZqF-4l_3SFBuo9Kja5bk=", "properties": {"@spider": "usps_collection_boxes", "addr:city": "BIG STONE GAP", "addr:country": "US", "addr:full": "322 WOOD AVE E STE 2", "addr:postcode": "24219", "addr:state": "VA", "brand": "USPS", "collection_times": "Mo-Fr 16:30; Sa 11:00", "name": "USPS COLLECTION BOX - PO LOBBY", "note": "ON 12/24 AND 12/31, THIS BOX MAY BE COLLECTED AS EARLY AS 12 NOON.", "ref": "2421900018"}, "type": "Feature"}
{"geometry": {"coordinates": [-83.051942, 36.628066], "type": "Point"}, "id": "FO1_oK32Hn0652Jp_hT6KCoEGqM=", "properties": {"@spider": "usps_collection_boxes", "addr:city": "BLACKWATER", "addr:country": "US", "addr:full": "8989 STATE ROUTE 70", "addr:postcode": "24221", "addr:state": "VA", "brand": "USPS", "collection_times": "Mo-Sa 12:45", "name": "USPS COLLECTION BOX - PO LOBBY", "note": "ON 12/24 AND 12/31, THIS BOX MAY BE COLLECTED AS EARLY AS 12 NOON.", "ref": "2422100001"}, "type": "Feature"}
{"geometry": {"coordinates": [-83.052021951, 36.627868538], "type": "Point"}, "id": "GDR12hEK8qlDY1YAo5dBje7ZisM=", "properties": {"@spider": "usps_collection_boxes", "addr:city": "BLACKWATER", "addr:country": "US", "addr:full": "8989 STATE ROUTE 70 STE 101", "addr:postcode": "24221", "addr:state": "VA", "brand": "USPS", "collection_times": "Mo-Sa 13:00", "name": "USPS COLLECTION BOX - PO LOBBY", "note": "ON 12/24 AND 12/31, THIS BOX MAY BE COLLECTED AS EARLY AS 12 NOON.", "ref": "2422100003"}, "type": "Feature"}
{"geometry": {"coordinates": [-82.918493, 36.780024], "type": "Point"}, "id": "DqnWtBHvBRDv5WcoDzb_xL6m2Rg=", "properties": {"@spider": "usps_collection_boxes", "addr:city": "DRYDEN", "addr:country": "US", "addr:full": "48354 VETERANS MEMORIAL HWY", "addr:postcode": "24243", "addr:state": "VA", "brand": "USPS", "collection_times": "Mo-Fr 12:00; Sa 11:30", "name": "USPS COLLECTION BOX - BLUE BOX", "ref": "2424300000"}, "type": "Feature"}
{"geometry": {"coordinates": [-82.918566, 36.780058], "type": "Point"}, "id": "boFYj2XPBA-I8xXV37QVJiM9-Pw=", "properties": {"@spider": "usps_collection_boxes", "addr:city": "DRYDEN", "addr:country": "US", "addr:full": "48354 VETERANS MEMORIAL HWY", "addr:postcode": "24243", "addr:state": "VA", "brand": "USPS", "collection_times": "Mo-Fr 16:15; Sa 11:30", "name": "USPS COLLECTION BOX - PO LOBBY", "note": "ON 12/24 AND 12/31, THIS BOX MAY BE COLLECTED AS EARLY AS 12 NOON.", "ref": "2424300001"}, "type": "Feature"}
{"geometry": {"coordinates": [-82.918524718, 36.779968721], "type": "Point"}, "id": "gwh5sGP1XGpp8ZNNZAcD8prgCk4=", "properties": {"@spider": "usps_collection_boxes", "addr:city": "DRYDEN", "addr:country": "US", "addr:full": "48354 VETERANS MEMORIAL HWY", "addr:postcode": "24243", "addr:state": "VA", "brand": "USPS", "collection_times": "Mo-Fr 16:00; Sa 11:30", "name": "USPS COLLECTION BOX - PO LOBBY", "note": "ON 12/24 AND 12/31, THIS BOX MAY BE COLLECTED AS EARLY AS 12 NOON.", "ref": "2424300005"}, "type": "Feature"}
{"geometry": {"coordinates": [-82.799356107, 36.711062472], "type": "Point"}, "id": "T5e17zecjlGDUsYfrnR079TbV4M=", "properties": {"@spider": "usps_collection_boxes", "addr:city": "DUFFIELD", "addr:country": "US", "addr:full": "466 DUFF PATT HWY", "addr:postcode": "24244", "addr:state": "VA", "brand": "USPS", "collection_times": "Mo-Fr 16:30; Sa 10:45", "name": "USPS COLLECTION BOX - PO LOBBY", "note": "ON 12/24 AND 12/31, THIS BOX MAY BE COLLECTED AS EARLY AS 12 NOON.", "ref": "2424400001"}, "type": "Feature"}
{"geometry": {"coordinates": [-82.799356107, 36.711062472], "type": "Point"}, "id": "9wIilL_gExuNdUY52QEqlpWNkGI=", "properties": {"@spider": "usps_collection_boxes", "addr:city": "DUFFIELD", "addr:country": "US", "addr:full": "466 DUFF PATT HWY", "addr:postcode": "24244", "addr:state": "VA", "brand": "USPS", "collection_times": "Mo-Fr 12:00; Sa 10:45", "name": "USPS COLLECTION BOX - BLUE BOX", "ref": "2424400002"}, "type": "Feature"}
{"geometry": {"coordinates": [-82.799356107, 36.711062472], "type": "Point"}, "id": "IEZrdbn6Nkkkhb9Jw0UD7Ej2nqo=", "properties": {"@spider": "usps_collection_boxes", "addr:city": "DUFFIELD", "addr:country": "US", "addr:full": "466 DUFF PATT HWY", "addr:postcode": "24244", "addr:state": "VA", "brand": "USPS", "collection_times": "Mo-Fr 16:30; Sa 10:00", "name": "USPS COLLECTION BOX - PO LOBBY", "note": "ON 12/24 AND 12/31, THIS BOX MAY BE COLLECTED AS EARLY AS 12 NOON.", "ref": "2424400004"}, "type": "Feature"}
{"geometry": {"coordinates": [-82.742056, 36.866899], "type": "Point"}, "id": "bZnIYGo4IXC0pyHxtyrDXNqZDxc=", "properties": {"@spider": "usps_collection_boxes", "addr:city": "EAST STONE GAP", "addr:country": "US", "addr:full": "3911 E STONE GAP RD", "addr:postcode": "24246", "addr:state": "VA", "brand": "USPS", "collection_times": "Mo-Fr 12:00; Sa 10:30", "name": "USPS COLLECTION BOX - BLUE BOX", "ref": "2424600000"}, "type": "Feature"}
{"geometry": {"coordinates": [-82.742069, 36.866874], "type": "Point"}, "id": "DZvOLt80YY9Lqd0QFfSh4lq5UKc=", "properties": {"@spider": "usps_collection_boxes", "addr:city": "EAST STONE GAP", "addr:country": "US", "addr:full": "3911 E STONE GAP RD", "addr:postcode": "24246", "addr:state": "VA", "brand": "USPS", "collection_times": "Mo-Fr 11:45; Sa 10:30", "name": "USPS COLLECTION BOX - PO LOBBY", "ref": "2424600001"}, "type": "Feature"}
{"geometry": {"coordinates": [-82.742835248, 36.867190574], "type": "Point"}, "id": "rM0TJcL7xFO73q9D_6va4ELp_V0=", "properties": {"@spider": "usps_collection_boxes", "addr:city": "EAST STONE GAP", "addr:country": "US", "addr:full": "3911 E STONE GAP RD", "addr:postcode": "24246", "addr:state": "VA", "brand": "USPS", "collection_times": "Mo-Fr 12:00; Sa 10:30", "name": "USPS COLLECTION BOX - PO LOBBY", "ref": "2424600003"}, "type": "Feature"}
{"geometry": {"coordinates": [-83.432282652, 36.636392032], "type": "Point"}, "id": "HzCcn-zV4X2o7gkxdA0JCBzCHkg=", "properties": {"@spider": "usps_collection_boxes", "addr:city": "EWING", "addr:country": "US", "addr:full": "1579 DR THOMAS WALKER RD", "addr:postcode": "24248", "addr:state": "VA", "brand": "USPS", "collection_times": "Mo-Fr 11:15; Sa 12:00", "name": "USPS COLLECTION BOX - BLUE BOX", "ref": "2424800000"}, "type": "Feature"}
{"geometry": {"coordinates": [-83.432282652, 36.636392032], "type": "Point"}, "id": "1C-2gZTt5bXlpkqInLs3Qn2KWIw=", "properties": {"@spider": "usps_collection_boxes", "addr:city": "EWING", "addr:country": "US", "addr:full": "1579 DR THOMAS WALKER RD", "addr:postcode": "24248", "addr:state": "VA", "brand": "USPS", "collection_times": "Mo-Fr 15:45; Sa 12:00", "name": "USPS COLLECTION BOX - PO LOBBY", "note": "ON 12/24 AND 12/31, THIS BOX MAY BE COLLECTED AS EARLY AS 12 NOON.", "ref": "2424800001"}, "type": "Feature"}
{"geometry": {"coordinates": [-83.432282652, 36.636392032], "type": "Point"}, "id": "4sb9G3_aI03CUR1dCUaQme01xDQ=", "properties": {"@spider": "usps_collection_boxes", "addr:city": "EWING", "addr:country": "US", "addr:full": "1579 DR THOMAS WALKER RD", "addr:postcode": "24248", "addr:state": "VA", "brand": "USPS", "collection_times": "Mo-Fr 16:00; Sa 11:30", "name": "USPS COLLECTION BOX - PO LOBBY", "note": "ON 12/24 AND 12/31, THIS BOX MAY BE COLLECTED AS EARLY AS 12 NOON.", "ref": "2424800003"}, "type": "Feature"}
{"geometry": {"coordinates": [-82.5807553, 36.637731], "type": "Point"}, "id": "x8vhOEWta0nlmu74WTt2yDyrkeU=", "properties": {"@spider": "usps_collection_boxes", "addr:city": "GATE CITY", "addr:country": "US", "addr:full": "105 WEST JACKSON ST", "addr:postcode": "24251", "addr:state": "VA", "brand": "USPS", "collection_times": "Mo-Fr 11:30; Sa 11:00", "name": "USPS COLLECTION BOX - BLUE BOX", "ref": "2425100001"}, "type": "Feature"}
{"geometry": {"coordinates": [-82.5687305, 36.642043], "type": "Point"}, "id": "0yIWvge7sBiPpKrhcML2zFWHW8s=", "properties": {"@spider": "usps_collection_boxes", "addr:city": "GATE CITY", "addr:country": "US", "addr:full": "219 GATEWOOD CT", "addr:postcode": "24251", "addr:state": "VA", "brand": "USPS", "collection_times": "Mo-Sa 09:00", "name": "USPS COLLECTION BOX - BLUE BOX", "ref": "2425100002"}, "type": "Feature"}
{"geometry": {"coordinates": [-82.570716217, 36.642107713], "type": "Point"}, "id": "FT97mwz8NeoeQSjXi5L-g4bGNCI=", "properties": {"@spider": "usps_collection_boxes", "addr:city": "GATE CITY", "addr:country": "US", "addr:full": "380 JONES ST", "addr:postcode": "24251", "addr:state": "VA", "brand": "USPS", "collection_times": "Mo-Fr 12:00; Sa 10:45", "name": "USPS COLLECTION BOX - BLUE BOX", "ref": "2425100004"}, "type": "Feature"}
{"geometry": {"coordinates": [-82.570716217, 36.642107713], "type": "Point"}, "id": "OonPsOKNmsYt1Z5Nl6hjdsfVAp8=", "properties": {"@spider": "usps_collection_boxes", "addr:city": "GATE CITY", "addr:country": "US", "addr:full": "380 JONES ST", "addr:postcode": "24251", "addr:state": "VA", "brand": "USPS", "collection_times": "Mo-Fr 16:15; Sa 10:15", "name": "USPS COLLECTION BOX - PO LOBBY", "note": "ON 12/24 AND 12/31, THIS BOX MAY BE COLLECTED AS EARLY AS 12 NOON.", "ref": "2425100007"}, "type": "Feature"}
{"geometry": {"coordinates": [-82.5540957, 36.627272], "type": "Point"}, "id": "PNHMCe_yFzJbIfo1DaPid3YD0bU=", "properties": {"@spider": "usps_collection_boxes", "addr:city": "GATE CITY", "addr:country": "US", "addr:full": "2758 US HIGHWAY 23 NORTH", "addr:postcode": "24251", "addr:state": "VA", "brand": "USPS", "collection_times": "Mo-Sa 11:30", "name": "USPS COLLECTION BOX - BLUE BOX", "ref": "2425100009"}, "type": "Feature"}
{"geometry": {"coordinates": [-82.570716217, 36.642107713], "type": "Point"}, "id": "K_3KfrTYZuMZdZvhU8Xs0hi9_as=", "properties": {"@spider": "usps_collection_boxes", "addr:city": "GATE CITY", "addr:country": "US", "addr:full": "380 JONES ST", "addr:postcode": "24251", "addr:state": "VA", "brand": "USPS", "collection_times": "Mo-Fr 16:30; Sa 11:00", "name": "USPS COLLECTION BOX - PO LOBBY", "note": "ON 12/24 AND 12/31, THIS BOX MAY BE COLLECTED AS EARLY AS 12 NOON.", "ref": "2425100012"}, "type": "Feature"}
{"geometry": {"coordinates": [-82.464385, 36.655228], "type": "Point"}, "id": "ETDnF401uzFi0H0hYoG0tMeRpfI=", "properties": {"@spider": "usps_collection_boxes", "addr:city": "HILTONS", "addr:country": "US", "addr:full": "90 SECOND ST", "addr:postcode": "24258", "addr:state": "VA", "brand": "USPS", "collection_times": "Mo-Fr 11:30; Sa 10:00", "name": "USPS COLLECTION BOX - BLUE BOX", "ref": "2425800000"}, "type": "Feature"}
{"geometry": {"coordinates": [-82.464455, 36.655235], "type": "Point"}, "id": "zLW_8S9RR08d7VcwqqM6rcazpIY=", "properties": {"@spider": "usps_collection_boxes", "addr:city": "HILTONS", "addr:country": "US", "addr:full": "90 SECOND ST", "addr:postcode": "24258", "addr:state": "VA", "brand": "USPS", "collection_times": "Mo-Fr 11:15; Sa 10:00", "name": "USPS COLLECTION BOX - PO LOBBY", "ref": "2425800001"}, "type": "Feature"}
{"geometry": {"coordinates": [-82.46440241, 36.655169569], "type": "Point"}, "id": "T9F-_I3d1810BM4I-qHNOlNFq3E=", "properties": {"@spider": "usps_collection_boxes", "addr:city": "HILTONS", "addr:country": "US", "addr:full": "90 SECOND ST", "addr:postcode": "24258", "addr:state": "VA", "brand": "USPS", "collection_times": "Mo-Fr 11:30; Sa 10:30", "name": "USPS COLLECTION BOX - PO LOBBY", "ref": "2425800003"}, "type": "Feature"}
{"geometry": {"coordinates": [-83.110062294, 36.68960173], "type": "Point"}, "id": "uVFh1pBQ1ONeHEISLg42kBiOu7g=", "properties": {"@spider": "usps_collection_boxes", "addr:city": "JONESVILLE", "addr:country": "US", "addr:full": "169 CHURCH ST", "addr:postcode": "24263", "addr:state": "VA", "brand": "USPS", "collection_times": "Mo-Sa 12:00", "name": "USPS COLLECTION BOX - BLUE BOX", "ref": "2426300000"}, "type": "Feature"}
{"geometry": {"coordinates": [-83.1101428, 36.689588], "type": "Point"}, "id": "HkIEg3d3tiUDAqM6vpv7gzxVQK0=", "properties": {"@spider": "usps_collection_boxes", "addr:city": "JONESVILLE", "addr:country": "US", "addr:full": "1 CHURCH ST", "addr:postcode": "24263", "addr:state": "VA", "brand": "USPS", "collection_times": "Mo-Fr 16:15; Sa 13:00", "name": "USPS COLLECTION BOX - PO LOBBY", "note": "ON 12/24 AND 12/31, THIS BOX MAY BE COLLECTED AS EARLY AS 12 NOON.", "ref": "2426300001"}, "type": "Feature"}
{"geometry": {"coordinates": [-83.110062294, 36.68960173], "type": "Point"}, "id": "kg_DwRu4NB0oMz7yGeJZfvTWoAU=", "properties": {"@spider": "usps_collection_boxes", "addr:city": "JONESVILLE", "addr:country": "US", "addr:full": "169 CHURCH ST", "addr:postcode": "24263", "addr:state": "VA", "brand": "USPS", "collection_times": "Mo-Fr 16:30; Sa 12:00", "name": "USPS COLLECTION BOX - PO LOBBY", "note": "ON 12/24 AND 12/31, THIS BOX MAY BE COLLECTED AS EARLY AS 12 NOON.", "ref": "2426300003"}, "type": "Feature"}
{"geometry": {"coordinates": [-82.898226, 36.865093], "type": "Point"}, "id": "hH48eKXvq6kq9xhDWMyNb1QqMsU=", "properties": {"@spider": "usps_collection_boxes", "addr:city": "KEOKEE", "addr:country": "US", "addr:full": "119 POST OFFICE RD", "addr:postcode": "24265", "addr:state": "VA", "brand": "USPS", "collection_times": "Mo-Fr 12:00; Sa 11:15", "name": "USPS COLLECTION BOX - BLUE BOX", "ref": "2426500000"}, "type": "Feature"}
{"geometry": {"coordinates": [-82.898239, 36.865171], "type": "Point"}, "id": "ZvhYiWK3KvDVY0DjWXCRvC5pjOs=", "properties": {"@spider": "usps_collection_boxes", "addr:city": "KEOKEE", "addr:country": "US", "addr:full": "119 POST OFFICE RD", "addr:postcode": "24265", "addr:state": "VA", "brand": "USPS", "collection_times": "Mo-Fr 11:45; Sa 11:15", "name": "USPS COLLECTION BOX - PO LOBBY", "ref": "2426500001"}, "type": "Feature"}
{"geometry": {"coordinates": [-82.898209054, 36.865137929], "type": "Point"}, "id": "sgqzB2J9545MIh_TArlro5Ms3PY=", "properties": {"@spider": "usps_collection_boxes", "addr:city": "KEOKEE", "addr:country": "US", "addr:full": "119 POST OFFICE RD", "addr:postcode": "24265", "addr:state": "VA", "brand": "USPS", "collection_times": "Mo-Fr 12:00; Sa 11:30", "name": "USPS COLLECTION BOX - PO LOBBY", "ref": "2426500003"}, "type": "Feature"}
{"geometry": {"coordinates": [-82.3062275193, 36.7070115318], "type": "Point"}, "id": "UdgqretOssisPyqSAWHpcJEmMDY=", "properties": {"@spider": "usps_collection_boxes", "addr:city": "MENDOTA", "addr:country": "US", "addr:full": "2543 MENDOTA RD", "addr:postcode": "24270", "addr:state": "VA", "brand": "USPS", "collection_times": "Mo-Fr 11:30; Sa 11:45", "name": "USPS COLLECTION BOX - BLUE BOX", "ref": "2427000000"}, "type": "Feature"}
{"geometry": {"coordinates": [-82.3062275193, 36.7070115318], "type": "Point"}, "id": "5slDzh3-8NGQSuzbD_7etA2m-Q4=", "properties": {"@spider": "usps_collection_boxes", "addr:city": "MENDOTA", "addr:country": "US", "addr:full": "2543 MENDOTA RD", "addr:postcode": "24270", "addr:state": "VA", "brand": "USPS", "collection_times": "Mo-Sa 11:45", "name": "USPS COLLECTION BOX - PO LOBBY", "ref": "2427000001"}, "type": "Feature"}
{"geometry": {"coordinates": [-82.3062275193, 36.7070115318], "type": "Point"}, "id": "mbX5BPMQPQhbKE8lFQyM4ynsUxE=", "properties": {"@spider": "usps_collection_boxes", "addr:city": "MENDOTA", "addr:country": "US", "addr:full": "2543 MENDOTA RD", "addr:postcode": "24270", "addr:state": "VA", "brand": "USPS", "collection_times": "Mo-Fr 12:00; Sa 11:45", "name": "USPS COLLECTION BOX - PO LOBBY", "ref": "2427000003"}, "type": "Feature"}
{"geometry": {"coordinates": [-83.048598201, 36.748413274], "type": "Point"}, "id": "jWETMz8mx-fSeAsWuiY8SoTHkdc=", "properties": {"@spider": "usps_collection_boxes", "addr:city": "PENNINGTON GAP", "addr:country": "US", "addr:full": "301 W MORGAN AVE", "addr:postcode": "24277", "addr:state": "VA", "brand": "USPS", "collection_times": "Mo-Fr 14:45; Sa 11:30", "name": "USPS COLLECTION BOX - BLUE BOX", "note": "ON 12/24 AND 12/31, THIS BOX MAY BE COLLECTED AS EARLY AS 12 NOON.", "ref": "2427700005"}, "type": "Feature"}
{"geometry": {"coordinates": [-83.048598201, 36.748413274], "type": "Point"}, "id": "-A-3Gi6LRiCSsCrIE5qe7VnBEQE=", "properties": {"@spider": "usps_collection_boxes", "addr:city": "PENNINGTON GAP", "addr:country": "US", "addr:full": "301 W MORGAN AVE", "addr:postcode": "24277", "addr:state": "VA", "brand": "USPS", "collection_times": "Mo-Fr 16:15; Sa 11:30", "name": "USPS COLLECTION BOX - PO LOBBY", "note": "ON 12/24 AND 12/31, THIS BOX MAY BE COLLECTED AS EARLY AS 12 NOON.", "ref": "2427700008"}, "type": "Feature"}
{"geometry": {"coordinates": [-83.029198464, 36.75740047], "type": "Point"}, "id": "4MTWHNjECla_Y5FdGpeMaNVJCcI=", "properties": {"@spider": "usps_collection_boxes", "addr:city": "PENNINGTON GAP", "addr:country": "US", "addr:full": "41610 W MORGAN AVE", "addr:postcode": "24277", "addr:state": "VA", "brand": "USPS", "collection_times": "Mo-Fr 16:30; Sa 12:00", "name": "USPS COLLECTION BOX - PO LOBBY", "note": "ON 12/24 AND 12/31, THIS BOX MAY BE COLLECTED AS EARLY AS 12 NOON.", "ref": "2427700010"}, "type": "Feature"}
{"geometry": {"coordinates": [-83.361023, 36.674565], "type": "Point"}, "id": "I2gLoZIUFgI-TEDYCfgmJbN4EsI=", "properties": {"@spider": "usps_collection_boxes", "addr:city": "ROSE HILL", "addr:country": "US", "addr:full": "6501 DR THOMAS WALKER RD", "addr:postcode": "24281", "addr:state": "VA", "brand": "USPS", "collection_times": "Mo-Fr 12:00; Sa 11:15", "name": "USPS COLLECTION BOX - BLUE BOX", "ref": "2428100000"}, "type": "Feature"}
{"geometry": {"coordinates": [-83.361063, 36.674514], "type": "Point"}, "id": "c0oZB89fYLWpPXfV4bAZA8pe3Yw=", "properties": {"@spider": "usps_collection_boxes", "addr:city": "ROSE HILL", "addr:country": "US", "addr:full": "6501 DR THOMAS WALKER RD", "addr:postcode": "24281", "addr:state": "VA", "brand": "USPS", "collection_times": "Mo-Fr 15:15; Sa 11:15", "name": "USPS COLLECTION BOX - PO LOBBY", "note": "ON 12/24 AND 12/31, THIS BOX MAY BE COLLECTED AS EARLY AS 12 NOON.", "ref": "2428100001"}, "type": "Feature"}
{"geometry": {"coordinates": [-83.360887683, 36.674642754], "type": "Point"}, "id": "N1DELuvjtuWi9XuqnTPna39yxQc=", "properties": {"@spider": "usps_collection_boxes", "addr:city": "ROSE HILL", "addr:country": "US", "addr:full": "6501 DR THOMAS WALKER RD", "addr:postcode": "24281", "addr:state": "VA", "brand": "USPS", "collection_times": "Mo-Fr 15:30; Sa 11:30", "name": "USPS COLLECTION BOX - PO LOBBY", "note": "ON 12/24 AND 12/31, THIS BOX MAY BE COLLECTED AS EARLY AS 12 NOON.", "ref": "2428100003"}, "type": "Feature"}
{"geometry": {"coordinates": [-83.056726, 36.805186], "type": "Point"}, "id": "YHYYgy_PSQ80OE-8VqQrP03Q6kU=", "properties": {"@spider": "usps_collection_boxes", "addr:city": "SAINT CHARLES", "addr:country": "US", "addr:full": "155 MONARCH RD", "addr:postcode": "24282", "addr:state": "VA", "brand": "USPS", "collection_times": "Mo-Fr 12:00; Sa 11:30", "name": "USPS COLLECTION BOX - BLUE BOX", "ref": "2428200000"}, "type": "Feature"}
{"geometry": {"coordinates": [-83.056712, 36.805153], "type": "Point"}, "id": "RD3QItAdDATQ9njuPKUiEbO7ha0=", "properties": {"@spider": "usps_collection_boxes", "addr:city": "SAINT CHARLES", "addr:country": "US", "addr:full": "155 MONARCH RD", "addr:postcode": "24282", "addr:state": "VA", "brand": "USPS", "collection_times": "Mo-Fr 11:45; Sa 11:40", "name": "USPS COLLECTION BOX - PO LOBBY", "ref": "2428200001"}, "type": "Feature"}
{"geometry": {"coordinates": [-83.056729117, 36.805170761], "type": "Point"}, "id": "tPRpqXY6vPz2Y6hFsdXifa7CE7A=", "properties": {"@spider": "usps_collection_boxes", "addr:city": "SAINT CHARLES", "addr:country": "US", "addr:full": "155 MONARCH RD", "addr:postcode": "24282", "addr:state": "VA", "brand": "USPS", "collection_times": "Mo-Fr 12:00; Sa 11:30", "name": "USPS COLLECTION BOX - PO LOBBY", "ref": "2428200005"}, "type": "Feature"}
