{"geometry": {"coordinates": [-81.375119026, 28.663696546], "type": "Point"}, "id": "2ZltwjaGbitIScr3OjyJby-hqCc=", "properties": {"@spider": "usps_collection_boxes", "addr:city": "ALTAMONTE SPG", "addr:country": "US", "addr:full": "478 E ALTAMONTE DR STE 108", "addr:postcode": "32701", "addr:state": "FL", "brand": "USPS", "collection_times": "Mo-Fr 15:00; Sa 12:00", "name": "USPS COLLECTION BOX - BLUE BOX", "note": "ON 12/24 AND 12/31, THIS BOX MAY BE COLLECTED AS EARLY AS 12 NOON.", "ref": "3270100001"}, "type": "Feature"}
{"geometry": {"coordinates": [-81.368034798, 28.663985298], "type": "Point"}, "id": "KfoxXYppV8gnQwiLl-jgkkSYokU=", "properties": {"@spider": "usps_collection_boxes", "addr:city": "ALTAMONTE SPG", "addr:country": "US", "addr:full": "661 E ALTAMONTE DR", "addr:postcode": "32701", "addr:state": "FL", "brand": "USPS", "collection_times": "Mo-Fr 15:15; Sa 12:15", "name": "USPS COLLECTION BOX - BLUE BOX", "note": "ON 12/24 AND 12/31, THIS BOX MAY BE COLLECTED AS EARLY AS 12 NOON.", "ref": "3270100007"}, "type": "Feature"}
{"geometry": {"coordinates": [-81.378595377, 28.663780816], "type": "Point"}, "id": "63P3JyX8uzuxrgvCtKbyHe8RMW4=", "properties": {"@spider": "usps_collection_boxes", "addr:city": "ALTAMONTE SPG", "addr:country": "US", "addr:full": "451 E ALTAMONTE DR", "addr:postcode": "32701", "addr:state": "FL", "brand": "USPS", "collection_times": "Mo-Fr 14:30; Sa 11:00", "name": "USPS COLLECTION BOX - BLUE BOX", "note": "ON 12/24 AND 12/31, THIS BOX MAY BE COLLECTED AS EARLY AS 12 NOON.", "ref": "3270100012"}, "type": "Feature"}
{"geometry": {"coordinates": [-81.371151342, 28.662786807], "type": "Point"}, "id": "eJMyx7kg69bU6s4e-K2D18VYuYc=", "properties": {"@spider": "usps_collection_boxes", "addr:city": "ALTAMONTE SPG", "addr:country": "US", "addr:full": "106 BOSTON AVE", "addr:postcode": "32701", "addr:state": "FL", "brand": "USPS", "collection_times": "Mo-Fr 15:00; Sa 12:00", "name": "USPS COLLECTION BOX - BLUE BOX", "note": "ON 12/24 AND 12/31, THIS BOX MAY BE COLLECTED AS EARLY AS 12 NOON.", "ref": "3270100017"}, "type": "Feature"}
{"geometry": {"coordinates": [-81.383852931, 28.669145342], "type": "Point"}, "id": "3fR9a1QPMwKv6fgxLShi99Kc1bo=", "properties": {"@spider": "usps_collection_boxes", "addr:city": "ALTAMONTE SPG", "addr:country": "US", "addr:full": "300 CENTERPOINTE CIR", "addr:postcode": "32701", "addr:state": "FL", "brand": "USPS", "collection_times": "Mo-Fr 14:30; Sa 11:15", "name": "USPS COLLECTION BOX - BLUE BOX", "note": "ON 12/24 AND 12/31, THIS BOX MAY BE COLLECTED AS EARLY AS 12 NOON.", "ref": "3270100018"}, "type": "Feature"}
{"geometry": {"coordinates": [-81.365831578, 28.659559551], "type": "Point"}, "id": "vA9BSGURLSqAFfPnddRswoUhWow=", "properties": {"@spider": "usps_collection_boxes", "addr:city": "ALTAMONTE SPG", "addr:country": "US", "addr:full": "251 MAITLAND AVE", "addr:postcode": "32701", "addr:state": "FL", "brand": "USPS", "collection_times": "Mo-Fr 15:15; Sa 12:15", "name": "USPS COLLECTION BOX - BLUE BOX", "note": "ON 12/24 AND 12/31, THIS BOX MAY BE COLLECTED AS EARLY AS 12 NOON.", "ref": "3270100027"}, "type": "Feature"}
{"geometry": {"coordinates": [-81.382890795, 28.666462968], "type": "Point"}, "id": "svtY5doQuQj290Q_HgyyaEVC-Jw=", "properties": {"@spider": "usps_collection_boxes", "addr:city": "ALTAMONTE SPG", "addr:country": "US", "addr:full": "283 CRANES ROOST BLVD", "addr:postcode": "32701", "addr:state": "FL", "brand": "USPS", "collection_times": "Mo-Fr 14:30; Sa 11:15", "name": "USPS COLLECTION BOX - BLUE BOX", "note": "ON 12/24 AND 12/31, THIS BOX MAY BE COLLECTED AS EARLY AS 12 NOON.", "ref": "3270100030"}, "type": "Feature"}
{"geometry": {"coordinates": [-81.386253165, 28.65672832], "type": "Point"}, "id": "jSTqHuydX-NTUw3d-wanUz3GiMs=", "properties": {"@spider": "usps_collection_boxes", "addr:city": "ALTAMONTE SPG", "addr:country": "US", "addr:full": "317 S NORTH LAKE BLVD", "addr:postcode": "32701", "addr:state": "FL", "brand": "USPS", "collection_times": "Mo-Fr 14:45; Sa 11:45", "name": "USPS COLLECTION BOX - BLUE BOX", "note": "ON 12/24 AND 12/31, THIS BOX MAY BE COLLECTED AS EARLY AS 12 NOON.", "ref": "3270100031"}, "type": "Feature"}
{"geometry": {"coordinates": [-81.386341825, 28.649057931], "type": "Point"}, "id": "zNHZSu231QGakkCxTVUmRfDZgGw=", "properties": {"@spider": "usps_collection_boxes", "addr:city": "ALTAMONTE SPG", "addr:country": "US", "addr:full": "650 S NORTH LAKE BLVD", "addr:postcode": "32701", "addr:state": "FL", "brand": "USPS", "collection_times": "Mo-Fr 14:45; Sa 11:45", "name": "USPS COLLECTION BOX - BLUE BOX", "note": "ON 12/24 AND 12/31, THIS BOX MAY BE COLLECTED AS EARLY AS 12 NOON.", "ref": "3270100034"}, "type": "Feature"}
{"geometry": {"coordinates": [-81.35222872, 28.663026477], "type": "Point"}, "id": "A9i-a2RX6n5ucVTCuxKctpb3ey8=", "properties": {"@spider": "usps_collection_boxes", "addr:city": "ALTAMONTE SPG", "addr:country": "US", "addr:full": "1140 E ALTAMONTE DR", "addr:postcode": "32701", "addr:state": "FL", "brand": "USPS", "collection_times": "Mo-Fr 17:00; Sa 12:00", "name": "USPS COLLECTION BOX - PO LOBBY", "note": "ON 12/24 AND 12/31, THIS BOX MAY BE COLLECTED AS EARLY AS 12 NOON.", "ref": "3270100045"}, "type": "Feature"}
{"geometry": {"coordinates": [-81.35222872, 28.663026477], "type": "Point"}, "id": "b3WUR_83IBoKoPd0klab7F7uh9Y=", "properties": {"@spider": "usps_collection_boxes", "addr:city": "ALTAMONTE SPG", "addr:country": "US", "addr:full": "1140 E ALTAMONTE DR STE 1016", "addr:postcode": "32701", "addr:state": "FL", "brand": "USPS", "collection_times": "Mo-Fr 17:00; Sa 12:00", "name": "USPS COLLECTION BOX - PO LOBBY", "note": "ON 12/24 AND 12/31, THIS BOX MAY BE COLLECTED AS EARLY AS 12 NOON.", "ref": "3270100052"}, "type": "Feature"}
{"geometry": {"coordinates": [-81.650566146, 28.961748358], "type": "Point"}, "id": "6gBfw9MYzMmSNou55iy2nINkKcQ=", "properties": {"@spider": "usps_collection_boxes", "addr:city": "ALTOONA", "addr:country": "US", "addr:full": "42038 STATE ROAD 19", "addr:postcode": "32702", "addr:state": "FL", "brand": "USPS", "collection_times": "Mo-Fr 16:30; Sa 12:00", "name": "USPS COLLECTION BOX - BLUE BOX", "note": "ON 12/24 AND 12/31, THIS BOX MAY BE COLLECTED AS EARLY AS 12 NOON.", "ref": "3270200001"}, "type": "Feature"}
{"geometry": {"coordinates": [-81.650566146, 28.961748358], "type": "Point"}, "id": "j_y0gI1GzYd968o_0znKs_wWCsE=", "properties": {"@spider": "usps_collection_boxes", "addr:city": "ALTOONA", "addr:country": "US", "addr:full": "42038 STATE ROAD 19", "addr:postcode": "32702", "addr:state": "FL", "brand": "USPS", "collection_times": "Mo-Fr 16:30; Sa 12:00", "name": "USPS COLLECTION BOX - PO LOBBY", "note": "ON 12/24 AND 12/31, THIS BOX MAY BE COLLECTED AS EARLY AS 12 NOON.", "ref": "3270200003"}, "type": "Feature"}
{"geometry": {"coordinates": [-81.650566146, 28.961748358], "type": "Point"}, "id": "kAzqQFbWh2fDJs_EK3bUYVUjtj4=", "properties": {"@spider": "usps_collection_boxes", "addr:city": "ALTOONA", "addr:country": "US", "addr:full": "42038 STATE ROAD 19", "addr:postcode": "32702", "addr:state": "FL", "brand": "USPS", "collection_times": "Mo-Fr 16:30; Sa 12:00", "name": "USPS COLLECTION BOX - PO LOBBY", "note": "ON 12/24 AND 12/31, THIS BOX MAY BE COLLECTED AS EARLY AS 12 NOON.", "ref": "3270200004"}, "type": "Feature"}
{"geometry": {"coordinates": [-81.449985376, 28.670773837], "type": "Point"}, "id": "LvQ4--uPbpBDc40EcIsQbe7VKsY=", "properties": {"@spider": "usps_collection_boxes", "addr:city": "APOPKA", "addr:country": "US", "addr:full": "550 S HUNT CLUB BLVD", "addr:postcode": "32703", "addr:state": "FL", "brand": "USPS", "collection_times": "Mo-Fr 15:00; Sa 14:45", "name": "USPS COLLECTION BOX - BLUE BOX", "note": "ON 12/24 AND 12/31, THIS BOX MAY BE COLLECTED AS EARLY AS 12 NOON.", "ref": "3270300001"}, "type": "Feature"}
{"geometry": {"coordinates": [-81.491004642, 28.669178006], "type": "Point"}, "id": "1T2QxSSHawgRJtP3jRYpHPFZzeI=", "properties": {"@spider": "usps_collection_boxes", "addr:city": "APOPKA", "addr:country": "US", "addr:full": "775 S ORANGE BLOSSOM TRL", "addr:postcode": "32703", "addr:state": "FL", "brand": "USPS", "collection_times": "Mo-Sa 10:30", "name": "USPS COLLECTION BOX - BLUE BOX", "ref": "3270300008"}, "type": "Feature"}
{"geometry": {"coordinates": [-81.485416645, 28.665538937], "type": "Point"}, "id": "rhzxpfH5dh0QyaBUBD_xanpIN7I=", "properties": {"@spider": "usps_collection_boxes", "addr:city": "APOPKA", "addr:country": "US", "addr:full": "1022 S ORANGE BLOSSOM TRL", "addr:postcode": "32703", "addr:state": "FL", "brand": "USPS", "collection_times": "Mo-Sa 10:30", "name": "USPS COLLECTION BOX - BLUE BOX", "ref": "3270300009"}, "type": "Feature"}
{"geometry": {"coordinates": [-81.470004942, 28.673105575], "type": "Point"}, "id": "MX8O_UT0O6Tbw4q4e0Za1Ci3oFs=", "properties": {"@spider": "usps_collection_boxes", "addr:city": "APOPKA", "addr:country": "US", "addr:full": "2179 E SEMORAN BLVD", "addr:postcode": "32703", "addr:state": "FL", "brand": "USPS", "collection_times": "Mo-Fr 15:00; Sa 14:45", "name": "USPS COLLECTION BOX - BLUE BOX", "note": "ON 12/24 AND 12/31, THIS BOX MAY BE COLLECTED AS EARLY AS 12 NOON.", "ref": "3270300011"}, "type": "Feature"}
{"geometry": {"coordinates": [-81.467342239, 28.672749512], "type": "Point"}, "id": "-bxXDRtTDzacFsXH-1EsOTLe2dc=", "properties": {"@spider": "usps_collection_boxes", "addr:city": "APOPKA", "addr:country": "US", "addr:full": "2400 E SEMORAN BLVD", "addr:postcode": "32703", "addr:state": "FL", "brand": "USPS", "collection_times": "Mo-Sa 11:00", "name": "USPS COLLECTION BOX - BLUE BOX", "ref": "3270300014"}, "type": "Feature"}
{"geometry": {"coordinates": [-81.479118214, 28.674007974], "type": "Point"}, "id": "u-s4xifeVM85MnUKN0A-85Xs_EQ=", "properties": {"@spider": "usps_collection_boxes", "addr:city": "APOPKA", "addr:country": "US", "addr:full": "380 SEMORAN COMMERCE PL", "addr:postcode": "32703", "addr:state": "FL", "brand": "USPS", "collection_times": "Mo-Fr 15:00; Sa 14:45", "name": "USPS COLLECTION BOX - BLUE BOX", "note": "ON 12/24 AND 12/31, THIS BOX MAY BE COLLECTED AS EARLY AS 12 NOON.", "ref": "3270300015"}, "type": "Feature"}
{"geometry": {"coordinates": [-81.491971919, 28.650780547], "type": "Point"}, "id": "zP1fZrgxqOxqXQuY6A1l-gisJlM=", "properties": {"@spider": "usps_collection_boxes", "addr:city": "APOPKA", "addr:country": "US", "addr:full": "914 SHEELER OAKS DR", "addr:postcode": "32703", "addr:state": "FL", "brand": "USPS", "collection_times": "Mo-Sa 14:15", "name": "USPS COLLECTION BOX - BLUE BOX", "note": "ON 12/24 AND 12/31, THIS BOX MAY BE COLLECTED AS EARLY AS 12 NOON.", "ref": "3270300017"}, "type": "Feature"}
{"geometry": {"coordinates": [-81.488660151, 28.683639], "type": "Point"}, "id": "KUfppVgKPcFBvqUOlDHiU2pfaFY=", "properties": {"@spider": "usps_collection_boxes", "addr:city": "APOPKA", "addr:country": "US", "addr:full": "347 N THOMPSON RD", "addr:postcode": "32703", "addr:state": "FL", "brand": "USPS", "collection_times": "Mo-Sa 13:00", "name": "USPS COLLECTION BOX - BLUE BOX", "note": "ON 12/24 AND 12/31, THIS BOX MAY BE COLLECTED AS EARLY AS 12 NOON.", "ref": "3270300018"}, "type": "Feature"}
{"geometry": {"coordinates": [-81.508031832, 28.671894533], "type": "Point"}, "id": "wJQG_5no6J9faBnp3K86Mmpqy50=", "properties": {"@spider": "usps_collection_boxes", "addr:city": "APOPKA", "addr:country": "US", "addr:full": "175 E 5TH ST", "addr:postcode": "32703", "addr:state": "FL", "brand": "USPS", "collection_times": "Mo-Fr 15:00; Sa 13:00", "name": "USPS COLLECTION BOX - BLUE BOX", "note": "ON 12/24 AND 12/31, THIS BOX MAY BE COLLECTED AS EARLY AS 12 NOON.", "ref": "3270300021"}, "type": "Feature"}
{"geometry": {"coordinates": [-81.236730615, 28.966707838], "type": "Point"}, "id": "OU04_ZRkrU_l1DcitMopZiaWZqE=", "properties": {"@spider": "usps_collection_boxes", "addr:city": "CASSADAGA", "addr:country": "US", "addr:full": "1087 STEVENS ST", "addr:postcode": "32706", "addr:state": "FL", "brand": "USPS", "collection_times": "Mo-Fr 13:00; Sa 10:30", "name": "USPS COLLECTION BOX - BLUE BOX", "note": "ON 12/24 AND 12/31, THIS BOX MAY BE COLLECTED AS EARLY AS 12 NOON.", "ref": "3270600001"}, "type": "Feature"}
{"geometry": {"coordinates": [-81.236730615, 28.966707838], "type": "Point"}, "id": "KByjesveJu35-fxNpVd7xLY9Bi4=", "properties": {"@spider": "usps_collection_boxes", "addr:city": "CASSADAGA", "addr:country": "US", "addr:full": "1087 STEVENS ST", "addr:postcode": "32706", "addr:state": "FL", "brand": "USPS", "collection_times": "Mo-Fr 13:00; Sa 10:30", "name": "USPS COLLECTION BOX - PO LOBBY", "note": "ON 12/24 AND 12/31, THIS BOX MAY BE COLLECTED AS EARLY AS 12 NOON.", "ref": "3270600002"}, "type": "Feature"}
{"geometry": {"coordinates": [-81.236730615, 28.966707838], "type": "Point"}, "id": "vbr0uQQjHrhj6jT7JuUWJ4s_yTg=", "properties": {"@spider": "usps_collection_boxes", "addr:city": "CASSADAGA", "addr:country": "US", "addr:full": "1087 STEVENS ST", "addr:postcode": "32706", "addr:state": "FL", "brand": "USPS", "collection_times": "Mo-Fr 13:00; Sa 10:30", "name": "USPS COLLECTION BOX - PO LOBBY", "note": "ON 12/24 AND 12/31, THIS BOX MAY BE COLLECTED AS EARLY AS 12 NOON.", "ref": "3270600003"}, "type": "Feature"}
{"geometry": {"coordinates": [-81.309829351, 28.653265855], "type": "Point"}, "id": "i8PHqyN0l0Gx_K3h-bkAczTQoVw=", "properties": {"@spider": "usps_collection_boxes", "addr:city": "CASSELBERRY", "addr:country": "US", "addr:full": "220 EAGLE CIR", "addr:postcode": "32707", "addr:state": "FL", "brand": "USPS", "collection_times": "Mo-Fr 16:00", "name": "USPS COLLECTION BOX - BLUE BOX", "note": "ON 12/24 AND 12/31, THIS BOX MAY BE COLLECTED AS EARLY AS 12 NOON.", "ref": "3270700004"}, "type": "Feature"}
{"geometry": {"coordinates": [-81.335516463, 28.66204203], "type": "Point"}, "id": "1jYrm7zz5n5D9afsFfKdyA-qnsA=", "properties": {"@spider": "usps_collection_boxes", "addr:city": "CASSELBERRY", "addr:country": "US", "addr:full": "215 N OXFORD RD", "addr:postcode": "32707", "addr:state": "FL", "brand": "USPS", "collection_times": "Mo-Sa 12:00", "name": "USPS COLLECTION BOX - BLUE BOX", "ref": "3270700009"}, "type": "Feature"}
{"geometry": {"coordinates": [-81.33714, 28.672232671], "type": "Point"}, "id": "Z5V-7_Yfca2UfHZyGOZColo_TPs=", "properties": {"@spider": "usps_collection_boxes", "addr:city": "CASSELBERRY", "addr:country": "US", "addr:full": "105 E MELODY LN", "addr:postcode": "32707", "addr:state": "FL", "brand": "USPS", "collection_times": "Mo-Fr 12:00", "name": "USPS COLLECTION BOX - BLUE BOX", "ref": "3270700010"}, "type": "Feature"}
{"geometry": {"coordinates": [-81.345550508, 28.664468745], "type": "Point"}, "id": "S-IAvK1cOYXdn1WD66_GDNGNVnA=", "properties": {"@spider": "usps_collection_boxes", "addr:city": "CASSELBERRY", "addr:country": "US", "addr:full": "109 LIVE OAKS BLVD", "addr:postcode": "32707", "addr:state": "FL", "brand": "USPS", "collection_times": "Mo-Fr 17:00; Sa 15:30", "name": "USPS COLLECTION BOX - BLUE BOX", "note": "ON 12/24 AND 12/31, THIS BOX MAY BE COLLECTED AS EARLY AS 12 NOON.", "ref": "3270700012"}, "type": "Feature"}
{"geometry": {"coordinates": [-81.325836038, 28.687453337], "type": "Point"}, "id": "p6uMLx89sEkdFet8gEpPa6mOShA=", "properties": {"@spider": "usps_collection_boxes", "addr:city": "CASSELBERRY", "addr:country": "US", "addr:full": "999 MANGO DR", "addr:postcode": "32707", "addr:state": "FL", "brand": "USPS", "collection_times": "Mo-Sa 12:15", "name": "USPS COLLECTION BOX - BLUE BOX", "note": "ON 12/24 AND 12/31, THIS BOX MAY BE COLLECTED AS EARLY AS 12 NOON.", "ref": "3270700014"}, "type": "Feature"}
{"geometry": {"coordinates": [-81.316989296, 28.627518251], "type": "Point"}, "id": "DiNHJB7NDVNzJBf8jAVsqDFSAdk=", "properties": {"@spider": "usps_collection_boxes", "addr:city": "CASSELBERRY", "addr:country": "US", "addr:full": "1455 SEMORAN BLVD", "addr:postcode": "32707", "addr:state": "FL", "brand": "USPS", "collection_times": "Mo-Fr 12:00", "name": "USPS COLLECTION BOX - BLUE BOX", "ref": "3270700016"}, "type": "Feature"}
{"geometry": {"coordinates": [-81.324525244, 28.648685842], "type": "Point"}, "id": "DF8foT8nCcqUQHu4u3j90vj3jnc=", "properties": {"@spider": "usps_collection_boxes", "addr:city": "CASSELBERRY", "addr:country": "US", "addr:full": "916 SEMORAN BLVD", "addr:postcode": "32707", "addr:state": "FL", "brand": "USPS", "collection_times": "Mo-Fr 10:00", "name": "USPS COLLECTION BOX - BLUE BOX", "ref": "3270700017"}, "type": "Feature"}
{"geometry": {"coordinates": [-81.317918417, 28.629479683], "type": "Point"}, "id": "nLcg3wHbc7yBB-dMtVS2vvMYa3Y=", "properties": {"@spider": "usps_collection_boxes", "addr:city": "CASSELBERRY", "addr:country": "US", "addr:full": "1391 SEMORAN BLVD", "addr:postcode": "32707", "addr:state": "FL", "brand": "USPS", "collection_times": "Mo-Fr 12:00", "name": "USPS COLLECTION BOX - BLUE BOX", "ref": "3270700019"}, "type": "Feature"}
{"geometry": {"coordinates": [-81.322268032, 28.645615045], "type": "Point"}, "id": "W8yNPK1kA2z7sJzkEVIXx3FAv_k=", "properties": {"@spider": "usps_collection_boxes", "addr:city": "CASSELBERRY", "addr:country": "US", "addr:full": "1014 SEMORAN BLVD", "addr:postcode": "32707", "addr:state": "FL", "brand": "USPS", "collection_times": "Mo-Fr 13:00", "name": "USPS COLLECTION BOX - BLUE BOX", "note": "ON 12/24 AND 12/31, THIS BOX MAY BE COLLECTED AS EARLY AS 12 NOON.", "ref": "3270700021"}, "type": "Feature"}
{"geometry": {"coordinates": [-81.332013569, 28.654529541], "type": "Point"}, "id": "yFVAb40PNJ1UKEiCiR1-y8VlVzw=", "properties": {"@spider": "usps_collection_boxes", "addr:city": "CASSELBERRY", "addr:country": "US", "addr:full": "430 SEMORAN BLVD", "addr:postcode": "32707", "addr:state": "FL", "brand": "USPS", "collection_times": "Mo-Fr 10:00", "name": "USPS COLLECTION BOX - BLUE BOX", "ref": "3270700022"}, "type": "Feature"}
{"geometry": {"coordinates": [-81.333234105, 28.655158939], "type": "Point"}, "id": "i_URmBZIlUV0CXEmj92GpsrEbh0=", "properties": {"@spider": "usps_collection_boxes", "addr:city": "CASSELBERRY", "addr:country": "US", "addr:full": "495 SEMORAN BLVD", "addr:postcode": "32707", "addr:state": "FL", "brand": "USPS", "collection_times": "Mo-Fr 16:00", "name": "USPS COLLECTION BOX - BLUE BOX", "note": "ON 12/24 AND 12/31, THIS BOX MAY BE COLLECTED AS EARLY AS 12 NOON.", "ref": "3270700028"}, "type": "Feature"}
{"geometry": {"coordinates": [-81.330509946, 28.653329471], "type": "Point"}, "id": "G1xDoPWJQ8jC6Yz4BmHLPBNHEDw=", "properties": {"@spider": "usps_collection_boxes", "addr:city": "CASSELBERRY", "addr:country": "US", "addr:full": "500 SEMORAN BLVD", "addr:postcode": "32707", "addr:state": "FL", "brand": "USPS", "collection_times": "Mo-Fr 10:00", "name": "USPS COLLECTION BOX - BLUE BOX", "ref": "3270700029"}, "type": "Feature"}
{"geometry": {"coordinates": [-81.322499474, 28.644741765], "type": "Point"}, "id": "Wlx_8im-mF-FMXZCuTCq4fsk3O4=", "properties": {"@spider": "usps_collection_boxes", "addr:city": "CASSELBERRY", "addr:country": "US", "addr:full": "1015 SEMORAN BLVD", "addr:postcode": "32707", "addr:state": "FL", "brand": "USPS", "collection_times": "Mo-Fr 16:00", "name": "USPS COLLECTION BOX - BLUE BOX", "note": "ON 12/24 AND 12/31, THIS BOX MAY BE COLLECTED AS EARLY AS 12 NOON.", "ref": "3270700030"}, "type": "Feature"}
{"geometry": {"coordinates": [-81.340411416, 28.665658508], "type": "Point"}, "id": "sbqouWrdxpeKyXhvJbrQ20Qc8Vs=", "properties": {"@spider": "usps_collection_boxes", "addr:city": "CASSELBERRY", "addr:country": "US", "addr:full": "101 SUNNYTOWN RD", "addr:postcode": "32707", "addr:state": "FL", "brand": "USPS", "collection_times": "Mo-Fr 10:00", "name": "USPS COLLECTION BOX - BLUE BOX", "ref": "3270700033"}, "type": "Feature"}
{"geometry": {"coordinates": [-81.331150388, 28.667916074], "type": "Point"}, "id": "8zD7Xji3yjhXYY5rFU1B8FiNFmA=", "properties": {"@spider": "usps_collection_boxes", "addr:city": "CASSELBERRY", "addr:country": "US", "addr:full": "181 S TRIPLET LAKE DR", "addr:postcode": "32707", "addr:state": "FL", "brand": "USPS", "collection_times": "Mo-Sa 12:00", "name": "USPS COLLECTION BOX - BLUE BOX", "ref": "3270700034"}, "type": "Feature"}
{"geometry": {"coordinates": [-81.333173721, 28.647975598], "type": "Point"}, "id": "zFy9ijSShe4ffWQ7PzS5MbIQOYk=", "properties": {"@spider": "usps_collection_boxes", "addr:city": "CASSELBERRY", "addr:country": "US", "addr:full": "384 WILSHIRE BLVD", "addr:postcode": "32707", "addr:state": "FL", "brand": "USPS", "collection_times": "Mo-Fr 11:00", "name": "USPS COLLECTION BOX - BLUE BOX", "ref": "3270700036"}, "type": "Feature"}
{"geometry": {"coordinates": [-81.322429263, 28.648243447], "type": "Point"}, "id": "kxMhRnX5pM3g82Y7PS9mU96KBpo=", "properties": {"@spider": "usps_collection_boxes", "addr:city": "CASSELBERRY", "addr:country": "US", "addr:full": "950 S WINTER PARK DR", "addr:postcode": "32707", "addr:state": "FL", "brand": "USPS", "collection_times": "Mo-Fr 15:15", "name": "USPS COLLECTION BOX - BLUE BOX", "note": "ON 12/24 AND 12/31, THIS BOX MAY BE COLLECTED AS EARLY AS 12 NOON.", "ref": "3270700038"}, "type": "Feature"}
{"geometry": {"coordinates": [-81.345550508, 28.664468745], "type": "Point"}, "id": "k-aYMS0kwkFsTsPjlfXPASz57t8=", "properties": {"@spider": "usps_collection_boxes", "addr:city": "CASSELBERRY", "addr:country": "US", "addr:full": "109 LIVE OAKS BLVD", "addr:postcode": "32707", "addr:state": "FL", "brand": "USPS", "collection_times": "Mo-Fr 17:00; Sa 15:30", "name": "USPS COLLECTION BOX - PO LOBBY", "note": "ON 12/24 AND 12/31, THIS BOX MAY BE COLLECTED AS EARLY AS 12 NOON.", "ref": "3270700040"}, "type": "Feature"}
{"geometry": {"coordinates": [-81.333234105, 28.655158939], "type": "Point"}, "id": "lgxAjxTD2NzCdDjFPtTsGXTKLFg=", "properties": {"@spider": "usps_collection_boxes", "addr:city": "CASSELBERRY", "addr:country": "US", "addr:full": "495 SEMORAN BLVD", "addr:postcode": "32707", "addr:state": "FL", "brand": "USPS", "collection_times": "Mo-Fr 16:00", "name": "USPS COLLECTION BOX - BLUE BOX", "note": "ON 12/24 AND 12/31, THIS BOX MAY BE COLLECTED AS EARLY AS 12 NOON.", "ref": "3270700041"}, "type": "Feature"}
{"geometry": {"coordinates": [-81.345550508, 28.664468745], "type": "Point"}, "id": "1MOxov_8528Osh9Y6ismF6GZm3c=", "properties": {"@spider": "usps_collection_boxes", "addr:city": "CASSELBERRY", "addr:country": "US", "addr:full": "109 LIVE OAKS BLVD", "addr:postcode": "32707", "addr:state": "FL", "brand": "USPS", "collection_times": "Mo-Fr 17:00; Sa 15:30", "name": "USPS COLLECTION BOX - APC", "note": "ON 12/24 AND 12/31, THIS BOX MAY BE COLLECTED AS EARLY AS 12 NOON.", "ref": "3270700042"}, "type": "Feature"}
{"geometry": {"coordinates": [-81.345550508, 28.664468745], "type": "Point"}, "id": "x4JrYGZwK22tU6RH5vj-GZT3GpY=", "properties": {"@spider": "usps_collection_boxes", "addr:city": "CASSELBERRY", "addr:country": "US", "addr:full": "109 LIVE OAKS BLVD", "addr:postcode": "32707", "addr:state": "FL", "brand": "USPS", "collection_times": "Mo-Fr 17:00; Sa 12:00", "name": "USPS COLLECTION BOX - PO LOBBY", "note": "ON 12/24 AND 12/31, THIS BOX MAY BE COLLECTED AS EARLY AS 12 NOON.", "ref": "3270700043"}, "type": "Feature"}
{"geometry": {"coordinates": [-81.310276383, 28.698256627], "type": "Point"}, "id": "j4z3ufvdTrmU-ByDDD-SspKVljQ=", "properties": {"@spider": "usps_collection_boxes", "addr:city": "CASSELBERRY", "addr:country": "US", "addr:full": "401 W STATE ROAD 434", "addr:postcode": "32708", "addr:state": "FL", "brand": "USPS", "collection_times": "Mo-Fr 12:00", "name": "USPS COLLECTION BOX - BLUE BOX", "ref": "3270800001"}, "type": "Feature"}
{"geometry": {"coordinates": [-81.262687676, 28.675350943], "type": "Point"}, "id": "Jv_2JM2zb1P9IRIQb3gNc85FWAM=", "properties": {"@spider": "usps_collection_boxes", "addr:city": "CASSELBERRY", "addr:country": "US", "addr:full": "890 NORTHERN WAY", "addr:postcode": "32708", "addr:state": "FL", "brand": "USPS", "collection_times": "Mo-Fr 14:00", "name": "USPS COLLECTION BOX - BLUE BOX", "note": "ON 12/24 AND 12/31, THIS BOX MAY BE COLLECTED AS EARLY AS 12 NOON.", "ref": "3270800004"}, "type": "Feature"}
{"geometry": {"coordinates": [-81.2701305, 28.647548513], "type": "Point"}, "id": "8Mq7im4cHzmEt34KvliF6A035HE=", "properties": {"@spider": "usps_collection_boxes", "addr:city": "CASSELBERRY", "addr:country": "US", "addr:full": "5637 RED BUG LAKE RD", "addr:postcode": "32708", "addr:state": "FL", "brand": "USPS", "collection_times": "Mo-Fr 14:30; Sa 14:00", "name": "USPS COLLECTION BOX - BLUE BOX", "note": "ON 12/24 AND 12/31, THIS BOX MAY BE COLLECTED AS EARLY AS 12 NOON.", "ref": "3270800005"}, "type": "Feature"}
{"geometry": {"coordinates": [-81.267778996, 28.647770503], "type": "Point"}, "id": "O_ztPNx_AExyfzqji-K37e81hfY=", "properties": {"@spider": "usps_collection_boxes", "addr:city": "CASSELBERRY", "addr:country": "US", "addr:full": "5840 RED BUG LAKE RD", "addr:postcode": "32708", "addr:state": "FL", "brand": "USPS", "collection_times": "Mo-Fr 14:45; Sa 14:15", "name": "USPS COLLECTION BOX - BLUE BOX", "note": "ON 12/24 AND 12/31, THIS BOX MAY BE COLLECTED AS EARLY AS 12 NOON.", "ref": "3270800008"}, "type": "Feature"}
{"geometry": {"coordinates": [-81.271235209, 28.704681339], "type": "Point"}, "id": "HQrNIrlvBwl9EYsd1WkIh4NULgg=", "properties": {"@spider": "usps_collection_boxes", "addr:city": "CASSELBERRY", "addr:country": "US", "addr:full": "1065 E SR 434", "addr:postcode": "32708", "addr:state": "FL", "brand": "USPS", "collection_times": "Mo-Fr 17:00; Sa 15:30", "name": "USPS COLLECTION BOX - BLUE BOX", "note": "ON 12/24 AND 12/31, THIS BOX MAY BE COLLECTED AS EARLY AS 12 NOON.", "ref": "3270800010"}, "type": "Feature"}
{"geometry": {"coordinates": [-81.306631891, 28.698626417], "type": "Point"}, "id": "qwl7LewkIQADzoCWG78KwuY2kmY=", "properties": {"@spider": "usps_collection_boxes", "addr:city": "CASSELBERRY", "addr:country": "US", "addr:full": "148 W STATE ROAD 434", "addr:postcode": "32708", "addr:state": "FL", "brand": "USPS", "collection_times": "Mo-Fr 11:00", "name": "USPS COLLECTION BOX - BLUE BOX", "ref": "3270800013"}, "type": "Feature"}
{"geometry": {"coordinates": [-81.266438888, 28.645269526], "type": "Point"}, "id": "VjYrqlxMRNWtIwHaiBhnW7QFhnk=", "properties": {"@spider": "usps_collection_boxes", "addr:city": "CASSELBERRY", "addr:country": "US", "addr:full": "1425 TUSKAWILLA RD", "addr:postcode": "32708", "addr:state": "FL", "brand": "USPS", "collection_times": "Mo-Fr 14:30; Sa 14:00", "name": "USPS COLLECTION BOX - BLUE BOX", "note": "ON 12/24 AND 12/31, THIS BOX MAY BE COLLECTED AS EARLY AS 12 NOON.", "ref": "3270800014"}, "type": "Feature"}
{"geometry": {"coordinates": [-81.302430076, 28.705588218], "type": "Point"}, "id": "zoQCtWRUY6MybTNfDJuKiH4nuEA=", "properties": {"@spider": "usps_collection_boxes", "addr:city": "CASSELBERRY", "addr:country": "US", "addr:full": "3625 STATE ROAD 419", "addr:postcode": "32708", "addr:state": "FL", "brand": "USPS", "collection_times": "Mo-Fr 12:00", "name": "USPS COLLECTION BOX - BLUE BOX", "ref": "3270800015"}, "type": "Feature"}
{"geometry": {"coordinates": [-81.271235209, 28.704681339], "type": "Point"}, "id": "MtnZALFXqRda1pJnvmND2HbX0ps=", "properties": {"@spider": "usps_collection_boxes", "addr:city": "CASSELBERRY", "addr:country": "US", "addr:full": "1065 E STATE ROAD 434", "addr:postcode": "32708", "addr:state": "FL", "brand": "USPS", "collection_times": "Mo-Fr 17:00; Sa 15:30", "name": "USPS COLLECTION BOX - PO LOBBY", "note": "ON 12/24 AND 12/31, THIS BOX MAY BE COLLECTED AS EARLY AS 12 NOON.", "ref": "3270800016"}, "type": "Feature"}
{"geometry": {"coordinates": [-81.271235209, 28.704681339], "type": "Point"}, "id": "78kbSxBEdMC_wuAc8EMzpvkGAcc=", "properties": {"@spider": "usps_collection_boxes", "addr:city": "CASSELBERRY", "addr:country": "US", "addr:full": "1065 E SR 434", "addr:postcode": "32708", "addr:state": "FL", "brand": "USPS", "collection_times": "Mo-Fr 17:00; Sa 15:30", "name": "USPS COLLECTION BOX - PO LOBBY", "note": "ON 12/24 AND 12/31, THIS BOX MAY BE COLLECTED AS EARLY AS 12 NOON.", "ref": "3270800017"}, "type": "Feature"}
{"geometry": {"coordinates": [-81.271235209, 28.704681339], "type": "Point"}, "id": "3hhgV2L8u1t9AC5q3SWzoPTqYaM=", "properties": {"@spider": "usps_collection_boxes", "addr:city": "CASSELBERRY", "addr:country": "US", "addr:full": "1065 E STATE ROAD 434", "addr:postcode": "32708", "addr:state": "FL", "brand": "USPS", "collection_times": "Mo-Fr 17:00; Sa 12:00", "name": "USPS COLLECTION BOX - PO LOBBY", "note": "ON 12/24 AND 12/31, THIS BOX MAY BE COLLECTED AS EARLY AS 12 NOON.", "ref": "3270800021"}, "type": "Feature"}
{"geometry": {"coordinates": [-81.019496693, 28.536411597], "type": "Point"}, "id": "XAED1D6LvQ0RnL5ggyqRTnWKYeE=", "properties": {"@spider": "usps_collection_boxes", "addr:city": "CHRISTMAS", "addr:country": "US", "addr:full": "23580 E COLONIAL DR", "addr:postcode": "32709", "addr:state": "FL", "brand": "USPS", "collection_times": "Mo-Fr 17:00; Sa 12:00", "name": "USPS COLLECTION BOX - BLUE BOX", "note": "ON 12/24 AND 12/31, THIS BOX MAY BE COLLECTED AS EARLY AS 12 NOON.", "ref": "3270900001"}, "type": "Feature"}
{"geometry": {"coordinates": [-81.019496693, 28.536411597], "type": "Point"}, "id": "8D4eBDZX8dbBs3qgMmpU47bRBFk=", "properties": {"@spider": "usps_collection_boxes", "addr:city": "CHRISTMAS", "addr:country": "US", "addr:full": "23580 E COLONIAL DR", "addr:postcode": "32709", "addr:state": "FL", "brand": "USPS", "collection_times": "Mo-Fr 17:00; Sa 12:00", "name": "USPS COLLECTION BOX - PO LOBBY", "note": "ON 12/24 AND 12/31, THIS BOX MAY BE COLLECTED AS EARLY AS 12 NOON.", "ref": "3270900002"}, "type": "Feature"}
{"geometry": {"coordinates": [-81.019496693, 28.536411597], "type": "Point"}, "id": "uhMjpDoeO93wcX2o_naImrjQn1I=", "properties": {"@spider": "usps_collection_boxes", "addr:city": "CHRISTMAS", "addr:country": "US", "addr:full": "23580 E COLONIAL DR", "addr:postcode": "32709", "addr:state": "FL", "brand": "USPS", "collection_times": "Mo-Fr 17:00; Sa 12:00", "name": "USPS COLLECTION BOX - PO LOBBY", "note": "ON 12/24 AND 12/31, THIS BOX MAY BE COLLECTED AS EARLY AS 12 NOON.", "ref": "3270900003"}, "type": "Feature"}
{"geometry": {"coordinates": [-81.019496693, 28.536411597], "type": "Point"}, "id": "cZwphsAQsUOntTD471eRfnMNOUU=", "properties": {"@spider": "usps_collection_boxes", "addr:city": "CHRISTMAS", "addr:country": "US", "addr:full": "23580 E COLONIAL DR", "addr:postcode": "32709", "addr:state": "FL", "brand": "USPS", "collection_times": "Mo-Fr 17:00; Sa 12:00", "name": "USPS COLLECTION BOX - PO LOBBY", "note": "ON 12/24 AND 12/31, THIS BOX MAY BE COLLECTED AS EARLY AS 12 NOON.", "ref": "3270900004"}, "type": "Feature"}
{"geometry": {"coordinates": [-81.482415462, 28.613933308], "type": "Point"}, "id": "Ltxq1Gso5Gi0I8yab2C77qc7S8Q=", "properties": {"@spider": "usps_collection_boxes", "addr:city": "CLARCONA", "addr:country": "US", "addr:full": "7228 CLARCONA OCOEE RD", "addr:postcode": "32710", "addr:state": "FL", "brand": "USPS", "collection_times": "Mo-Fr 16:30; Sa 12:00", "name": "USPS COLLECTION BOX - BLUE BOX", "note": "ON 12/24 AND 12/31, THIS BOX MAY BE COLLECTED AS EARLY AS 12 NOON.", "ref": "3271000001"}, "type": "Feature"}
{"geometry": {"coordinates": [-81.482415462, 28.613933308], "type": "Point"}, "id": "dW6J7o0oYSSnz0olbqch-8WDfUA=", "properties": {"@spider": "usps_collection_boxes", "addr:city": "CLARCONA", "addr:country": "US", "addr:full": "7228 CLARCONA OCOEE RD", "addr:postcode": "32710", "addr:state": "FL", "brand": "USPS", "collection_times": "Mo-Fr 16:30; Sa 12:00", "name": "USPS COLLECTION BOX - PO LOBBY", "note": "ON 12/24 AND 12/31, THIS BOX MAY BE COLLECTED AS EARLY AS 12 NOON.", "ref": "3271000002"}, "type": "Feature"}
{"geometry": {"coordinates": [-81.482415462, 28.613933308], "type": "Point"}, "id": "lR5IlWiAgquqs0upogxgREY_vqc=", "properties": {"@spider": "usps_collection_boxes", "addr:city": "CLARCONA", "addr:country": "US", "addr:full": "7228 CLARCONA OCOEE RD", "addr:postcode": "32710", "addr:state": "FL", "brand": "USPS", "collection_times": "Mo-Fr 16:30; Sa 12:00", "name": "USPS COLLECTION BOX - PO LOBBY", "note": "ON 12/24 AND 12/31, THIS BOX MAY BE COLLECTED AS EARLY AS 12 NOON.", "ref": "3271000003"}, "type": "Feature"}
{"geometry": {"coordinates": [-81.509379153, 28.690398], "type": "Point"}, "id": "6LeSj8vMzrkSOy9kVtItHIvHm4c=", "properties": {"@spider": "usps_collection_boxes", "addr:city": "APOPKA", "addr:country": "US", "addr:full": "581 N PARK AVE", "addr:postcode": "32712", "addr:state": "FL", "brand": "USPS", "collection_times": "Mo-Fr 17:00; Sa 16:00", "name": "USPS COLLECTION BOX - BLUE BOX", "note": "ON 12/24 AND 12/31, THIS BOX MAY BE COLLECTED AS EARLY AS 12 NOON.", "ref": "3271200001"}, "type": "Feature"}
{"geometry": {"coordinates": [-81.540369842, 28.697230226], "type": "Point"}, "id": "nBiomWomGx1U4j-f5hdwjJpHOYg=", "properties": {"@spider": "usps_collection_boxes", "addr:city": "APOPKA", "addr:country": "US", "addr:full": "858 ERROL PKWY", "addr:postcode": "32712", "addr:state": "FL", "brand": "USPS", "collection_times": "Mo-Sa 13:00", "name": "USPS COLLECTION BOX - BLUE BOX", "note": "ON 12/24 AND 12/31, THIS BOX MAY BE COLLECTED AS EARLY AS 12 NOON.", "ref": "3271200021"}, "type": "Feature"}
{"geometry": {"coordinates": [-81.509379153, 28.690398], "type": "Point"}, "id": "LFH5kli0yPQxl2wdDzb757nDqd8=", "properties": {"@spider": "usps_collection_boxes", "addr:city": "APOPKA", "addr:country": "US", "addr:full": "581 N PARK AVE", "addr:postcode": "32712", "addr:state": "FL", "brand": "USPS", "collection_times": "Mo-Fr 17:00; Sa 16:00", "name": "USPS COLLECTION BOX - PO LOBBY", "note": "ON 12/24 AND 12/31, THIS BOX MAY BE COLLECTED AS EARLY AS 12 NOON.", "ref": "3271200045"}, "type": "Feature"}
{"geometry": {"coordinates": [-81.509379153, 28.690398], "type": "Point"}, "id": "GIXVH1OPywuCGw2c4Ph09tHEKtE=", "properties": {"@spider": "usps_collection_boxes", "addr:city": "APOPKA", "addr:country": "US", "addr:full": "581 N PARK AVE", "addr:postcode": "32712", "addr:state": "FL", "brand": "USPS", "collection_times": "Mo-Fr 17:00; Sa 16:00", "name": "USPS COLLECTION BOX - APC", "note": "ON 12/24 AND 12/31, THIS BOX MAY BE COLLECTED AS EARLY AS 12 NOON.", "ref": "3271200046"}, "type": "Feature"}
{"geometry": {"coordinates": [-81.509379153, 28.690398], "type": "Point"}, "id": "JCvpbZvmcBao_IfiHdTPUjOlOwY=", "properties": {"@spider": "usps_collection_boxes", "addr:city": "APOPKA", "addr:country": "US", "addr:full": "581 N PARK AVE", "addr:postcode": "32712", "addr:state": "FL", "brand": "USPS", "collection_times": "Mo-Fr 17:00; Sa 16:00", "name": "USPS COLLECTION BOX - PO LOBBY", "note": "ON 12/24 AND 12/31, THIS BOX MAY BE COLLECTED AS EARLY AS 12 NOON.", "ref": "3271200047"}, "type": "Feature"}
{"geometry": {"coordinates": [-81.509379153, 28.690398], "type": "Point"}, "id": "QpitVweX2weY4m6E0JXUEBj0mJk=", "properties": {"@spider": "usps_collection_boxes", "addr:city": "APOPKA", "addr:country": "US", "addr:full": "581 N PARK AVE", "addr:postcode": "32712", "addr:state": "FL", "brand": "USPS", "collection_times": "Mo-Fr 18:00", "name": "USPS COLLECTION BOX - PO LOBBY", "note": "ON 12/24 AND 12/31, THIS BOX MAY BE COLLECTED AS EARLY AS 12 NOON.", "ref": "3271200050"}, "type": "Feature"}
{"geometry": {"coordinates": [-81.306601254, 28.8914205], "type": "Point"}, "id": "09rX1i11KDmLAcwPaS9_-l5vC0k=", "properties": {"@spider": "usps_collection_boxes", "addr:city": "DEBARY", "addr:country": "US", "addr:full": "34 N HIGHWAY 17 92", "addr:postcode": "32713", "addr:state": "FL", "brand": "USPS", "collection_times": "Mo-Sa 13:45", "name": "USPS COLLECTION BOX - BLUE BOX", "note": "ON 12/24 AND 12/31, THIS BOX MAY BE COLLECTED AS EARLY AS 12 NOON.", "ref": "3271300002"}, "type": "Feature"}
{"geometry": {"coordinates": [-81.353481067, 28.890218512], "type": "Point"}, "id": "zZob4AMWdZ7xBeR_BV7Wxh0pU1o=", "properties": {"@spider": "usps_collection_boxes", "addr:city": "DEBARY", "addr:country": "US", "addr:full": "488 W HIGHBANKS RD", "addr:postcode": "32713", "addr:state": "FL", "brand": "USPS", "collection_times": "Mo-Sa 10:30", "name": "USPS COLLECTION BOX - BLUE BOX", "ref": "3271300004"}, "type": "Feature"}
{"geometry": {"coordinates": [-81.285207782, 28.898510484], "type": "Point"}, "id": "9VheLSfSvCniyl5YTfWQ3hqwJfI=", "properties": {"@spider": "usps_collection_boxes", "addr:city": "DEBARY", "addr:country": "US", "addr:full": "400 SUMMERHAVEN DR", "addr:postcode": "32713", "addr:state": "FL", "brand": "USPS", "collection_times": "Mo-Sa 13:45", "name": "USPS COLLECTION BOX - BLUE BOX", "note": "ON 12/24 AND 12/31, THIS BOX MAY BE COLLECTED AS EARLY AS 12 NOON.", "ref": "3271300015"}, "type": "Feature"}
{"geometry": {"coordinates": [-81.343891451, 28.852077305], "type": "Point"}, "id": "rL8ZquQ1M3KBXFpMNHAUbce0isc=", "properties": {"@spider": "usps_collection_boxes", "addr:city": "DEBARY", "addr:country": "US", "addr:full": "99 LEISURE WORLD NORTH DR", "addr:postcode": "32713", "addr:state": "FL", "brand": "USPS", "collection_times": "Mo-Sa 09:00", "name": "USPS COLLECTION BOX - BLUE BOX", "ref": "3271300017"}, "type": "Feature"}
{"geometry": {"coordinates": [-81.390304204, 28.667594049], "type": "Point"}, "id": "hCQ6YrqDFmRP-4Ky5qi54NFujfI=", "properties": {"@spider": "usps_collection_boxes", "addr:city": "ALTAMONTE SPG", "addr:country": "US", "addr:full": "385 DOUGLAS AVE", "addr:postcode": "32714", "addr:state": "FL", "brand": "USPS", "collection_times": "Mo-Fr 14:45; Sa 11:45", "name": "USPS COLLECTION BOX - BLUE BOX", "note": "ON 12/24 AND 12/31, THIS BOX MAY BE COLLECTED AS EARLY AS 12 NOON.", "ref": "3271400002"}, "type": "Feature"}
{"geometry": {"coordinates": [-81.390248161, 28.677634805], "type": "Point"}, "id": "ueDfWbOb0SsckfMOW4dXTWl-YjE=", "properties": {"@spider": "usps_collection_boxes", "addr:city": "ALTAMONTE SPG", "addr:country": "US", "addr:full": "801 DOUGLAS AVE", "addr:postcode": "32714", "addr:state": "FL", "brand": "USPS", "collection_times": "Mo-Sa 14:30", "name": "USPS COLLECTION BOX - BLUE BOX", "note": "ON 12/24 AND 12/31, THIS BOX MAY BE COLLECTED AS EARLY AS 12 NOON.", "ref": "3271400004"}, "type": "Feature"}
{"geometry": {"coordinates": [-81.390256662, 28.678805497], "type": "Point"}, "id": "X5gHp9Wwj-gQOkHXiVzH0a3NQt4=", "properties": {"@spider": "usps_collection_boxes", "addr:city": "ALTAMONTE SPG", "addr:country": "US", "addr:full": "841 DOUGLAS AVE", "addr:postcode": "32714", "addr:state": "FL", "brand": "USPS", "collection_times": "Mo-Sa 14:30", "name": "USPS COLLECTION BOX - BLUE BOX", "note": "ON 12/24 AND 12/31, THIS BOX MAY BE COLLECTED AS EARLY AS 12 NOON.", "ref": "3271400006"}, "type": "Feature"}
{"geometry": {"coordinates": [-81.402508191, 28.66623255], "type": "Point"}, "id": "pDNoReEA_BOv5-EIrlo7HMmuOl0=", "properties": {"@spider": "usps_collection_boxes", "addr:city": "ALTAMONTE SPG", "addr:country": "US", "addr:full": "321 MONTGOMERY RD", "addr:postcode": "32714", "addr:state": "FL", "brand": "USPS", "collection_times": "Mo-Fr 17:00; Sa 15:00", "name": "USPS COLLECTION BOX - BLUE BOX", "note": "ON 12/24 AND 12/31, THIS BOX MAY BE COLLECTED AS EARLY AS 12 NOON.", "ref": "3271400013"}, "type": "Feature"}
{"geometry": {"coordinates": [-81.393013398, 28.686584724], "type": "Point"}, "id": "4EqMb2NbyjwgM-46curlmh9JLug=", "properties": {"@spider": "usps_collection_boxes", "addr:city": "ALTAMONTE SPG", "addr:country": "US", "addr:full": "1180 SPRING CENTRE SOUTH BLVD", "addr:postcode": "32714", "addr:state": "FL", "brand": "USPS", "collection_times": "Mo-Fr 14:30; Sa 14:15", "name": "USPS COLLECTION BOX - BLUE BOX", "note": "ON 12/24 AND 12/31, THIS BOX MAY BE COLLECTED AS EARLY AS 12 NOON.", "ref": "3271400016"}, "type": "Feature"}
{"geometry": {"coordinates": [-81.419139299, 28.661110585], "type": "Point"}, "id": "JFs8Rwl0HOKLauROeeC0G66HMHs=", "properties": {"@spider": "usps_collection_boxes", "addr:city": "ALTAMONTE SPG", "addr:country": "US", "addr:full": "150 S STATE ROAD 434", "addr:postcode": "32714", "addr:state": "FL", "brand": "USPS", "collection_times": "Mo-Fr 14:30; Sa 14:15", "name": "USPS COLLECTION BOX - BLUE BOX", "note": "ON 12/24 AND 12/31, THIS BOX MAY BE COLLECTED AS EARLY AS 12 NOON.", "ref": "3271400020"}, "type": "Feature"}
{"geometry": {"coordinates": [-81.392922, 28.6665135], "type": "Point"}, "id": "_VcorZIJK3_z0tJCG73qF-WwCyY=", "properties": {"@spider": "usps_collection_boxes", "addr:city": "ALTAMONTE SPG", "addr:country": "US", "addr:full": "217 N WESTMONTE DR", "addr:postcode": "32714", "addr:state": "FL", "brand": "USPS", "collection_times": "Mo-Fr 14:45; Sa 11:45", "name": "USPS COLLECTION BOX - BLUE BOX", "note": "ON 12/24 AND 12/31, THIS BOX MAY BE COLLECTED AS EARLY AS 12 NOON.", "ref": "3271400025"}, "type": "Feature"}
{"geometry": {"coordinates": [-81.393279813, 28.659599246], "type": "Point"}, "id": "f2Sh0-vLgh7bcP7FlYXJncN8wv8=", "properties": {"@spider": "usps_collection_boxes", "addr:city": "ALTAMONTE SPG", "addr:country": "US", "addr:full": "222 S WESTMONTE DR", "addr:postcode": "32714", "addr:state": "FL", "brand": "USPS", "collection_times": "Mo-Fr 15:00; Sa 12:00", "name": "USPS COLLECTION BOX - BLUE BOX", "note": "ON 12/24 AND 12/31, THIS BOX MAY BE COLLECTED AS EARLY AS 12 NOON.", "ref": "3271400028"}, "type": "Feature"}
{"geometry": {"coordinates": [-81.402508191, 28.66623255], "type": "Point"}, "id": "5pLdA89XYIKsXNTyRI315JPfBpo=", "properties": {"@spider": "usps_collection_boxes", "addr:city": "ALTAMONTE SPG", "addr:country": "US", "addr:full": "321 MONTGOMERY RD", "addr:postcode": "32714", "addr:state": "FL", "brand": "USPS", "collection_times": "Mo-Fr 17:00; Sa 15:00", "name": "USPS COLLECTION BOX - PO LOBBY", "note": "ON 12/24 AND 12/31, THIS BOX MAY BE COLLECTED AS EARLY AS 12 NOON.", "ref": "3271400038"}, "type": "Feature"}
{"geometry": {"coordinates": [-81.393207188, 28.65916778], "type": "Point"}, "id": "6-FQWxTsoIOyautZdv3KWJy6jPM=", "properties": {"@spider": "usps_collection_boxes", "addr:city": "ALTAMONTE SPG", "addr:country": "US", "addr:full": "237 S WESTMONTE DR", "addr:postcode": "32714", "addr:state": "FL", "brand": "USPS", "collection_times": "Mo-Fr 15:00; Sa 12:00", "name": "USPS COLLECTION BOX - BLUE BOX", "note": "ON 12/24 AND 12/31, THIS BOX MAY BE COLLECTED AS EARLY AS 12 NOON.", "ref": "3271400043"}, "type": "Feature"}
{"geometry": {"coordinates": [-81.390373353, 28.659141], "type": "Point"}, "id": "aYV97-JL9Qu8AI4KXxOB65jGTvw=", "properties": {"@spider": "usps_collection_boxes", "addr:city": "ALTAMONTE SPG", "addr:country": "US", "addr:full": "230 WYMORE RD", "addr:postcode": "32714", "addr:state": "FL", "brand": "USPS", "collection_times": "Mo-Fr 15:00; Sa 12:00", "name": "USPS COLLECTION BOX - BLUE BOX", "note": "ON 12/24 AND 12/31, THIS BOX MAY BE COLLECTED AS EARLY AS 12 NOON.", "ref": "3271400044"}, "type": "Feature"}
{"geometry": {"coordinates": [-81.415536476, 28.665438272], "type": "Point"}, "id": "dFkn2MJr0N54BgZDNpcZ6Afr3pw=", "properties": {"@spider": "usps_collection_boxes", "addr:city": "ALTAMONTE SPG", "addr:country": "US", "addr:full": "801 W STATE ROAD 436", "addr:postcode": "32714", "addr:state": "FL", "brand": "USPS", "collection_times": "Mo-Fr 14:30", "name": "USPS COLLECTION BOX - BLUE BOX", "note": "ON 12/24 AND 12/31, THIS BOX MAY BE COLLECTED AS EARLY AS 12 NOON.", "ref": "3271400046"}, "type": "Feature"}
{"geometry": {"coordinates": [-81.402508191, 28.66623255], "type": "Point"}, "id": "DLJLlRoeDj3oINbrNyUHBOuokXk=", "properties": {"@spider": "usps_collection_boxes", "addr:city": "ALTAMONTE SPG", "addr:country": "US", "addr:full": "321 MONTGOMERY RD", "addr:postcode": "32714", "addr:state": "FL", "brand": "USPS", "collection_times": "Mo-Fr 17:00; Sa 15:00", "name": "USPS COLLECTION BOX - PO LOBBY", "note": "ON 12/24 AND 12/31, THIS BOX MAY BE COLLECTED AS EARLY AS 12 NOON.", "ref": "3271400048"}, "type": "Feature"}
{"geometry": {"coordinates": [-81.402508191, 28.66623255], "type": "Point"}, "id": "zGUrKPw4IQIQP1g60hIJqk1NnqU=", "properties": {"@spider": "usps_collection_boxes", "addr:city": "ALTAMONTE SPG", "addr:country": "US", "addr:full": "321 MONTGOMERY RD", "addr:postcode": "32714", "addr:state": "FL", "brand": "USPS", "collection_times": "Mo-Fr 17:00; Sa 15:00", "name": "USPS COLLECTION BOX - APC", "note": "ON 12/24 AND 12/31, THIS BOX MAY BE COLLECTED AS EARLY AS 12 NOON.", "ref": "3271400049"}, "type": "Feature"}
{"geometry": {"coordinates": [-81.402508191, 28.66623255], "type": "Point"}, "id": "JN6GdPttE1T5srXg-J3k7rs3iIY=", "properties": {"@spider": "usps_collection_boxes", "addr:city": "ALTAMONTE SPG", "addr:country": "US", "addr:full": "321 MONTGOMERY RD", "addr:postcode": "32714", "addr:state": "FL", "brand": "USPS", "collection_times": "Mo-Fr 18:00; Sa 13:30", "name": "USPS COLLECTION BOX - PO LOBBY", "note": "ON 12/24 AND 12/31, THIS BOX MAY BE COLLECTED AS EARLY AS 12 NOON.", "ref": "3271400057"}, "type": "Feature"}
{"geometry": {"coordinates": [-81.307616175, 29.028000172], "type": "Point"}, "id": "6Aoe5dovovwkcoYcXjzQiYpX1iE=", "properties": {"@spider": "usps_collection_boxes", "addr:city": "DELAND", "addr:country": "US", "addr:full": "100 S CLARA AVE", "addr:postcode": "32720", "addr:state": "FL", "brand": "USPS", "collection_times": "Mo-Fr 17:00; Sa 14:45", "name": "USPS COLLECTION BOX - BLUE BOX", "note": "ON 12/24 AND 12/31, THIS BOX MAY BE COLLECTED AS EARLY AS 12 NOON.", "ref": "3272000005"}, "type": "Feature"}
{"geometry": {"coordinates": [-81.352250211, 29.077894362], "type": "Point"}, "id": "ApN7Fmcy_rtdWojtKDdP0f5NPXc=", "properties": {"@spider": "usps_collection_boxes", "addr:city": "DELAND", "addr:country": "US", "addr:full": "2827 GRAND AVE", "addr:postcode": "32720", "addr:state": "FL", "brand": "USPS", "collection_times": "Mo-Fr 13:45; Sa 11:45", "name": "USPS COLLECTION BOX - BLUE BOX", "note": "ON 12/24 AND 12/31, THIS BOX MAY BE COLLECTED AS EARLY AS 12 NOON.", "ref": "3272000012"}, "type": "Feature"}
{"geometry": {"coordinates": [-81.319572, 29.027990455], "type": "Point"}, "id": "SCloseBklSOVo8kZYwEHdPUap_o=", "properties": {"@spider": "usps_collection_boxes", "addr:city": "DELAND", "addr:country": "US", "addr:full": "865 W NEW YORK AVE", "addr:postcode": "32720", "addr:state": "FL", "brand": "USPS", "collection_times": "Mo-Sa 10:30", "name": "USPS COLLECTION BOX - BLUE BOX", "ref": "3272000026"}, "type": "Feature"}
{"geometry": {"coordinates": [-81.323631723, 29.027920512], "type": "Point"}, "id": "gBibtgyCe8mwGVCOxN71155U_DQ=", "properties": {"@spider": "usps_collection_boxes", "addr:city": "DELAND", "addr:country": "US", "addr:full": "1050 W NEW YORK AVE", "addr:postcode": "32720", "addr:state": "FL", "brand": "USPS", "collection_times": "Mo-Sa 10:45", "name": "USPS COLLECTION BOX - BLUE BOX", "ref": "3272000027"}, "type": "Feature"}
{"geometry": {"coordinates": [-81.317758332, 29.042579496], "type": "Point"}, "id": "Ws6cvrN2OKaaAJccvjDicK6aeDs=", "properties": {"@spider": "usps_collection_boxes", "addr:city": "DELAND", "addr:country": "US", "addr:full": "740 W PLYMOUTH AVE", "addr:postcode": "32720", "addr:state": "FL", "brand": "USPS", "collection_times": "Mo-Sa 10:00", "name": "USPS COLLECTION BOX - BLUE BOX", "ref": "3272000030"}, "type": "Feature"}
{"geometry": {"coordinates": [-81.305018277, 29.028998458], "type": "Point"}, "id": "XS00b5747l7Qgm_gzcfIOjMcfVs=", "properties": {"@spider": "usps_collection_boxes", "addr:city": "DELAND", "addr:country": "US", "addr:full": "123 W INDIANA AVE", "addr:postcode": "32720", "addr:state": "FL", "brand": "USPS", "collection_times": "Mo-Sa 15:00", "name": "USPS COLLECTION BOX - BLUE BOX", "note": "ON 12/24 AND 12/31, THIS BOX MAY BE COLLECTED AS EARLY AS 12 NOON.", "ref": "3272000032"}, "type": "Feature"}
{"geometry": {"coordinates": [-81.299741312, 28.985486616], "type": "Point"}, "id": "sH-JQY5fP3W-A1MKP1WoI6fjHFI=", "properties": {"@spider": "usps_collection_boxes", "addr:city": "DELAND", "addr:country": "US", "addr:full": "2450 S WOODLAND BLVD", "addr:postcode": "32720", "addr:state": "FL", "brand": "USPS", "collection_times": "Mo-Fr 15:00; Sa 11:30", "name": "USPS COLLECTION BOX - BLUE BOX", "note": "ON 12/24 AND 12/31, THIS BOX MAY BE COLLECTED AS EARLY AS 12 NOON.", "ref": "3272000037"}, "type": "Feature"}
{"geometry": {"coordinates": [-81.30347344, 29.030020994], "type": "Point"}, "id": "M4f72HEIWFn4kRIlBvCacpzrEsI=", "properties": {"@spider": "usps_collection_boxes", "addr:city": "DELAND", "addr:country": "US", "addr:full": "200 N WOODLAND BLVD", "addr:postcode": "32720", "addr:state": "FL", "brand": "USPS", "collection_times": "Mo-Sa 14:00", "name": "USPS COLLECTION BOX - BLUE BOX", "note": "ON 12/24 AND 12/31, THIS BOX MAY BE COLLECTED AS EARLY AS 12 NOON.", "ref": "3272000038"}, "type": "Feature"}
{"geometry": {"coordinates": [-81.304583401, 29.061963304], "type": "Point"}, "id": "WXQF34T7DhVzRXcglxqwE06Igyc=", "properties": {"@spider": "usps_collection_boxes", "addr:city": "DELAND", "addr:country": "US", "addr:full": "1702 N WOODLAND BLVD", "addr:postcode": "32720", "addr:state": "FL", "brand": "USPS", "collection_times": "Mo-Fr 15:15; Sa 14:30", "name": "USPS COLLECTION BOX - BLUE BOX", "note": "ON 12/24 AND 12/31, THIS BOX MAY BE COLLECTED AS EARLY AS 12 NOON.", "ref": "3272000043"}, "type": "Feature"}
{"geometry": {"coordinates": [-81.320999987, 29.084837778], "type": "Point"}, "id": "erMDXR8bEAQ-GA7mqMqg6uYbGUs=", "properties": {"@spider": "usps_collection_boxes", "addr:city": "DELAND", "addr:country": "US", "addr:full": "3100 N WOODLAND BLVD", "addr:postcode": "32720", "addr:state": "FL", "brand": "USPS", "collection_times": "Mo-Sa 10:45", "name": "USPS COLLECTION BOX - BLUE BOX", "ref": "3272000044"}, "type": "Feature"}
{"geometry": {"coordinates": [-81.299768892, 28.985748832], "type": "Point"}, "id": "abalW_HDNjkDxfQdqHzqufZJtMw=", "properties": {"@spider": "usps_collection_boxes", "addr:city": "DELAND", "addr:country": "US", "addr:full": "2410 S WOODLAND BLVD", "addr:postcode": "32720", "addr:state": "FL", "brand": "USPS", "collection_times": "Mo-Sa 12:00", "name": "USPS COLLECTION BOX - BLUE BOX", "ref": "3272000050"}, "type": "Feature"}
{"geometry": {"coordinates": [-81.30273388, 28.997279273], "type": "Point"}, "id": "fRbU_dR8R9yQNSPrdZ6I4nXUxOE=", "properties": {"@spider": "usps_collection_boxes", "addr:city": "DELAND", "addr:country": "US", "addr:full": "1742 S WOODLAND BLVD", "addr:postcode": "32720", "addr:state": "FL", "brand": "USPS", "collection_times": "Mo-Fr 15:00; Sa 14:30", "name": "USPS COLLECTION BOX - BLUE BOX", "note": "ON 12/24 AND 12/31, THIS BOX MAY BE COLLECTED AS EARLY AS 12 NOON.", "ref": "3272000051"}, "type": "Feature"}
{"geometry": {"coordinates": [-81.302799433, 29.004155497], "type": "Point"}, "id": "A2cSMnp2VCEJlvSLrAPg-olrLR0=", "properties": {"@spider": "usps_collection_boxes", "addr:city": "DELAND", "addr:country": "US", "addr:full": "1400 S WOODLAND BLVD", "addr:postcode": "32720", "addr:state": "FL", "brand": "USPS", "collection_times": "Mo-Sa 10:00", "name": "USPS COLLECTION BOX - BLUE BOX", "ref": "3272000052"}, "type": "Feature"}
{"geometry": {"coordinates": [-81.303567625, 29.034882031], "type": "Point"}, "id": "GlKDmvGulFVZu3PGOU_ZfEgt398=", "properties": {"@spider": "usps_collection_boxes", "addr:city": "DELAND", "addr:country": "US", "addr:full": "421 N WOODLAND BLVD", "addr:postcode": "32723", "addr:state": "FL", "brand": "USPS", "collection_times": "Mo-Fr 15:45; Sa 14:00", "name": "USPS COLLECTION BOX - BLUE BOX", "note": "ON 12/24 AND 12/31, THIS BOX MAY BE COLLECTED AS EARLY AS 12 NOON.", "ref": "3272300000"}, "type": "Feature"}
{"geometry": {"coordinates": [-81.301138386, 29.054977471], "type": "Point"}, "id": "miDkkWnU-p-by39sA3VwMKmece0=", "properties": {"@spider": "usps_collection_boxes", "addr:city": "DELAND", "addr:country": "US", "addr:full": "299 E INTERNATIONAL SPEEDWAY BLVD", "addr:postcode": "32724", "addr:state": "FL", "brand": "USPS", "collection_times": "Mo-Sa 13:00", "name": "USPS COLLECTION BOX - BLUE BOX", "note": "ON 12/24 AND 12/31, THIS BOX MAY BE COLLECTED AS EARLY AS 12 NOON.", "ref": "3272400001"}, "type": "Feature"}
{"geometry": {"coordinates": [-81.303119665, 29.0280435], "type": "Point"}, "id": "_aRZRNasNx7EVj6a2-0NCMHaSnQ=", "properties": {"@spider": "usps_collection_boxes", "addr:city": "DELAND", "addr:country": "US", "addr:full": "100 E NEW YORK AVE", "addr:postcode": "32724", "addr:state": "FL", "brand": "USPS", "collection_times": "Mo-Sa 10:45", "name": "USPS COLLECTION BOX - BLUE BOX", "ref": "3272400004"}, "type": "Feature"}
{"geometry": {"coordinates": [-81.297638916, 29.028080544], "type": "Point"}, "id": "GTTCjiW89oOkd3wfXbQHbOZOR5k=", "properties": {"@spider": "usps_collection_boxes", "addr:city": "DELAND", "addr:country": "US", "addr:full": "336 E NEW YORK AVE", "addr:postcode": "32724", "addr:state": "FL", "brand": "USPS", "collection_times": "Mo-Fr 17:00; Sa 14:30", "name": "USPS COLLECTION BOX - BLUE BOX", "note": "ON 12/24 AND 12/31, THIS BOX MAY BE COLLECTED AS EARLY AS 12 NOON.", "ref": "3272400005"}, "type": "Feature"}
{"geometry": {"coordinates": [-81.297638916, 29.028080544], "type": "Point"}, "id": "TA54u8ypW0PiVwN9DPWAhdwxXLU=", "properties": {"@spider": "usps_collection_boxes", "addr:city": "DELAND", "addr:country": "US", "addr:full": "336 E NEW YORK AVE", "addr:postcode": "32724", "addr:state": "FL", "brand": "USPS", "collection_times": "Mo-Fr 17:00; Sa 14:30", "name": "USPS COLLECTION BOX - BLUE BOX", "note": "ON 12/24 AND 12/31, THIS BOX MAY BE COLLECTED AS EARLY AS 12 NOON.", "ref": "3272400006"}, "type": "Feature"}
{"geometry": {"coordinates": [-81.290559526, 29.055123466], "type": "Point"}, "id": "Py91YKhSAc9iZnv4_XTgzKsf0J4=", "properties": {"@spider": "usps_collection_boxes", "addr:city": "DELAND", "addr:country": "US", "addr:full": "761 E INTERNATIONAL SPEEDWAY BLVD", "addr:postcode": "32724", "addr:state": "FL", "brand": "USPS", "collection_times": "Mo-Sa 11:15", "name": "USPS COLLECTION BOX - BLUE BOX", "ref": "3272400010"}, "type": "Feature"}
{"geometry": {"coordinates": [-81.297638916, 29.028080544], "type": "Point"}, "id": "Eytaj5E3TLqY0detj3NjObe-01k=", "properties": {"@spider": "usps_collection_boxes", "addr:city": "DELAND", "addr:country": "US", "addr:full": "336 E NEW YORK AVE", "addr:postcode": "32724", "addr:state": "FL", "brand": "USPS", "collection_times": "Mo-Fr 16:30; Sa 14:30", "name": "USPS COLLECTION BOX - APC", "note": "ON 12/24 AND 12/31, THIS BOX MAY BE COLLECTED AS EARLY AS 12 NOON.", "ref": "3272400011"}, "type": "Feature"}
{"geometry": {"coordinates": [-81.297638916, 29.028080544], "type": "Point"}, "id": "5TNmLNDmE4ldasbxSbfJgXjZt_g=", "properties": {"@spider": "usps_collection_boxes", "addr:city": "DELAND", "addr:country": "US", "addr:full": "336 E NEW YORK AVE", "addr:postcode": "32724", "addr:state": "FL", "brand": "USPS", "collection_times": "Mo-Fr 16:30; Sa 14:30", "name": "USPS COLLECTION BOX - PO LOBBY", "note": "ON 12/24 AND 12/31, THIS BOX MAY BE COLLECTED AS EARLY AS 12 NOON.", "ref": "3272400012"}, "type": "Feature"}
{"geometry": {"coordinates": [-81.297638916, 29.028080544], "type": "Point"}, "id": "2QQRwQMcWWG3s9g1aO11q_O4Tno=", "properties": {"@spider": "usps_collection_boxes", "addr:city": "DELAND", "addr:country": "US", "addr:full": "336 E NEW YORK AVE", "addr:postcode": "32724", "addr:state": "FL", "brand": "USPS", "collection_times": "Mo-Fr 16:30; Sa 14:30", "name": "USPS COLLECTION BOX - PO LOBBY", "note": "ON 12/24 AND 12/31, THIS BOX MAY BE COLLECTED AS EARLY AS 12 NOON.", "ref": "3272400013"}, "type": "Feature"}
{"geometry": {"coordinates": [-81.297638916, 29.028080544], "type": "Point"}, "id": "hHwmwvYl8jEDX8rVwvDmsrQwOeg=", "properties": {"@spider": "usps_collection_boxes", "addr:city": "DELAND", "addr:country": "US", "addr:full": "336 E NEW YORK AVE", "addr:postcode": "32724", "addr:state": "FL", "brand": "USPS", "collection_times": "Mo-Fr 18:00; Sa 15:00", "name": "USPS COLLECTION BOX - PO LOBBY", "note": "ON 12/24 AND 12/31, THIS BOX MAY BE COLLECTED AS EARLY AS 12 NOON.", "ref": "3272400014"}, "type": "Feature"}
{"geometry": {"coordinates": [-81.276110153, 28.888501733], "type": "Point"}, "id": "WHujpfTSPEqRM0oAvTj_kyp5XeA=", "properties": {"@spider": "usps_collection_boxes", "addr:city": "DELTONA", "addr:country": "US", "addr:full": "944 DELTONA BLVD", "addr:postcode": "32725", "addr:state": "FL", "brand": "USPS", "collection_times": "Mo-Fr 17:00; Sa 16:00", "name": "USPS COLLECTION BOX - BLUE BOX", "note": "ON 12/24 AND 12/31, THIS BOX MAY BE COLLECTED AS EARLY AS 12 NOON.", "ref": "3272500001"}, "type": "Feature"}
{"geometry": {"coordinates": [-81.271600164, 28.89575302], "type": "Point"}, "id": "SACOnqiO4tMOSFtOApnyTctixLI=", "properties": {"@spider": "usps_collection_boxes", "addr:city": "DELTONA", "addr:country": "US", "addr:full": "1200 DELTONA BLVD", "addr:postcode": "32725", "addr:state": "FL", "brand": "USPS", "collection_times": "Mo-Sa 15:00", "name": "USPS COLLECTION BOX - BLUE BOX", "note": "ON 12/24 AND 12/31, THIS BOX MAY BE COLLECTED AS EARLY AS 12 NOON.", "ref": "3272500006"}, "type": "Feature"}
{"geometry": {"coordinates": [-81.228031933, 28.902654], "type": "Point"}, "id": "S432kV-aRR8wAaoRjnB5wOYolvQ=", "properties": {"@spider": "usps_collection_boxes", "addr:city": "DELTONA", "addr:country": "US", "addr:full": "1640 PROVIDENCE BLVD", "addr:postcode": "32725", "addr:state": "FL", "brand": "USPS", "collection_times": "Mo-Sa 14:45", "name": "USPS COLLECTION BOX - BLUE BOX", "note": "ON 12/24 AND 12/31, THIS BOX MAY BE COLLECTED AS EARLY AS 12 NOON.", "ref": "3272500012"}, "type": "Feature"}
{"geometry": {"coordinates": [-81.245741198, 28.904630782], "type": "Point"}, "id": "2xE0xzpzm6f4caqjlviN8s0fKdQ=", "properties": {"@spider": "usps_collection_boxes", "addr:city": "DELTONA", "addr:country": "US", "addr:full": "1555 SAXON BLVD", "addr:postcode": "32725", "addr:state": "FL", "brand": "USPS", "collection_times": "Mo-Sa 14:45", "name": "USPS COLLECTION BOX - BLUE BOX", "note": "ON 12/24 AND 12/31, THIS BOX MAY BE COLLECTED AS EARLY AS 12 NOON.", "ref": "3272500014"}, "type": "Feature"}
{"geometry": {"coordinates": [-81.266813057, 28.911308508], "type": "Point"}, "id": "iVeLSnKcQMq_R8EIrsRSzSRHGO4=", "properties": {"@spider": "usps_collection_boxes", "addr:city": "DELTONA", "addr:country": "US", "addr:full": "2100 SAXON BLVD", "addr:postcode": "32725", "addr:state": "FL", "brand": "USPS", "collection_times": "Mo-Sa 15:00", "name": "USPS COLLECTION BOX - BLUE BOX", "note": "ON 12/24 AND 12/31, THIS BOX MAY BE COLLECTED AS EARLY AS 12 NOON.", "ref": "3272500015"}, "type": "Feature"}
{"geometry": {"coordinates": [-81.265129921, 28.869331472], "type": "Point"}, "id": "kItBQxeRTFnb_p3n8CjDozKryUI=", "properties": {"@spider": "usps_collection_boxes", "addr:city": "DELTONA", "addr:country": "US", "addr:full": "710 JACOB BROCK AVE", "addr:postcode": "32725", "addr:state": "FL", "brand": "USPS", "collection_times": "Mo-Sa 14:30", "name": "USPS COLLECTION BOX - BLUE BOX", "note": "ON 12/24 AND 12/31, THIS BOX MAY BE COLLECTED AS EARLY AS 12 NOON.", "ref": "3272500018"}, "type": "Feature"}
{"geometry": {"coordinates": [-81.240956713, 28.882504607], "type": "Point"}, "id": "Hr3-TE7VcbD2xUsPkFXWcx5zdlg=", "properties": {"@spider": "usps_collection_boxes", "addr:city": "DELTONA", "addr:country": "US", "addr:full": "1235 PROVIDENCE BLVD", "addr:postcode": "32725", "addr:state": "FL", "brand": "USPS", "collection_times": "Mo-Sa 14:45", "name": "USPS COLLECTION BOX - BLUE BOX", "note": "ON 12/24 AND 12/31, THIS BOX MAY BE COLLECTED AS EARLY AS 12 NOON.", "ref": "3272500019"}, "type": "Feature"}
{"geometry": {"coordinates": [-81.276110153, 28.888501733], "type": "Point"}, "id": "Ch4TuESy0fQUXSPW2kRjUPK--O0=", "properties": {"@spider": "usps_collection_boxes", "addr:city": "DELTONA", "addr:country": "US", "addr:full": "944 DELTONA BLVD", "addr:postcode": "32725", "addr:state": "FL", "brand": "USPS", "collection_times": "Mo-Fr 17:00; Sa 16:00", "name": "USPS COLLECTION BOX - PO LOBBY", "note": "ON 12/24 AND 12/31, THIS BOX MAY BE COLLECTED AS EARLY AS 12 NOON.", "ref": "3272500021"}, "type": "Feature"}
{"geometry": {"coordinates": [-81.276110153, 28.888501733], "type": "Point"}, "id": "en0oyFE10H1gM_FmY_ZqhukT0x4=", "properties": {"@spider": "usps_collection_boxes", "addr:city": "DELTONA", "addr:country": "US", "addr:full": "944 DELTONA BLVD", "addr:postcode": "32725", "addr:state": "FL", "brand": "USPS", "collection_times": "Mo-Fr 17:00; Sa 12:00", "name": "USPS COLLECTION BOX - PO LOBBY", "note": "ON 12/24 AND 12/31, THIS BOX MAY BE COLLECTED AS EARLY AS 12 NOON.", "ref": "3272500025"}, "type": "Feature"}
{"geometry": {"coordinates": [-81.687837311, 28.829189526], "type": "Point"}, "id": "PaUTRQuF24Fc8hMC8wGVfy-lxEI=", "properties": {"@spider": "usps_collection_boxes", "addr:city": "EUSTIS", "addr:country": "US", "addr:full": "252 W ARDICE AVE", "addr:postcode": "32726", "addr:state": "FL", "brand": "USPS", "collection_times": "Mo-Fr 14:00", "name": "USPS COLLECTION BOX - BLUE BOX", "note": "ON 12/24 AND 12/31, THIS BOX MAY BE COLLECTED AS EARLY AS 12 NOON.", "ref": "3272600001"}, "type": "Feature"}
{"geometry": {"coordinates": [-81.686030822, 28.862237776], "type": "Point"}, "id": "oo0yGnTBuDExsFnOhlgkiINyPX0=", "properties": {"@spider": "usps_collection_boxes", "addr:city": "EUSTIS", "addr:country": "US", "addr:full": "927 N BAY ST", "addr:postcode": "32726", "addr:state": "FL", "brand": "USPS", "collection_times": "Mo-Fr 09:00", "name": "USPS COLLECTION BOX - BLUE BOX", "ref": "3272600006"}, "type": "Feature"}
{"geometry": {"coordinates": [-81.702100862, 28.823819648], "type": "Point"}, "id": "THtiBvPT0CCHqanoJznu0WP5aLU=", "properties": {"@spider": "usps_collection_boxes", "addr:city": "EUSTIS", "addr:country": "US", "addr:full": "2860 DAVID WALKER DR", "addr:postcode": "32726", "addr:state": "FL", "brand": "USPS", "collection_times": "Mo-Fr 13:00", "name": "USPS COLLECTION BOX - BLUE BOX", "note": "ON 12/24 AND 12/31, THIS BOX MAY BE COLLECTED AS EARLY AS 12 NOON.", "ref": "3272600009"}, "type": "Feature"}
{"geometry": {"coordinates": [-81.683882277, 28.855464504], "type": "Point"}, "id": "ZdwjQiuqCNxDf8lM4RJ25Hyfn48=", "properties": {"@spider": "usps_collection_boxes", "addr:city": "EUSTIS", "addr:country": "US", "addr:full": "111 E CLIFFORD AVE", "addr:postcode": "32726", "addr:state": "FL", "brand": "USPS", "collection_times": "Mo-Fr 17:00; Sa 16:00", "name": "USPS COLLECTION BOX - BLUE BOX", "note": "ON 12/24 AND 12/31, THIS BOX MAY BE COLLECTED AS EARLY AS 12 NOON.", "ref": "3272600010"}, "type": "Feature"}
{"geometry": {"coordinates": [-81.691749141, 28.833704277], "type": "Point"}, "id": "TGUBbM8ANVoqEpgEI7dxOM6zyEo=", "properties": {"@spider": "usps_collection_boxes", "addr:city": "EUSTIS", "addr:country": "US", "addr:full": "2001 KURT ST", "addr:postcode": "32726", "addr:state": "FL", "brand": "USPS", "collection_times": "Mo-Fr 11:30", "name": "USPS COLLECTION BOX - BLUE BOX", "ref": "3272600015"}, "type": "Feature"}
{"geometry": {"coordinates": [-81.684489997, 28.853600543], "type": "Point"}, "id": "0dkMNvFDoMo3ytlOwcfPrrv0zPQ=", "properties": {"@spider": "usps_collection_boxes", "addr:city": "EUSTIS", "addr:country": "US", "addr:full": "100 E MAGNOLIA AVE", "addr:postcode": "32726", "addr:state": "FL", "brand": "USPS", "collection_times": "Mo-Fr 11:00", "name": "USPS COLLECTION BOX - BLUE BOX", "ref": "3272600017"}, "type": "Feature"}
{"geometry": {"coordinates": [-81.68579916, 28.860245822], "type": "Point"}, "id": "ypdua7pBgunLdLTrCmZ7JAi4zjI=", "properties": {"@spider": "usps_collection_boxes", "addr:city": "EUSTIS", "addr:country": "US", "addr:full": "720 N BAY ST", "addr:postcode": "32726", "addr:state": "FL", "brand": "USPS", "collection_times": "Mo-Fr 09:00", "name": "USPS COLLECTION BOX - BLUE BOX", "ref": "3272600018"}, "type": "Feature"}
{"geometry": {"coordinates": [-81.689939875, 28.823665444], "type": "Point"}, "id": "E_406qtfIzfkmiyAcwc-NKLchEA=", "properties": {"@spider": "usps_collection_boxes", "addr:city": "EUSTIS", "addr:country": "US", "addr:full": "401 PLAZA DR", "addr:postcode": "32726", "addr:state": "FL", "brand": "USPS", "collection_times": "Mo-Fr 12:00", "name": "USPS COLLECTION BOX - BLUE BOX", "ref": "3272600020"}, "type": "Feature"}
{"geometry": {"coordinates": [-81.688070763, 28.874183081], "type": "Point"}, "id": "eGhXUtP1vtj4h9lObpsoWfloCu4=", "properties": {"@spider": "usps_collection_boxes", "addr:city": "EUSTIS", "addr:country": "US", "addr:full": "1950 N HIGHWAY 19", "addr:postcode": "32726", "addr:state": "FL", "brand": "USPS", "collection_times": "Mo-Fr 14:15", "name": "USPS COLLECTION BOX - BLUE BOX", "note": "ON 12/24 AND 12/31, THIS BOX MAY BE COLLECTED AS EARLY AS 12 NOON.", "ref": "3272600026"}, "type": "Feature"}
{"geometry": {"coordinates": [-81.683882277, 28.855464504], "type": "Point"}, "id": "7FyrgwDzh4zV04HqO5QeFKJNNbM=", "properties": {"@spider": "usps_collection_boxes", "addr:city": "EUSTIS", "addr:country": "US", "addr:full": "111 E CLIFFORD AVE", "addr:postcode": "32726", "addr:state": "FL", "brand": "USPS", "collection_times": "Mo-Fr 17:00; Sa 16:00", "name": "USPS COLLECTION BOX - PO LOBBY", "note": "ON 12/24 AND 12/31, THIS BOX MAY BE COLLECTED AS EARLY AS 12 NOON.", "ref": "3272600029"}, "type": "Feature"}
{"geometry": {"coordinates": [-81.702499249, 28.821822521], "type": "Point"}, "id": "xti63oNN6MRSRzGL7Klx3_IIwj4=", "properties": {"@spider": "usps_collection_boxes", "addr:city": "EUSTIS", "addr:country": "US", "addr:full": "2420 E BURLEIGH BLVD", "addr:postcode": "32726", "addr:state": "FL", "brand": "USPS", "collection_times": "Mo-Fr 13:30", "name": "USPS COLLECTION BOX - BLUE BOX", "note": "ON 12/24 AND 12/31, THIS BOX MAY BE COLLECTED AS EARLY AS 12 NOON.", "ref": "3272600030"}, "type": "Feature"}
{"geometry": {"coordinates": [-81.683882277, 28.855464504], "type": "Point"}, "id": "-NgD-ehE66u__yfEkcTIZXyGhRM=", "properties": {"@spider": "usps_collection_boxes", "addr:city": "EUSTIS", "addr:country": "US", "addr:full": "111 E CLIFFORD AVE", "addr:postcode": "32726", "addr:state": "FL", "brand": "USPS", "collection_times": "Mo-Fr 17:00; Sa 12:00", "name": "USPS COLLECTION BOX - PO LOBBY", "note": "ON 12/24 AND 12/31, THIS BOX MAY BE COLLECTED AS EARLY AS 12 NOON.", "ref": "3272600034"}, "type": "Feature"}
{"geometry": {"coordinates": [-81.347058733, 28.64812215], "type": "Point"}, "id": "Tt7FDf_ey8TV3uMPge6EhZMMspc=", "properties": {"@spider": "usps_collection_boxes", "addr:city": "CASSELBERRY", "addr:country": "US", "addr:full": "300 CAROLWOOD PT", "addr:postcode": "32730", "addr:state": "FL", "brand": "USPS", "collection_times": "Mo-Fr 15:00; Sa 12:00", "name": "USPS COLLECTION BOX - BLUE BOX", "note": "ON 12/24 AND 12/31, THIS BOX MAY BE COLLECTED AS EARLY AS 12 NOON.", "ref": "3273000001"}, "type": "Feature"}
{"geometry": {"coordinates": [-81.34216576, 28.657276785], "type": "Point"}, "id": "gevrSiYO7HstiwtUmHkGSWzw_ww=", "properties": {"@spider": "usps_collection_boxes", "addr:city": "CASSELBERRY", "addr:country": "US", "addr:full": "130 FERNWOOD BLVD", "addr:postcode": "32730", "addr:state": "FL", "brand": "USPS", "collection_times": "Mo-Fr 17:00; Sa 15:15", "name": "USPS COLLECTION BOX - BLUE BOX", "note": "ON 12/24 AND 12/31, THIS BOX MAY BE COLLECTED AS EARLY AS 12 NOON.", "ref": "3273000002"}, "type": "Feature"}
{"geometry": {"coordinates": [-81.348764451, 28.652047204], "type": "Point"}, "id": "WZhwRNhOVu5OFBEmKn1Y64Zg0-U=", "properties": {"@spider": "usps_collection_boxes", "addr:city": "CASSELBERRY", "addr:country": "US", "addr:full": "7800 S US HIGHWAY 17/92", "addr:postcode": "32730", "addr:state": "FL", "brand": "USPS", "collection_times": "Mo-Fr 12:00", "name": "USPS COLLECTION BOX - BLUE BOX", "ref": "3273000009"}, "type": "Feature"}
{"geometry": {"coordinates": [-81.34216576, 28.657276785], "type": "Point"}, "id": "rqQMkPOgs4xtx36-lu0ptQmgTz4=", "properties": {"@spider": "usps_collection_boxes", "addr:city": "CASSELBERRY", "addr:country": "US", "addr:full": "130 FERNWOOD BLVD", "addr:postcode": "32730", "addr:state": "FL", "brand": "USPS", "collection_times": "Mo-Fr 16:45", "name": "USPS COLLECTION BOX - PO LOBBY", "note": "ON 12/24 AND 12/31, THIS BOX MAY BE COLLECTED AS EARLY AS 12 NOON.", "ref": "3273000011"}, "type": "Feature"}
{"geometry": {"coordinates": [-81.34216576, 28.657276785], "type": "Point"}, "id": "pqBFw4ZawZDj0YotNehPORQwvdc=", "properties": {"@spider": "usps_collection_boxes", "addr:city": "CASSELBERRY", "addr:country": "US", "addr:full": "130 FERNWOOD BLVD", "addr:postcode": "32730", "addr:state": "FL", "brand": "USPS", "collection_times": "Mo-Fr 17:00", "name": "USPS COLLECTION BOX - PO LOBBY", "note": "ON 12/24 AND 12/31, THIS BOX MAY BE COLLECTED AS EARLY AS 12 NOON.", "ref": "3273000012"}, "type": "Feature"}
{"geometry": {"coordinates": [-81.11691, 28.737084511], "type": "Point"}, "id": "nCJXcML6bQYJCVLZU1pINQSCa1E=", "properties": {"@spider": "usps_collection_boxes", "addr:city": "GENEVA", "addr:country": "US", "addr:full": "199 PINE ST", "addr:postcode": "32732", "addr:state": "FL", "brand": "USPS", "collection_times": "Mo-Fr 16:30; Sa 11:00", "name": "USPS COLLECTION BOX - BLUE BOX", "note": "ON 12/24 AND 12/31, THIS BOX MAY BE COLLECTED AS EARLY AS 12 NOON.", "ref": "3273200001"}, "type": "Feature"}
{"geometry": {"coordinates": [-81.11691, 28.737084511], "type": "Point"}, "id": "X7t7g6YiT9tbzxUOcrRkuNqMGR8=", "properties": {"@spider": "usps_collection_boxes", "addr:city": "GENEVA", "addr:country": "US", "addr:full": "199 PINE ST", "addr:postcode": "32732", "addr:state": "FL", "brand": "USPS", "collection_times": "Mo-Fr 16:30; Sa 11:00", "name": "USPS COLLECTION BOX - PO LOBBY", "note": "ON 12/24 AND 12/31, THIS BOX MAY BE COLLECTED AS EARLY AS 12 NOON.", "ref": "3273200002"}, "type": "Feature"}
{"geometry": {"coordinates": [-81.11691, 28.737084511], "type": "Point"}, "id": "EvQ-C5ReDstAIzRbqsFbPB94f8c=", "properties": {"@spider": "usps_collection_boxes", "addr:city": "GENEVA", "addr:country": "US", "addr:full": "199 PINE ST", "addr:postcode": "32732", "addr:state": "FL", "brand": "USPS", "collection_times": "Mo-Fr 16:30; Sa 11:00", "name": "USPS COLLECTION BOX - PO LOBBY", "note": "ON 12/24 AND 12/31, THIS BOX MAY BE COLLECTED AS EARLY AS 12 NOON.", "ref": "3273200003"}, "type": "Feature"}
{"geometry": {"coordinates": [-81.286262864, 28.611091508], "type": "Point"}, "id": "1oc6u27XMTIumrivEQnlA_fQ0Lk=", "properties": {"@spider": "usps_collection_boxes", "addr:city": "GOLDENROD", "addr:country": "US", "addr:full": "7501 CITRUS AVE", "addr:postcode": "32733", "addr:state": "FL", "brand": "USPS", "collection_times": "Mo-Fr 17:00; Sa 12:00", "name": "USPS COLLECTION BOX - BLUE BOX", "note": "ON 12/24 AND 12/31, THIS BOX MAY BE COLLECTED AS EARLY AS 12 NOON.", "ref": "3273300001"}, "type": "Feature"}
{"geometry": {"coordinates": [-81.286262864, 28.611091508], "type": "Point"}, "id": "hctfoqyNsXa7WeApQFsdRqOi69Y=", "properties": {"@spider": "usps_collection_boxes", "addr:city": "GOLDENROD", "addr:country": "US", "addr:full": "7501 CITRUS AVE", "addr:postcode": "32733", "addr:state": "FL", "brand": "USPS", "collection_times": "Mo-Fr 17:00; Sa 12:00", "name": "USPS COLLECTION BOX - PO LOBBY", "note": "ON 12/24 AND 12/31, THIS BOX MAY BE COLLECTED AS EARLY AS 12 NOON.", "ref": "3273300003"}, "type": "Feature"}
{"geometry": {"coordinates": [-81.286262864, 28.611091508], "type": "Point"}, "id": "kG_SYwuAwBW54Owt7T8PxSrQ7gA=", "properties": {"@spider": "usps_collection_boxes", "addr:city": "GOLDENROD", "addr:country": "US", "addr:full": "7501 CITRUS AVE", "addr:postcode": "32733", "addr:state": "FL", "brand": "USPS", "collection_times": "Mo-Fr 17:00; Sa 12:00", "name": "USPS COLLECTION BOX - APC", "note": "ON 12/24 AND 12/31, THIS BOX MAY BE COLLECTED AS EARLY AS 12 NOON.", "ref": "3273300004"}, "type": "Feature"}
{"geometry": {"coordinates": [-81.286262864, 28.611091508], "type": "Point"}, "id": "j_EE_ZKhzY7i3Q0w3t9yBKUgUP4=", "properties": {"@spider": "usps_collection_boxes", "addr:city": "GOLDENROD", "addr:country": "US", "addr:full": "7501 CITRUS AVE", "addr:postcode": "32733", "addr:state": "FL", "brand": "USPS", "collection_times": "Mo-Fr 17:00; Sa 12:00", "name": "USPS COLLECTION BOX - PO LOBBY", "note": "ON 12/24 AND 12/31, THIS BOX MAY BE COLLECTED AS EARLY AS 12 NOON.", "ref": "3273300005"}, "type": "Feature"}
{"geometry": {"coordinates": [-81.728942922, 28.881045639], "type": "Point"}, "id": "6_L9zxv-I2oJbRiPNdN6B7msANM=", "properties": {"@spider": "usps_collection_boxes", "addr:city": "GRAND ISLAND", "addr:country": "US", "addr:full": "36525 S FISH CAMP RD", "addr:postcode": "32735", "addr:state": "FL", "brand": "USPS", "collection_times": "Mo-Fr 16:45; Sa 08:45", "name": "USPS COLLECTION BOX - BLUE BOX", "note": "ON 12/24 AND 12/31, THIS BOX MAY BE COLLECTED AS EARLY AS 12 NOON.", "ref": "3273500001"}, "type": "Feature"}
{"geometry": {"coordinates": [-81.728942922, 28.881045639], "type": "Point"}, "id": "UbVQonI7Vx__GfzY3KOsmtYAXLs=", "properties": {"@spider": "usps_collection_boxes", "addr:city": "GRAND ISLAND", "addr:country": "US", "addr:full": "36525 S FISH CAMP RD", "addr:postcode": "32735", "addr:state": "FL", "brand": "USPS", "collection_times": "Mo-Fr 16:45; Sa 08:45", "name": "USPS COLLECTION BOX - PO LOBBY", "note": "ON 12/24 AND 12/31, THIS BOX MAY BE COLLECTED AS EARLY AS 12 NOON.", "ref": "3273500003"}, "type": "Feature"}
{"geometry": {"coordinates": [-81.728942922, 28.881045639], "type": "Point"}, "id": "mhZ02iFJJ7uB-wwSPwWnPGi221s=", "properties": {"@spider": "usps_collection_boxes", "addr:city": "GRAND ISLAND", "addr:country": "US", "addr:full": "36525 S FISH CAMP RD", "addr:postcode": "32735", "addr:state": "FL", "brand": "USPS", "collection_times": "Mo-Fr 16:30", "name": "USPS COLLECTION BOX - PO LOBBY", "note": "ON 12/24 AND 12/31, THIS BOX MAY BE COLLECTED AS EARLY AS 12 NOON.", "ref": "3273500004"}, "type": "Feature"}
{"geometry": {"coordinates": [-81.18565385, 28.921413759], "type": "Point"}, "id": "Au2xo81i6rMyXcctFHHOGORg66U=", "properties": {"@spider": "usps_collection_boxes", "addr:city": "DELTONA", "addr:country": "US", "addr:full": "2048 HOWLAND BLVD", "addr:postcode": "32738", "addr:state": "FL", "brand": "USPS", "collection_times": "Mo-Fr 17:00; Sa 16:00", "name": "USPS COLLECTION BOX - BLUE BOX", "note": "ON 12/24 AND 12/31, THIS BOX MAY BE COLLECTED AS EARLY AS 12 NOON.", "ref": "3273800006"}, "type": "Feature"}
{"geometry": {"coordinates": [-81.18565385, 28.921413759], "type": "Point"}, "id": "nx5N1fBXlikpI4TkpU7A_HIuLWY=", "properties": {"@spider": "usps_collection_boxes", "addr:city": "DELTONA", "addr:country": "US", "addr:full": "2048 HOWLAND BLVD", "addr:postcode": "32738", "addr:state": "FL", "brand": "USPS", "collection_times": "Mo-Fr 17:00; Sa 16:00", "name": "USPS COLLECTION BOX - PO LOBBY", "note": "ON 12/24 AND 12/31, THIS BOX MAY BE COLLECTED AS EARLY AS 12 NOON.", "ref": "3273800008"}, "type": "Feature"}
{"geometry": {"coordinates": [-81.18565385, 28.921413759], "type": "Point"}, "id": "Z5mxwAcfUWHYSUyH5sqsu5bN-7w=", "properties": {"@spider": "usps_collection_boxes", "addr:city": "DELTONA", "addr:country": "US", "addr:full": "2048 HOWLAND BLVD", "addr:postcode": "32738", "addr:state": "FL", "brand": "USPS", "collection_times": "Mo-Fr 17:00; Sa 16:00", "name": "USPS COLLECTION BOX - PO LOBBY", "note": "ON 12/24 AND 12/31, THIS BOX MAY BE COLLECTED AS EARLY AS 12 NOON.", "ref": "3273800009"}, "type": "Feature"}
{"geometry": {"coordinates": [-81.18565385, 28.921413759], "type": "Point"}, "id": "_Ml1e1Y0xgpaREl8ekoM7PIOrf4=", "properties": {"@spider": "usps_collection_boxes", "addr:city": "DELTONA", "addr:country": "US", "addr:full": "2048 HOWLAND BLVD", "addr:postcode": "32738", "addr:state": "FL", "brand": "USPS", "collection_times": "Mo-Fr 17:00; Sa 16:00", "name": "USPS COLLECTION BOX - PO LOBBY", "note": "ON 12/24 AND 12/31, THIS BOX MAY BE COLLECTED AS EARLY AS 12 NOON.", "ref": "3273800010"}, "type": "Feature"}
{"geometry": {"coordinates": [-81.18565385, 28.921413759], "type": "Point"}, "id": "1tg2bnDa-UUE1b5AhCMOjYAjQc4=", "properties": {"@spider": "usps_collection_boxes", "addr:city": "DELTONA", "addr:country": "US", "addr:full": "2048 HOWLAND BLVD", "addr:postcode": "32738", "addr:state": "FL", "brand": "USPS", "collection_times": "Mo-Fr 17:00; Sa 12:00", "name": "USPS COLLECTION BOX - PO LOBBY", "note": "ON 12/24 AND 12/31, THIS BOX MAY BE COLLECTED AS EARLY AS 12 NOON.", "ref": "3273800012"}, "type": "Feature"}
{"geometry": {"coordinates": [-81.231665732, 28.983018624], "type": "Point"}, "id": "DeqFkLqfaE9dXYqXq-RXFg2sWsU=", "properties": {"@spider": "usps_collection_boxes", "addr:city": "LAKE HELEN", "addr:country": "US", "addr:full": "104 E MICHIGAN AVE", "addr:postcode": "32744", "addr:state": "FL", "brand": "USPS", "collection_times": "Mo-Fr 17:00; Sa 11:30", "name": "USPS COLLECTION BOX - BLUE BOX", "note": "ON 12/24 AND 12/31, THIS BOX MAY BE COLLECTED AS EARLY AS 12 NOON.", "ref": "3274400001"}, "type": "Feature"}
{"geometry": {"coordinates": [-81.2321470218, 28.9805839951], "type": "Point"}, "id": "L2KcNVz8pA0DeyH3-XAd8lFyMvA=", "properties": {"@spider": "usps_collection_boxes", "addr:city": "LAKE HELEN", "addr:country": "US", "addr:full": "336 S LAKEVIEW DRIVE", "addr:postcode": "32744", "addr:state": "FL", "brand": "USPS", "collection_times": "Mo-Sa 10:45", "name": "USPS COLLECTION BOX - BLUE BOX", "ref": "3274400002"}, "type": "Feature"}
{"geometry": {"coordinates": [-81.231665732, 28.983018624], "type": "Point"}, "id": "ucPTv7loCMnec0BZw-6U03UFNMw=", "properties": {"@spider": "usps_collection_boxes", "addr:city": "LAKE HELEN", "addr:country": "US", "addr:full": "104 E MICHIGAN AVE", "addr:postcode": "32744", "addr:state": "FL", "brand": "USPS", "collection_times": "Mo-Fr 16:30; Sa 11:30", "name": "USPS COLLECTION BOX - PO LOBBY", "note": "ON 12/24 AND 12/31, THIS BOX MAY BE COLLECTED AS EARLY AS 12 NOON.", "ref": "3274400004"}, "type": "Feature"}
{"geometry": {"coordinates": [-81.231665732, 28.983018624], "type": "Point"}, "id": "4SBa9DUvsXPYdh93pcM2ylc30Vc=", "properties": {"@spider": "usps_collection_boxes", "addr:city": "LAKE HELEN", "addr:country": "US", "addr:full": "104 E MICHIGAN AVE", "addr:postcode": "32744", "addr:state": "FL", "brand": "USPS", "collection_times": "Mo-Fr 17:00; Sa 11:30", "name": "USPS COLLECTION BOX - PO LOBBY", "note": "ON 12/24 AND 12/31, THIS BOX MAY BE COLLECTED AS EARLY AS 12 NOON.", "ref": "3274400005"}, "type": "Feature"}
{"geometry": {"coordinates": [-81.343901234, 28.758712753], "type": "Point"}, "id": "Dp91rE8Wx-slw9Hm5BFaOGzFNjQ=", "properties": {"@spider": "usps_collection_boxes", "addr:city": "LAKE MARY", "addr:country": "US", "addr:full": "400 N FOREST BLVD", "addr:postcode": "32746", "addr:state": "FL", "brand": "USPS", "collection_times": "Mo-Sa 09:30", "name": "USPS COLLECTION BOX - BLUE BOX", "ref": "3274600002"}, "type": "Feature"}
{"geometry": {"coordinates": [-81.366206628, 28.7617264], "type": "Point"}, "id": "XNJMtUYFL661nOai6mDRChrCZBA=", "properties": {"@spider": "usps_collection_boxes", "addr:city": "LAKE MARY", "addr:country": "US", "addr:full": "250 INTERNATIONAL PKWY", "addr:postcode": "32746", "addr:state": "FL", "brand": "USPS", "collection_times": "Mo-Fr 09:15", "name": "USPS COLLECTION BOX - BLUE BOX", "ref": "3274600006"}, "type": "Feature"}
{"geometry": {"coordinates": [-81.368025949, 28.757355032], "type": "Point"}, "id": "tbhaBaiWTOns8KVsY27FumOQUH4=", "properties": {"@spider": "usps_collection_boxes", "addr:city": "LAKE MARY", "addr:country": "US", "addr:full": "120 INTERNATIONAL PKWY", "addr:postcode": "32746", "addr:state": "FL", "brand": "USPS", "collection_times": "Mo-Sa 09:00", "name": "USPS COLLECTION BOX - BLUE BOX", "ref": "3274600008"}, "type": "Feature"}
{"geometry": {"coordinates": [-81.35836383, 28.754067936], "type": "Point"}, "id": "31N07NHuGOU9HegovGEwXgfX-CY=", "properties": {"@spider": "usps_collection_boxes", "addr:city": "LAKE MARY", "addr:country": "US", "addr:full": "3705 LAKE EMMA RD", "addr:postcode": "32746", "addr:state": "FL", "brand": "USPS", "collection_times": "Mo-Fr 09:00; Sa 09:30", "name": "USPS COLLECTION BOX - BLUE BOX", "ref": "3274600009"}, "type": "Feature"}
{"geometry": {"coordinates": [-81.358133898, 28.754496798], "type": "Point"}, "id": "0Xt5i3TbbWjtT_xMqiaa7Usy27g=", "properties": {"@spider": "usps_collection_boxes", "addr:city": "LAKE MARY", "addr:country": "US", "addr:full": "3813 LAKE EMMA RD", "addr:postcode": "32746", "addr:state": "FL", "brand": "USPS", "collection_times": "Mo-Fr 09:00; Sa 09:30", "name": "USPS COLLECTION BOX - BLUE BOX", "ref": "3274600010"}, "type": "Feature"}
{"geometry": {"coordinates": [-81.325002337, 28.756393479], "type": "Point"}, "id": "fG6VynpxHhTwU4x0q8RdOxLCxT4=", "properties": {"@spider": "usps_collection_boxes", "addr:city": "LAKE MARY", "addr:country": "US", "addr:full": "2500 W LAKE MARY BLVD", "addr:postcode": "32746", "addr:state": "FL", "brand": "USPS", "collection_times": "Mo-Fr 09:30", "name": "USPS COLLECTION BOX - BLUE BOX", "ref": "3274600014"}, "type": "Feature"}
{"geometry": {"coordinates": [-81.338449332, 28.756111469], "type": "Point"}, "id": "QpJtMoP0VR3cShYK6qhVwvtBfrw=", "properties": {"@spider": "usps_collection_boxes", "addr:city": "LAKE MARY", "addr:country": "US", "addr:full": "3415 W LAKE MARY BLVD", "addr:postcode": "32746", "addr:state": "FL", "brand": "USPS", "collection_times": "Mo-Fr 17:00; Sa 15:00", "name": "USPS COLLECTION BOX - BLUE BOX", "note": "ON 12/24 AND 12/31, THIS BOX MAY BE COLLECTED AS EARLY AS 12 NOON.", "ref": "3274600015"}, "type": "Feature"}
{"geometry": {"coordinates": [-81.340969165, 28.756094481], "type": "Point"}, "id": "Nv11jtuveV3zyk1Bi7W-MpHQ44g=", "properties": {"@spider": "usps_collection_boxes", "addr:city": "LAKE MARY", "addr:country": "US", "addr:full": "3551 W LAKE MARY BLVD", "addr:postcode": "32746", "addr:state": "FL", "brand": "USPS", "collection_times": "Mo-Fr 09:00", "name": "USPS COLLECTION BOX - BLUE BOX", "ref": "3274600018"}, "type": "Feature"}
{"geometry": {"coordinates": [-81.349538139, 28.756002541], "type": "Point"}, "id": "DyEQoDss7TgZl6G1p84xU74oCIg=", "properties": {"@spider": "usps_collection_boxes", "addr:city": "LAKE MARY", "addr:country": "US", "addr:full": "4195 W LAKE MARY BLVD", "addr:postcode": "32746", "addr:state": "FL", "brand": "USPS", "collection_times": "Mo-Fr 11:00; Sa 10:30", "name": "USPS COLLECTION BOX - BLUE BOX", "ref": "3274600019"}, "type": "Feature"}
{"geometry": {"coordinates": [-81.368213361, 28.736558916], "type": "Point"}, "id": "YLUH83-hvDo65h2giAPg2FcWUWc=", "properties": {"@spider": "usps_collection_boxes", "addr:city": "LAKE MARY", "addr:country": "US", "addr:full": "39 SKYLINE DR", "addr:postcode": "32746", "addr:state": "FL", "brand": "USPS", "collection_times": "Mo-Fr 11:00", "name": "USPS COLLECTION BOX - BLUE BOX", "ref": "3274600022"}, "type": "Feature"}
{"geometry": {"coordinates": [-81.362400378, 28.736289], "type": "Point"}, "id": "8k8KqECD20G-x3BeMm_6B0NksW4=", "properties": {"@spider": "usps_collection_boxes", "addr:city": "LAKE MARY", "addr:country": "US", "addr:full": "400 TECHNOLOGY PARK", "addr:postcode": "32746", "addr:state": "FL", "brand": "USPS", "collection_times": "Mo-Fr 11:00", "name": "USPS COLLECTION BOX - BLUE BOX", "ref": "3274600024"}, "type": "Feature"}
{"geometry": {"coordinates": [-81.338449332, 28.756111469], "type": "Point"}, "id": "zE63gZTFG_Qlr-s6W2Dm-bCuMqY=", "properties": {"@spider": "usps_collection_boxes", "addr:city": "LAKE MARY", "addr:country": "US", "addr:full": "3415 W LAKE MARY BLVD", "addr:postcode": "32746", "addr:state": "FL", "brand": "USPS", "collection_times": "Mo-Fr 17:00; Sa 15:00", "name": "USPS COLLECTION BOX - PO LOBBY", "note": "ON 12/24 AND 12/31, THIS BOX MAY BE COLLECTED AS EARLY AS 12 NOON.", "ref": "3274600028"}, "type": "Feature"}
{"geometry": {"coordinates": [-81.357919146, 28.784673], "type": "Point"}, "id": "5tuF6A7zRuoR3a1BZs6lGAv0WbE=", "properties": {"@spider": "usps_collection_boxes", "addr:city": "LAKE MARY", "addr:country": "US", "addr:full": "1515 INTERNATIONAL PKWY", "addr:postcode": "32746", "addr:state": "FL", "brand": "USPS", "collection_times": "Mo-Fr 10:30", "name": "USPS COLLECTION BOX - BLUE BOX", "ref": "3274600037"}, "type": "Feature"}
{"geometry": {"coordinates": [-81.362019678, 28.76447774], "type": "Point"}, "id": "c8VAkGdhI8Z3RV62mHr4xc5IQ24=", "properties": {"@spider": "usps_collection_boxes", "addr:city": "LAKE MARY", "addr:country": "US", "addr:full": "400 INTERNATIONAL PKWY", "addr:postcode": "32746", "addr:state": "FL", "brand": "USPS", "collection_times": "Mo-Fr 09:30", "name": "USPS COLLECTION BOX - BLUE BOX", "ref": "3274600038"}, "type": "Feature"}
{"geometry": {"coordinates": [-81.360487084, 28.780715715], "type": "Point"}, "id": "I71zEDtL4s6weoSxkb8fL9L4NQY=", "properties": {"@spider": "usps_collection_boxes", "addr:city": "LAKE MARY", "addr:country": "US", "addr:full": "1000 BUSINESS CENTER DR", "addr:postcode": "32746", "addr:state": "FL", "brand": "USPS", "collection_times": "Mo-Fr 09:00", "name": "USPS COLLECTION BOX - BLUE BOX", "ref": "3274600039"}, "type": "Feature"}
{"geometry": {"coordinates": [-81.359065275, 28.761127002], "type": "Point"}, "id": "g6cpwpj-N2DBd6B9ZQ7oLrmLKDo=", "properties": {"@spider": "usps_collection_boxes", "addr:city": "LAKE MARY", "addr:country": "US", "addr:full": "610 CRESCENT EXECUTIVE CT", "addr:postcode": "32746", "addr:state": "FL", "brand": "USPS", "collection_times": "Mo-Fr 09:30", "name": "USPS COLLECTION BOX - BLUE BOX", "ref": "3274600041"}, "type": "Feature"}
{"geometry": {"coordinates": [-81.357411354, 28.778413916], "type": "Point"}, "id": "BgbvUt5C4CeYI4IYQdbMnXIi6fw=", "properties": {"@spider": "usps_collection_boxes", "addr:city": "LAKE MARY", "addr:country": "US", "addr:full": "901 INTERNATIONAL PKWY", "addr:postcode": "32746", "addr:state": "FL", "brand": "USPS", "collection_times": "Mo-Fr 09:15", "name": "USPS COLLECTION BOX - BLUE BOX", "ref": "3274600042"}, "type": "Feature"}
{"geometry": {"coordinates": [-81.363360826, 28.749394989], "type": "Point"}, "id": "CUhry1s7LRQ9JOOr76W-P06d56E=", "properties": {"@spider": "usps_collection_boxes", "addr:city": "LAKE MARY", "addr:country": "US", "addr:full": "1025 GREENWOOD BLVD", "addr:postcode": "32746", "addr:state": "FL", "brand": "USPS", "collection_times": "Mo-Fr 10:00", "name": "USPS COLLECTION BOX - BLUE BOX", "ref": "3274600043"}, "type": "Feature"}
{"geometry": {"coordinates": [-81.354921673, 28.762202134], "type": "Point"}, "id": "kDII8f0Wqbu6VgfnMF5jTtMa_ps=", "properties": {"@spider": "usps_collection_boxes", "addr:city": "LAKE MARY", "addr:country": "US", "addr:full": "300 PRIMERA BLVD", "addr:postcode": "32746", "addr:state": "FL", "brand": "USPS", "collection_times": "Mo-Fr 09:30", "name": "USPS COLLECTION BOX - BLUE BOX", "ref": "3274600044"}, "type": "Feature"}
{"geometry": {"coordinates": [-81.357374711, 28.760616137], "type": "Point"}, "id": "Hg0BZ1XScf2JhL0BvDBH5FbOCjk=", "properties": {"@spider": "usps_collection_boxes", "addr:city": "LAKE MARY", "addr:country": "US", "addr:full": "255 PRIMERA BLVD", "addr:postcode": "32746", "addr:state": "FL", "brand": "USPS", "collection_times": "Mo-Fr 09:30", "name": "USPS COLLECTION BOX - BLUE BOX", "ref": "3274600045"}, "type": "Feature"}
{"geometry": {"coordinates": [-81.358748809, 28.775232986], "type": "Point"}, "id": "swsktaA-pdeLjJtGkdDTbURd_no=", "properties": {"@spider": "usps_collection_boxes", "addr:city": "LAKE MARY", "addr:country": "US", "addr:full": "701 INTERNATIONAL PKWY", "addr:postcode": "32746", "addr:state": "FL", "brand": "USPS", "collection_times": "Mo-Fr 09:15", "name": "USPS COLLECTION BOX - BLUE BOX", "ref": "3274600046"}, "type": "Feature"}
{"geometry": {"coordinates": [-81.338449332, 28.756111469], "type": "Point"}, "id": "RtvvGpDLXA20ynozf92eNfUevkI=", "properties": {"@spider": "usps_collection_boxes", "addr:city": "LAKE MARY", "addr:country": "US", "addr:full": "3415 W LAKE MARY BLVD", "addr:postcode": "32746", "addr:state": "FL", "brand": "USPS", "collection_times": "Mo-Fr 17:00; Sa 15:00", "name": "USPS COLLECTION BOX - APC", "note": "ON 12/24 AND 12/31, THIS BOX MAY BE COLLECTED AS EARLY AS 12 NOON.", "ref": "3274600048"}, "type": "Feature"}
{"geometry": {"coordinates": [-81.338449332, 28.756111469], "type": "Point"}, "id": "32rSikjsH6UcaEXs2k4Q_qDX04U=", "properties": {"@spider": "usps_collection_boxes", "addr:city": "LAKE MARY", "addr:country": "US", "addr:full": "3415 W LAKE MARY BLVD", "addr:postcode": "32746", "addr:state": "FL", "brand": "USPS", "collection_times": "Mo-Fr 17:00; Sa 15:00", "name": "USPS COLLECTION BOX - APC", "note": "ON 12/24 AND 12/31, THIS BOX MAY BE COLLECTED AS EARLY AS 12 NOON.", "ref": "3274600049"}, "type": "Feature"}
{"geometry": {"coordinates": [-81.363542085, 28.763547147], "type": "Point"}, "id": "l1bd7NVZj_-B7xP1KBHqtVC89Qo=", "properties": {"@spider": "usps_collection_boxes", "addr:city": "LAKE MARY", "addr:country": "US", "addr:full": "300 INTERNATIONAL PKWY", "addr:postcode": "32746", "addr:state": "FL", "brand": "USPS", "collection_times": "Mo-Fr 09:15", "name": "USPS COLLECTION BOX - BLUE BOX", "ref": "3274600050"}, "type": "Feature"}
{"geometry": {"coordinates": [-81.365865379, 28.75360008], "type": "Point"}, "id": "Sx1DdX1MKhFCP9nW7xSr8GAYOak=", "properties": {"@spider": "usps_collection_boxes", "addr:city": "LAKE MARY", "addr:country": "US", "addr:full": "1337 S INTERNATIONAL PKWY", "addr:postcode": "32746", "addr:state": "FL", "brand": "USPS", "collection_times": "Mo-Fr 11:00", "name": "USPS COLLECTION BOX - BLUE BOX", "ref": "3274600051"}, "type": "Feature"}
{"geometry": {"coordinates": [-81.322048626, 28.757807696], "type": "Point"}, "id": "BWV-JnQZpfT99MhQTEYk0yGAUf8=", "properties": {"@spider": "usps_collection_boxes", "addr:city": "LAKE MARY", "addr:country": "US", "addr:full": "101 N COUNTRY CLB", "addr:postcode": "32746", "addr:state": "FL", "brand": "USPS", "collection_times": "Mo-Fr 09:30", "name": "USPS COLLECTION BOX - BLUE BOX", "ref": "3274600055"}, "type": "Feature"}
{"geometry": {"coordinates": [-81.364184971, 28.746614709], "type": "Point"}, "id": "v031DGc0Rfb-L0bz2fPD-AfGZmI=", "properties": {"@spider": "usps_collection_boxes", "addr:city": "LAKE MARY", "addr:country": "US", "addr:full": "1064 GREENWOOD BLVD", "addr:postcode": "32746", "addr:state": "FL", "brand": "USPS", "collection_times": "Mo-Fr 10:30", "name": "USPS COLLECTION BOX - BLUE BOX", "ref": "3274600056"}, "type": "Feature"}
{"geometry": {"coordinates": [-81.338449332, 28.756111469], "type": "Point"}, "id": "elsjIrsiiEwAo1O3dzJpKLRctYs=", "properties": {"@spider": "usps_collection_boxes", "addr:city": "LAKE MARY", "addr:country": "US", "addr:full": "3415 W LAKE MARY BLVD", "addr:postcode": "32746", "addr:state": "FL", "brand": "USPS", "collection_times": "Mo-Fr 17:00; Sa 15:00", "name": "USPS COLLECTION BOX - PO LOBBY", "note": "ON 12/24 AND 12/31, THIS BOX MAY BE COLLECTED AS EARLY AS 12 NOON.", "ref": "3274600057"}, "type": "Feature"}
{"geometry": {"coordinates": [-81.338449332, 28.756111469], "type": "Point"}, "id": "kn8jeS6iaj6K8194qKr1iAoyS28=", "properties": {"@spider": "usps_collection_boxes", "addr:city": "LAKE MARY", "addr:country": "US", "addr:full": "3415 W LAKE MARY BLVD", "addr:postcode": "32746", "addr:state": "FL", "brand": "USPS", "collection_times": "Mo-Fr 18:00; Sa 15:00", "name": "USPS COLLECTION BOX - PO LOBBY", "note": "ON 12/24 AND 12/31, THIS BOX MAY BE COLLECTED AS EARLY AS 12 NOON.", "ref": "3274600063"}, "type": "Feature"}
{"geometry": {"coordinates": [-81.322888096, 28.824956361], "type": "Point"}, "id": "foiCT5ldYsa854HaPjyoX25hZOA=", "properties": {"@spider": "usps_collection_boxes", "addr:city": "LAKE MONROE", "addr:country": "US", "addr:full": "755 MONROE RD", "addr:postcode": "32747", "addr:state": "FL", "brand": "USPS", "collection_times": "Mo-Fr 17:00; Sa 12:00", "name": "USPS COLLECTION BOX - BLUE BOX", "note": "ON 12/24 AND 12/31, THIS BOX MAY BE COLLECTED AS EARLY AS 12 NOON.", "ref": "3274700001"}, "type": "Feature"}
{"geometry": {"coordinates": [-81.322888096, 28.824956361], "type": "Point"}, "id": "xHTxBKhvEICEpbh_azPsZSdHnmI=", "properties": {"@spider": "usps_collection_boxes", "addr:city": "LAKE MONROE", "addr:country": "US", "addr:full": "755 MONROE RD", "addr:postcode": "32747", "addr:state": "FL", "brand": "USPS", "collection_times": "Mo-Fr 17:00; Sa 12:00", "name": "USPS COLLECTION BOX - PO LOBBY", "note": "ON 12/24 AND 12/31, THIS BOX MAY BE COLLECTED AS EARLY AS 12 NOON.", "ref": "3274700002"}, "type": "Feature"}
{"geometry": {"coordinates": [-81.322888096, 28.824956361], "type": "Point"}, "id": "b3lLg7vVfzsKyE6i-2sGoBRW3yA=", "properties": {"@spider": "usps_collection_boxes", "addr:city": "LAKE MONROE", "addr:country": "US", "addr:full": "755 MONROE RD", "addr:postcode": "32747", "addr:state": "FL", "brand": "USPS", "collection_times": "Mo-Fr 17:00; Sa 12:00", "name": "USPS COLLECTION BOX - PO LOBBY", "note": "ON 12/24 AND 12/31, THIS BOX MAY BE COLLECTED AS EARLY AS 12 NOON.", "ref": "3274700003"}, "type": "Feature"}
{"geometry": {"coordinates": [-81.353009319, 28.697942319], "type": "Point"}, "id": "BqCrTStUwDJ_jxLZenGOp0-9LG0=", "properties": {"@spider": "usps_collection_boxes", "addr:city": "LONGWOOD", "addr:country": "US", "addr:full": "555 W STATE ROAD 434", "addr:postcode": "32750", "addr:state": "FL", "brand": "USPS", "collection_times": "Mo-Fr 15:00", "name": "USPS COLLECTION BOX - BLUE BOX", "note": "ON 12/24 AND 12/31, THIS BOX MAY BE COLLECTED AS EARLY AS 12 NOON.", "ref": "3275000001"}, "type": "Feature"}
{"geometry": {"coordinates": [-81.357161139, 28.697939488], "type": "Point"}, "id": "o8ZBuo6raoGJybgSdwSqPcLcCbc=", "properties": {"@spider": "usps_collection_boxes", "addr:city": "LONGWOOD", "addr:country": "US", "addr:full": "745 W STATE ROAD 434", "addr:postcode": "32750", "addr:state": "FL", "brand": "USPS", "collection_times": "Mo-Fr 15:00", "name": "USPS COLLECTION BOX - BLUE BOX", "note": "ON 12/24 AND 12/31, THIS BOX MAY BE COLLECTED AS EARLY AS 12 NOON.", "ref": "3275000002"}, "type": "Feature"}
{"geometry": {"coordinates": [-81.402127382, 28.689543028], "type": "Point"}, "id": "RGYx0rAUqgicvwKCZm4326tWIeM=", "properties": {"@spider": "usps_collection_boxes", "addr:city": "LONGWOOD", "addr:country": "US", "addr:full": "100 CROWN OAKS CTR", "addr:postcode": "32750", "addr:state": "FL", "brand": "USPS", "collection_times": "Mo-Fr 15:00", "name": "USPS COLLECTION BOX - BLUE BOX", "note": "ON 12/24 AND 12/31, THIS BOX MAY BE COLLECTED AS EARLY AS 12 NOON.", "ref": "3275000004"}, "type": "Feature"}
{"geometry": {"coordinates": [-81.339313173, 28.717954972], "type": "Point"}, "id": "Yku5YnidLkyfRJGULmg_ird6iHk=", "properties": {"@spider": "usps_collection_boxes", "addr:city": "LONGWOOD", "addr:country": "US", "addr:full": "1684 N HIGHWAY 427", "addr:postcode": "32750", "addr:state": "FL", "brand": "USPS", "collection_times": "Mo-Fr 12:30", "name": "USPS COLLECTION BOX - BLUE BOX", "note": "ON 12/24 AND 12/31, THIS BOX MAY BE COLLECTED AS EARLY AS 12 NOON.", "ref": "3275000010"}, "type": "Feature"}
{"geometry": {"coordinates": [-81.3342853344, 28.7255051365], "type": "Point"}, "id": "zqOD-EfYbnNNEn2uDlGi8QLdl-w=", "properties": {"@spider": "usps_collection_boxes", "addr:city": "LONGWOOD", "addr:country": "US", "addr:full": "785 BIG TREE DR", "addr:postcode": "32750", "addr:state": "FL", "brand": "USPS", "collection_times": "Mo-Fr 12:30", "name": "USPS COLLECTION BOX - BLUE BOX", "note": "ON 12/24 AND 12/31, THIS BOX MAY BE COLLECTED AS EARLY AS 12 NOON.", "ref": "3275000011"}, "type": "Feature"}
{"geometry": {"coordinates": [-81.327604929, 28.70908334], "type": "Point"}, "id": "4Ru_XSIVLU5Sy7bUhSo1JmR4LBI=", "properties": {"@spider": "usps_collection_boxes", "addr:city": "LONGWOOD", "addr:country": "US", "addr:full": "947 LONGDALE AVE", "addr:postcode": "32750", "addr:state": "FL", "brand": "USPS", "collection_times": "Mo-Fr 15:00", "name": "USPS COLLECTION BOX - BLUE BOX", "note": "ON 12/24 AND 12/31, THIS BOX MAY BE COLLECTED AS EARLY AS 12 NOON.", "ref": "3275000012"}, "type": "Feature"}
{"geometry": {"coordinates": [-81.360350749, 28.697979457], "type": "Point"}, "id": "PQSTU4mnKaUcG6HEG9Sz9Hoktvs=", "properties": {"@spider": "usps_collection_boxes", "addr:city": "LONGWOOD", "addr:country": "US", "addr:full": "929 W STATE ROAD 434", "addr:postcode": "32750", "addr:state": "FL", "brand": "USPS", "collection_times": "Mo-Fr 15:00", "name": "USPS COLLECTION BOX - BLUE BOX", "note": "ON 12/24 AND 12/31, THIS BOX MAY BE COLLECTED AS EARLY AS 12 NOON.", "ref": "3275000013"}, "type": "Feature"}
{"geometry": {"coordinates": [-81.339870526, 28.697810546], "type": "Point"}, "id": "0xo7akNzyzSDsng6Z9mBh76Rb-4=", "properties": {"@spider": "usps_collection_boxes", "addr:city": "LONGWOOD", "addr:country": "US", "addr:full": "400 E HIGHWAY 434", "addr:postcode": "32750", "addr:state": "FL", "brand": "USPS", "collection_times": "Mo-Fr 15:00", "name": "USPS COLLECTION BOX - BLUE BOX", "note": "ON 12/24 AND 12/31, THIS BOX MAY BE COLLECTED AS EARLY AS 12 NOON.", "ref": "3275000014"}, "type": "Feature"}
{"geometry": {"coordinates": [-81.38632625, 28.692186812], "type": "Point"}, "id": "c-34RmRxCvgbVKOZoXw49URGi7A=", "properties": {"@spider": "usps_collection_boxes", "addr:city": "LONGWOOD", "addr:country": "US", "addr:full": "1855 W STATE ROAD 434", "addr:postcode": "32750", "addr:state": "FL", "brand": "USPS", "collection_times": "Mo-Fr 15:00", "name": "USPS COLLECTION BOX - BLUE BOX", "note": "ON 12/24 AND 12/31, THIS BOX MAY BE COLLECTED AS EARLY AS 12 NOON.", "ref": "3275000019"}, "type": "Feature"}
{"geometry": {"coordinates": [-81.368779332, 28.6977165], "type": "Point"}, "id": "7Vj5XNPQ2U7L8MumEPuGFKeTe6k=", "properties": {"@spider": "usps_collection_boxes", "addr:city": "LONGWOOD", "addr:country": "US", "addr:full": "1200 W STATE ROAD 434 STE 100", "addr:postcode": "32750", "addr:state": "FL", "brand": "USPS", "collection_times": "Mo-Fr 15:00", "name": "USPS COLLECTION BOX - BLUE BOX", "note": "ON 12/24 AND 12/31, THIS BOX MAY BE COLLECTED AS EARLY AS 12 NOON.", "ref": "3275000020"}, "type": "Feature"}
{"geometry": {"coordinates": [-81.352747693, 28.695383277], "type": "Point"}, "id": "Eam-R6qgTC-v1szIvFngB6FIj5M=", "properties": {"@spider": "usps_collection_boxes", "addr:city": "LONGWOOD", "addr:country": "US", "addr:full": "501 FLORIDA CENTRAL PKWY", "addr:postcode": "32750", "addr:state": "FL", "brand": "USPS", "collection_times": "Mo-Fr 17:00; Sa 13:00", "name": "USPS COLLECTION BOX - BLUE BOX", "note": "ON 12/24 AND 12/31, THIS BOX MAY BE COLLECTED AS EARLY AS 12 NOON.", "ref": "3275000022"}, "type": "Feature"}
{"geometry": {"coordinates": [-81.307331361, 28.725415479], "type": "Point"}, "id": "TfcJH26jCd7sB1AXiLV-LadrAdY=", "properties": {"@spider": "usps_collection_boxes", "addr:city": "LONGWOOD", "addr:country": "US", "addr:full": "1897 HIGH ST", "addr:postcode": "32750", "addr:state": "FL", "brand": "USPS", "collection_times": "Mo-Fr 11:15", "name": "USPS COLLECTION BOX - BLUE BOX", "ref": "3275000026"}, "type": "Feature"}
{"geometry": {"coordinates": [-81.352747693, 28.695383277], "type": "Point"}, "id": "PrAC_CjzxvFen8RHvfwFPU1uW9Q=", "properties": {"@spider": "usps_collection_boxes", "addr:city": "LONGWOOD", "addr:country": "US", "addr:full": "501 FLORIDA CENTRAL PKWY", "addr:postcode": "32750", "addr:state": "FL", "brand": "USPS", "collection_times": "Mo-Fr 17:00; Sa 13:00", "name": "USPS COLLECTION BOX - PO LOBBY", "note": "ON 12/24 AND 12/31, THIS BOX MAY BE COLLECTED AS EARLY AS 12 NOON.", "ref": "3275000027"}, "type": "Feature"}
{"geometry": {"coordinates": [-81.386672363, 28.690082413], "type": "Point"},