{"geometry": {"coordinates": [-82.405061, 28.53875], "type": "Point"}, "id": "P01SQHyxCF7yus9m9s7mM6u-NXk=", "properties": {"@spider": "usps_collection_boxes", "addr:city": "BROOKSVILLE", "addr:country": "US", "addr:full": "19514 CORTEZ BLVD", "addr:postcode": "34601", "addr:state": "FL", "brand": "USPS", "collection_times": "Mo-Sa 12:30", "name": "USPS COLLECTION BOX - BLUE BOX", "note": "ON 12/24 AND 12/31, THIS BOX MAY BE COLLECTED AS EARLY AS 12 NOON.", "ref": "3460100001"}, "type": "Feature"}
{"geometry": {"coordinates": [-82.4040371, 28.542186], "type": "Point"}, "id": "lJDmjFjEXCS_nmNsLx1m2sMJ44o=", "properties": {"@spider": "usps_collection_boxes", "addr:city": "BROOKSVILLE", "addr:country": "US", "addr:full": "1234 S BROAD ST", "addr:postcode": "34601", "addr:state": "FL", "brand": "USPS", "collection_times": "Mo-Sa 12:30", "name": "USPS COLLECTION BOX - BLUE BOX", "note": "ON 12/24 AND 12/31, THIS BOX MAY BE COLLECTED AS EARLY AS 12 NOON.", "ref": "3460100003"}, "type": "Feature"}
{"geometry": {"coordinates": [-82.3881166, 28.555665], "type": "Point"}, "id": "Hi0Af-r1FNl-NzCjY0Eq2OVnXY4=", "properties": {"@spider": "usps_collection_boxes", "addr:city": "BROOKSVILLE", "addr:country": "US", "addr:full": "10 W JEFFERSON ST", "addr:postcode": "34601", "addr:state": "FL", "brand": "USPS", "collection_times": "Mo-Fr 15:00", "name": "USPS COLLECTION BOX - BLUE BOX", "note": "ON 12/24 AND 12/31, THIS BOX MAY BE COLLECTED AS EARLY AS 12 NOON.", "ref": "3460100007"}, "type": "Feature"}
{"geometry": {"coordinates": [-82.388132, 28.554925], "type": "Point"}, "id": "T7lbP1aU9p6-jVFSL3tv1PrUc3Q=", "properties": {"@spider": "usps_collection_boxes", "addr:city": "BROOKSVILLE", "addr:country": "US", "addr:full": "10 S BROAD ST", "addr:postcode": "34601", "addr:state": "FL", "brand": "USPS", "collection_times": "Mo-Fr 15:00", "name": "USPS COLLECTION BOX - BLUE BOX", "note": "ON 12/24 AND 12/31, THIS BOX MAY BE COLLECTED AS EARLY AS 12 NOON.", "ref": "3460100008"}, "type": "Feature"}
{"geometry": {"coordinates": [-82.3883724, 28.556478], "type": "Point"}, "id": "qxcZM9L7L64vt8oFlX0bkHPsQIs=", "properties": {"@spider": "usps_collection_boxes", "addr:city": "BROOKSVILLE", "addr:country": "US", "addr:full": "201 HOWELL AVE", "addr:postcode": "34601", "addr:state": "FL", "brand": "USPS", "collection_times": "Mo-Fr 15:00", "name": "USPS COLLECTION BOX - BLUE BOX", "note": "ON 12/24 AND 12/31, THIS BOX MAY BE COLLECTED AS EARLY AS 12 NOON.", "ref": "3460100009"}, "type": "Feature"}
{"geometry": {"coordinates": [-82.416603, 28.543909], "type": "Point"}, "id": "VhmYTCN-4Gp7ebHSykMK1MxveIk=", "properties": {"@spider": "usps_collection_boxes", "addr:city": "BROOKSVILLE", "addr:country": "US", "addr:full": "19101 CORTEZ BLVD", "addr:postcode": "34601", "addr:state": "FL", "brand": "USPS", "collection_times": "Mo-Sa 17:00", "name": "USPS COLLECTION BOX - BLUE BOX", "note": "ON 12/24 AND 12/31, THIS BOX MAY BE COLLECTED AS EARLY AS 12 NOON.", "ref": "3460100013"}, "type": "Feature"}
{"geometry": {"coordinates": [-82.38556306, 28.556377457], "type": "Point"}, "id": "2kv36jQOLvsLqC5Mgo4mTGf12sA=", "properties": {"@spider": "usps_collection_boxes", "addr:city": "BROOKSVILLE", "addr:country": "US", "addr:full": "207 E FORT DADE AVE", "addr:postcode": "34601", "addr:state": "FL", "brand": "USPS", "collection_times": "Mo-Fr 17:00; Sa 12:00", "name": "USPS COLLECTION BOX - BLUE BOX", "note": "ON 12/24 AND 12/31, THIS BOX MAY BE COLLECTED AS EARLY AS 12 NOON.", "ref": "3460100017"}, "type": "Feature"}
{"geometry": {"coordinates": [-82.3871273, 28.554197], "type": "Point"}, "id": "7DSgN3Cf1RzTFWws0XoS_oZ5avA=", "properties": {"@spider": "usps_collection_boxes", "addr:city": "BROOKSVILLE", "addr:country": "US", "addr:full": "31 S MAIN ST", "addr:postcode": "34601", "addr:state": "FL", "brand": "USPS", "collection_times": "Mo-Fr 15:00", "name": "USPS COLLECTION BOX - BLUE BOX", "note": "ON 12/24 AND 12/31, THIS BOX MAY BE COLLECTED AS EARLY AS 12 NOON.", "ref": "3460100021"}, "type": "Feature"}
{"geometry": {"coordinates": [-82.416709, 28.543913], "type": "Point"}, "id": "qAK_foQVwkXN1d1u3PGfi3xc3XI=", "properties": {"@spider": "usps_collection_boxes", "addr:city": "BROOKSVILLE", "addr:country": "US", "addr:full": "19101 CORTEZ BLVD", "addr:postcode": "34601", "addr:state": "FL", "brand": "USPS", "collection_times": "Mo-Sa 17:00", "name": "USPS COLLECTION BOX - APC", "note": "ON 12/24 AND 12/31, THIS BOX MAY BE COLLECTED AS EARLY AS 12 NOON.", "ref": "3460100030"}, "type": "Feature"}
{"geometry": {"coordinates": [-82.38556306, 28.556377457], "type": "Point"}, "id": "Xyd2aHkA5XcU7zCHXNXpNT9GOj8=", "properties": {"@spider": "usps_collection_boxes", "addr:city": "BROOKSVILLE", "addr:country": "US", "addr:full": "207 E FORT DADE AVE", "addr:postcode": "34601", "addr:state": "FL", "brand": "USPS", "collection_times": "Mo-Fr 16:30", "name": "USPS COLLECTION BOX - PO LOBBY", "note": "ON 12/24 AND 12/31, THIS BOX MAY BE COLLECTED AS EARLY AS 12 NOON.", "ref": "3460100034"}, "type": "Feature"}
{"geometry": {"coordinates": [-82.416222128, 28.543799572], "type": "Point"}, "id": "5IRnh9tn4rUKdlhend1M5oAP2xE=", "properties": {"@spider": "usps_collection_boxes", "addr:city": "BROOKSVILLE", "addr:country": "US", "addr:full": "19101 CORTEZ BLVD", "addr:postcode": "34601", "addr:state": "FL", "brand": "USPS", "collection_times": "Mo-Fr 17:00", "name": "USPS COLLECTION BOX - PO LOBBY", "note": "ON 12/24 AND 12/31, THIS BOX MAY BE COLLECTED AS EARLY AS 12 NOON.", "ref": "3460100035"}, "type": "Feature"}
{"geometry": {"coordinates": [-82.2294404, 28.521926], "type": "Point"}, "id": "AgFw65jkw8C-6YI79QHEvi1nluo=", "properties": {"@spider": "usps_collection_boxes", "addr:city": "BROOKSVILLE", "addr:country": "US", "addr:full": "31138 CORTEZ BLVD", "addr:postcode": "34602", "addr:state": "FL", "brand": "USPS", "collection_times": "Mo-Sa 12:00", "name": "USPS COLLECTION BOX - BLUE BOX", "ref": "3460200001"}, "type": "Feature"}
{"geometry": {"coordinates": [-82.5992395, 28.494332], "type": "Point"}, "id": "v5bNj3PDz6p320pxjAVeIG1cv58=", "properties": {"@spider": "usps_collection_boxes", "addr:city": "BROOKSVILLE", "addr:country": "US", "addr:full": "4343 COMMERCIAL WAY", "addr:postcode": "34606", "addr:state": "FL", "brand": "USPS", "collection_times": "Mo-Sa 11:00", "name": "USPS COLLECTION BOX - BLUE BOX", "ref": "3460600001"}, "type": "Feature"}
{"geometry": {"coordinates": [-82.6277031, 28.455505], "type": "Point"}, "id": "-8DawH4vGivrSsS4EN0whK5G2ns=", "properties": {"@spider": "usps_collection_boxes", "addr:city": "BROOKSVILLE", "addr:country": "US", "addr:full": "1400 PINEHURST DR", "addr:postcode": "34606", "addr:state": "FL", "brand": "USPS", "collection_times": "Mo-Sa 11:00", "name": "USPS COLLECTION BOX - BLUE BOX", "ref": "3460600003"}, "type": "Feature"}
{"geometry": {"coordinates": [-82.5955256, 28.451537], "type": "Point"}, "id": "gs68Zy7gQu7Flq6twYQ1i14WKbc=", "properties": {"@spider": "usps_collection_boxes", "addr:city": "BROOKSVILLE", "addr:country": "US", "addr:full": "7331 SPRING HILL DR", "addr:postcode": "34606", "addr:state": "FL", "brand": "USPS", "collection_times": "Mo-Sa 13:00", "name": "USPS COLLECTION BOX - BLUE BOX", "note": "ON 12/24 AND 12/31, THIS BOX MAY BE COLLECTED AS EARLY AS 12 NOON.", "ref": "3460600009"}, "type": "Feature"}
{"geometry": {"coordinates": [-82.5955295, 28.451532], "type": "Point"}, "id": "JRUCZix2OyQ-iull6-P2b1SaZoA=", "properties": {"@spider": "usps_collection_boxes", "addr:city": "BROOKSVILLE", "addr:country": "US", "addr:full": "7331 SPRING HILL DR", "addr:postcode": "34606", "addr:state": "FL", "brand": "USPS", "collection_times": "Mo-Sa 13:00", "name": "USPS COLLECTION BOX - BLUE BOX", "note": "ON 12/24 AND 12/31, THIS BOX MAY BE COLLECTED AS EARLY AS 12 NOON.", "ref": "3460600010"}, "type": "Feature"}
{"geometry": {"coordinates": [-82.5771915, 28.485271524], "type": "Point"}, "id": "2cgy7aTftzyFranYUZkQV0bgAeM=", "properties": {"@spider": "usps_collection_boxes", "addr:city": "BROOKSVILLE", "addr:country": "US", "addr:full": "8501 PHILATELIC DR", "addr:postcode": "34606", "addr:state": "FL", "brand": "USPS", "collection_times": "Mo-Fr 17:00; Sa 16:05", "name": "USPS COLLECTION BOX - PO LOBBY", "note": "ON 12/24 AND 12/31, THIS BOX MAY BE COLLECTED AS EARLY AS 12 NOON.", "ref": "3460600011"}, "type": "Feature"}
{"geometry": {"coordinates": [-82.5771915, 28.485271524], "type": "Point"}, "id": "O2FHzhBJNnPvpjNgKk7z7Ajhz5E=", "properties": {"@spider": "usps_collection_boxes", "addr:city": "BROOKSVILLE", "addr:country": "US", "addr:full": "8501 PHILATELIC DR", "addr:postcode": "34606", "addr:state": "FL", "brand": "USPS", "collection_times": "Mo-Fr 17:00; Sa 16:05", "name": "USPS COLLECTION BOX - BLUE BOX", "note": "ON 12/24 AND 12/31, THIS BOX MAY BE COLLECTED AS EARLY AS 12 NOON.", "ref": "3460600013"}, "type": "Feature"}
{"geometry": {"coordinates": [-82.5771915, 28.485271524], "type": "Point"}, "id": "O3oXlG16cVBrdrmiCxQnhT2PZqU=", "properties": {"@spider": "usps_collection_boxes", "addr:city": "BROOKSVILLE", "addr:country": "US", "addr:full": "8501 PHILATELIC DR", "addr:postcode": "34606", "addr:state": "FL", "brand": "USPS", "collection_times": "Mo-Fr 17:00; Sa 16:05", "name": "USPS COLLECTION BOX - BLUE BOX", "note": "ON 12/24 AND 12/31, THIS BOX MAY BE COLLECTED AS EARLY AS 12 NOON.", "ref": "3460600015"}, "type": "Feature"}
{"geometry": {"coordinates": [-82.5855963, 28.506865], "type": "Point"}, "id": "31CZzPh_dCmEsCnlob9eBh2OFXg=", "properties": {"@spider": "usps_collection_boxes", "addr:city": "BROOKSVILLE", "addr:country": "US", "addr:full": "5327 COMMERCIAL WAY", "addr:postcode": "34606", "addr:state": "FL", "brand": "USPS", "collection_times": "Mo-Sa 11:00", "name": "USPS COLLECTION BOX - BLUE BOX", "ref": "3460600018"}, "type": "Feature"}
{"geometry": {"coordinates": [-82.5828942, 28.508339], "type": "Point"}, "id": "3CaaRHXSJgcZGH4BO_q_0stwkvk=", "properties": {"@spider": "usps_collection_boxes", "addr:city": "BROOKSVILLE", "addr:country": "US", "addr:full": "5433 COMMERCIAL WAY", "addr:postcode": "34606", "addr:state": "FL", "brand": "USPS", "collection_times": "Mo-Sa 11:00", "name": "USPS COLLECTION BOX - BLUE BOX", "ref": "3460600019"}, "type": "Feature"}
{"geometry": {"coordinates": [-82.5780574, 28.509365], "type": "Point"}, "id": "tU2PxhEoDZ-zvSmOVpkC2BbaniU=", "properties": {"@spider": "usps_collection_boxes", "addr:city": "BROOKSVILLE", "addr:country": "US", "addr:full": "8417 NORTHCLIFFE BLVD", "addr:postcode": "34606", "addr:state": "FL", "brand": "USPS", "collection_times": "Mo-Sa 10:00", "name": "USPS COLLECTION BOX - BLUE BOX", "ref": "3460600020"}, "type": "Feature"}
{"geometry": {"coordinates": [-82.5771915, 28.485271524], "type": "Point"}, "id": "0n4z0lu0wEQuvFwenYzCoYQCLY8=", "properties": {"@spider": "usps_collection_boxes", "addr:city": "BROOKSVILLE", "addr:country": "US", "addr:full": "8501 PHILATELIC DR", "addr:postcode": "34606", "addr:state": "FL", "brand": "USPS", "collection_times": "Mo-Fr 17:00; Sa 16:05", "name": "USPS COLLECTION BOX - PO LOBBY", "note": "ON 12/24 AND 12/31, THIS BOX MAY BE COLLECTED AS EARLY AS 12 NOON.", "ref": "3460600022"}, "type": "Feature"}
{"geometry": {"coordinates": [-82.5771915, 28.485271524], "type": "Point"}, "id": "j7QyE7HKMhG2aL67npFuFoRbuZ0=", "properties": {"@spider": "usps_collection_boxes", "addr:city": "BROOKSVILLE", "addr:country": "US", "addr:full": "8501 PHILATELIC DR", "addr:postcode": "34606", "addr:state": "FL", "brand": "USPS", "collection_times": "Mo-Fr 17:00; Sa 16:05", "name": "USPS COLLECTION BOX - APC", "note": "ON 12/24 AND 12/31, THIS BOX MAY BE COLLECTED AS EARLY AS 12 NOON.", "ref": "3460600023"}, "type": "Feature"}
{"geometry": {"coordinates": [-82.59649656, 28.45097389], "type": "Point"}, "id": "bjPYYMB-oy47luHSevmjZ9iRP4A=", "properties": {"@spider": "usps_collection_boxes", "addr:city": "BROOKSVILLE", "addr:country": "US", "addr:full": "7341 SPRING HILL DR", "addr:postcode": "34606", "addr:state": "FL", "brand": "USPS", "collection_times": "Mo-Fr 16:00", "name": "USPS COLLECTION BOX - PO LOBBY", "note": "ON 12/24 AND 12/31, THIS BOX MAY BE COLLECTED AS EARLY AS 12 NOON.", "ref": "3460600028"}, "type": "Feature"}
{"geometry": {"coordinates": [-82.5771915, 28.485271524], "type": "Point"}, "id": "qkG5uTUVGfE1nTtqRwNBSuberOQ=", "properties": {"@spider": "usps_collection_boxes", "addr:city": "BROOKSVILLE", "addr:country": "US", "addr:full": "8501 PHILATELIC DR", "addr:postcode": "34606", "addr:state": "FL", "brand": "USPS", "collection_times": "Mo-Fr 17:00", "name": "USPS COLLECTION BOX - PO LOBBY", "note": "ON 12/24 AND 12/31, THIS BOX MAY BE COLLECTED AS EARLY AS 12 NOON.", "ref": "3460600029"}, "type": "Feature"}
{"geometry": {"coordinates": [-82.5414024, 28.460167], "type": "Point"}, "id": "II7BGlL2i1-Vky9YSb5wiRcX3II=", "properties": {"@spider": "usps_collection_boxes", "addr:city": "BROOKSVILLE", "addr:country": "US", "addr:full": "11072 SPRING HILL DR", "addr:postcode": "34608", "addr:state": "FL", "brand": "USPS", "collection_times": "Mo-Sa 10:00", "name": "USPS COLLECTION BOX - BLUE BOX", "ref": "3460800001"}, "type": "Feature"}
{"geometry": {"coordinates": [-82.5383362, 28.460774], "type": "Point"}, "id": "ZIIFClSy8FYiP33jWiigoVH7WFc=", "properties": {"@spider": "usps_collection_boxes", "addr:city": "MASARYKTOWN", "addr:country": "US", "addr:full": "11186 SPRING HILL DR", "addr:postcode": "34609", "addr:state": "FL", "brand": "USPS", "collection_times": "Mo-Sa 14:00", "name": "USPS COLLECTION BOX - BLUE BOX", "note": "ON 12/24 AND 12/31, THIS BOX MAY BE COLLECTED AS EARLY AS 12 NOON.", "ref": "3460900002"}, "type": "Feature"}
{"geometry": {"coordinates": [-82.5473947, 28.435454], "type": "Point"}, "id": "SwD47O_bJjQz9AF_J9AydiFZN7k=", "properties": {"@spider": "usps_collection_boxes", "addr:city": "MASARYKTOWN", "addr:country": "US", "addr:full": "160 MARINER BLVD", "addr:postcode": "34609", "addr:state": "FL", "brand": "USPS", "collection_times": "Mo-Sa 11:00", "name": "USPS COLLECTION BOX - BLUE BOX", "ref": "3460900003"}, "type": "Feature"}
{"geometry": {"coordinates": [-82.4577978, 28.441391], "type": "Point"}, "id": "y82rjZTzz2hIHZV-YTUtBGMufQw=", "properties": {"@spider": "usps_collection_boxes", "addr:city": "MASARYKTOWN", "addr:country": "US", "addr:full": "379 BROAD ST", "addr:postcode": "34609", "addr:state": "FL", "brand": "USPS", "collection_times": "Mo-Sa 12:00", "name": "USPS COLLECTION BOX - BLUE BOX", "ref": "3460900004"}, "type": "Feature"}
{"geometry": {"coordinates": [-82.462284, 28.480508], "type": "Point"}, "id": "8qao6pdoYNgsz1Rrp9OMkEWkvcw=", "properties": {"@spider": "usps_collection_boxes", "addr:city": "MASARYKTOWN", "addr:country": "US", "addr:full": "16150 AVIATION LOOP DR", "addr:postcode": "34609", "addr:state": "FL", "brand": "USPS", "collection_times": "Mo-Sa 16:45", "name": "USPS COLLECTION BOX - BLUE BOX", "note": "ON 12/24 AND 12/31, THIS BOX MAY BE COLLECTED AS EARLY AS 12 NOON.", "ref": "3460900007"}, "type": "Feature"}
{"geometry": {"coordinates": [-82.5422547, 28.492815], "type": "Point"}, "id": "iG13Ry2W5k742vdlCPcSoBcJGxY=", "properties": {"@spider": "usps_collection_boxes", "addr:city": "MASARYKTOWN", "addr:country": "US", "addr:full": "4221 MARINER BLVD", "addr:postcode": "34609", "addr:state": "FL", "brand": "USPS", "collection_times": "Mo-Sa 13:00", "name": "USPS COLLECTION BOX - BLUE BOX", "note": "ON 12/24 AND 12/31, THIS BOX MAY BE COLLECTED AS EARLY AS 12 NOON.", "ref": "3460900008"}, "type": "Feature"}
{"geometry": {"coordinates": [-82.5406731, 28.490846], "type": "Point"}, "id": "5nD6SY9t7GhQntKo-F_Mujtc6UE=", "properties": {"@spider": "usps_collection_boxes", "addr:city": "MASARYKTOWN", "addr:country": "US", "addr:full": "4158 MARINER BLVD", "addr:postcode": "34609", "addr:state": "FL", "brand": "USPS", "collection_times": "Mo-Sa 13:00", "name": "USPS COLLECTION BOX - BLUE BOX", "note": "ON 12/24 AND 12/31, THIS BOX MAY BE COLLECTED AS EARLY AS 12 NOON.", "ref": "3460900010"}, "type": "Feature"}
{"geometry": {"coordinates": [-82.462284, 28.480508], "type": "Point"}, "id": "2nCvt5BHOojLAzNth4CxRS0yfzE=", "properties": {"@spider": "usps_collection_boxes", "addr:city": "MASARYKTOWN", "addr:country": "US", "addr:full": "16150 AVIATION LOOP DR", "addr:postcode": "34609", "addr:state": "FL", "brand": "USPS", "collection_times": "Mo-Sa 16:45", "name": "USPS COLLECTION BOX - APC", "note": "ON 12/24 AND 12/31, THIS BOX MAY BE COLLECTED AS EARLY AS 12 NOON.", "ref": "3460900011"}, "type": "Feature"}
{"geometry": {"coordinates": [-82.462693416, 28.480469503], "type": "Point"}, "id": "5SqxHp2_DYSkZKIaf23qDTF7Rd8=", "properties": {"@spider": "usps_collection_boxes", "addr:city": "MASARYKTOWN", "addr:country": "US", "addr:full": "16150 AVIATION LOOP DR", "addr:postcode": "34609", "addr:state": "FL", "brand": "USPS", "collection_times": "Mo-Fr 16:00; Sa 13:00", "name": "USPS COLLECTION BOX - PO LOBBY", "note": "ON 12/24 AND 12/31, THIS BOX MAY BE COLLECTED AS EARLY AS 12 NOON.", "ref": "3460900014"}, "type": "Feature"}
{"geometry": {"coordinates": [-82.5510405, 28.40527], "type": "Point"}, "id": "RV_pyllISQ9nqJNQV--ujUu6fao=", "properties": {"@spider": "usps_collection_boxes", "addr:city": "BROOKSVILLE", "addr:country": "US", "addr:full": "17030 SHADY HILLS RD", "addr:postcode": "34610", "addr:state": "FL", "brand": "USPS", "collection_times": "Mo-Fr 15:00; Sa 12:00", "name": "USPS COLLECTION BOX - BLUE BOX", "note": "ON 12/24 AND 12/31, THIS BOX MAY BE COLLECTED AS EARLY AS 12 NOON.", "ref": "3461000001"}, "type": "Feature"}
{"geometry": {"coordinates": [-82.5277958, 28.534628], "type": "Point"}, "id": "AC-G25vfgZrycew6vUv5-iv60co=", "properties": {"@spider": "usps_collection_boxes", "addr:city": "WEEKI WACHEE", "addr:country": "US", "addr:full": "7254 HIGHPOINT BLVD", "addr:postcode": "34613", "addr:state": "FL", "brand": "USPS", "collection_times": "Mo-Sa 12:00", "name": "USPS COLLECTION BOX - BLUE BOX", "ref": "3461300003"}, "type": "Feature"}
{"geometry": {"coordinates": [-82.556524807, 28.525108455], "type": "Point"}, "id": "pnTUvk7OWYoF5YOrCj8vXFZdiPk=", "properties": {"@spider": "usps_collection_boxes", "addr:city": "WEEKI WACHEE", "addr:country": "US", "addr:full": "19101 CORTEZ BLVD", "addr:postcode": "34613", "addr:state": "FL", "brand": "USPS", "collection_times": "Mo-Sa 17:00", "name": "USPS COLLECTION BOX - BLUE BOX", "note": "ON 12/24 AND 12/31, THIS BOX MAY BE COLLECTED AS EARLY AS 12 NOON.", "ref": "3461300004"}, "type": "Feature"}
{"geometry": {"coordinates": [-82.5055164, 28.531705], "type": "Point"}, "id": "WRQfRqbZEJzJbl6tnm5y-G90uq4=", "properties": {"@spider": "usps_collection_boxes", "addr:city": "WEEKI WACHEE", "addr:country": "US", "addr:full": "13300 CORTEZ BLVD", "addr:postcode": "34613", "addr:state": "FL", "brand": "USPS", "collection_times": "Mo-Sa 12:30", "name": "USPS COLLECTION BOX - BLUE BOX", "note": "ON 12/24 AND 12/31, THIS BOX MAY BE COLLECTED AS EARLY AS 12 NOON.", "ref": "3461300011"}, "type": "Feature"}
{"geometry": {"coordinates": [-82.523160807, 28.53339647], "type": "Point"}, "id": "NL4ok-LG0FUvEaYwPsonISshLco=", "properties": {"@spider": "usps_collection_boxes", "addr:city": "WEEKI WACHEE", "addr:country": "US", "addr:full": "12190 CORTEZ BLVD", "addr:postcode": "34613", "addr:state": "FL", "brand": "USPS", "collection_times": "Mo-Sa 12:00", "name": "USPS COLLECTION BOX - BLUE BOX", "ref": "3461300013"}, "type": "Feature"}
{"geometry": {"coordinates": [-82.5684672, 28.520407], "type": "Point"}, "id": "LeXprNX5T9mqqWU0dttUwChYvFk=", "properties": {"@spider": "usps_collection_boxes", "addr:city": "WEEKI WACHEE", "addr:country": "US", "addr:full": "6254 COMMERCIAL WAY", "addr:postcode": "34613", "addr:state": "FL", "brand": "USPS", "collection_times": "Mo-Sa 11:00", "name": "USPS COLLECTION BOX - BLUE BOX", "ref": "3461300014"}, "type": "Feature"}
{"geometry": {"coordinates": [-82.4912109, 28.536013], "type": "Point"}, "id": "zof-XLw29-v-WjXpLfoJKt-QlVI=", "properties": {"@spider": "usps_collection_boxes", "addr:city": "WEEKI WACHEE", "addr:country": "US", "addr:full": "7300 BROOKRIDGE CENTRAL BLVD", "addr:postcode": "34613", "addr:state": "FL", "brand": "USPS", "collection_times": "Mo-Sa 12:30", "name": "USPS COLLECTION BOX - BLUE BOX", "note": "ON 12/24 AND 12/31, THIS BOX MAY BE COLLECTED AS EARLY AS 12 NOON.", "ref": "3461300016"}, "type": "Feature"}
{"geometry": {"coordinates": [-82.5543433, 28.558861], "type": "Point"}, "id": "Gs-HUlCEJsTwD_M2qFRryUv2KtY=", "properties": {"@spider": "usps_collection_boxes", "addr:city": "WEEKI WACHEE", "addr:country": "US", "addr:full": "10246 WOODLAND WATERS BLVD", "addr:postcode": "34613", "addr:state": "FL", "brand": "USPS", "collection_times": "Mo-Sa 11:30", "name": "USPS COLLECTION BOX - BLUE BOX", "ref": "3461300017"}, "type": "Feature"}
{"geometry": {"coordinates": [-82.27723, 28.659243], "type": "Point"}, "id": "1oH5WzbO3Fvo4fxeaFsUPr9SHHY=", "properties": {"@spider": "usps_collection_boxes", "addr:city": "ISTACHATTA", "addr:country": "US", "addr:full": "28199 MAGNON DR", "addr:postcode": "34636", "addr:state": "FL", "brand": "USPS", "collection_times": "Mo-Fr 16:00; Sa 10:30", "name": "USPS COLLECTION BOX - BLUE BOX", "note": "ON 12/24 AND 12/31, THIS BOX MAY BE COLLECTED AS EARLY AS 12 NOON.", "ref": "3463600001"}, "type": "Feature"}
{"geometry": {"coordinates": [-82.277469735, 28.6592242951], "type": "Point"}, "id": "9_4_RdW7igkZqIHsKMVNWK9SBGc=", "properties": {"@spider": "usps_collection_boxes", "addr:city": "ISTACHATTA", "addr:country": "US", "addr:full": "28199 MAGNON DR", "addr:postcode": "34636", "addr:state": "FL", "brand": "USPS", "collection_times": "Mo-Fr 16:00", "name": "USPS COLLECTION BOX - PO LOBBY", "note": "ON 12/24 AND 12/31, THIS BOX MAY BE COLLECTED AS EARLY AS 12 NOON.", "ref": "3463600004"}, "type": "Feature"}
{"geometry": {"coordinates": [-82.4600539, 28.190668], "type": "Point"}, "id": "COUMFWTpGkkQcu9h4tCE9rheAGc=", "properties": {"@spider": "usps_collection_boxes", "addr:city": "LAND O LAKES", "addr:country": "US", "addr:full": "21529 VILLAGE LAKES SHOPPING CTR DR", "addr:postcode": "34639", "addr:state": "FL", "brand": "USPS", "collection_times": "Mo-Sa 11:15", "name": "USPS COLLECTION BOX - BLUE BOX", "ref": "3463900001"}, "type": "Feature"}
{"geometry": {"coordinates": [-82.458882, 28.233784], "type": "Point"}, "id": "AeD_JwfJXpT45OTnOVJu9usM9bs=", "properties": {"@spider": "usps_collection_boxes", "addr:city": "LAND O LAKES", "addr:country": "US", "addr:full": "5230 LAND O LAKES BLVD", "addr:postcode": "34639", "addr:state": "FL", "brand": "USPS", "collection_times": "Mo-Sa 17:00", "name": "USPS COLLECTION BOX - BLUE BOX", "note": "ON 12/24 AND 12/31, THIS BOX MAY BE COLLECTED AS EARLY AS 12 NOON.", "ref": "3463900005"}, "type": "Feature"}
{"geometry": {"coordinates": [-82.458895, 28.233693], "type": "Point"}, "id": "wniB0uUzFDJid8nPuBDKv71P684=", "properties": {"@spider": "usps_collection_boxes", "addr:city": "LAND O LAKES", "addr:country": "US", "addr:full": "5230 LAND O LAKES BLVD", "addr:postcode": "34639", "addr:state": "FL", "brand": "USPS", "collection_times": "Mo-Sa 17:00", "name": "USPS COLLECTION BOX - APC", "note": "ON 12/24 AND 12/31, THIS BOX MAY BE COLLECTED AS EARLY AS 12 NOON.", "ref": "3463900010"}, "type": "Feature"}
{"geometry": {"coordinates": [-82.458910638, 28.233888516], "type": "Point"}, "id": "1uwdi3HnD4kU2WRhIYjsCVjJrcs=", "properties": {"@spider": "usps_collection_boxes", "addr:city": "LAND O LAKES", "addr:country": "US", "addr:full": "5230 LAND O LAKES BLVD", "addr:postcode": "34639", "addr:state": "FL", "brand": "USPS", "collection_times": "Mo-Fr 17:00", "name": "USPS COLLECTION BOX - PO LOBBY", "note": "ON 12/24 AND 12/31, THIS BOX MAY BE COLLECTED AS EARLY AS 12 NOON.", "ref": "3463900011"}, "type": "Feature"}
{"geometry": {"coordinates": [-82.7055695, 28.249243], "type": "Point"}, "id": "JtXH78eOPkRcLQwqxjYiO-1G0Xg=", "properties": {"@spider": "usps_collection_boxes", "addr:city": "NEW PORT RICHEY", "addr:country": "US", "addr:full": "6550 MAIN ST", "addr:postcode": "34653", "addr:state": "FL", "brand": "USPS", "collection_times": "Mo-Fr 17:00; Sa 16:00", "name": "USPS COLLECTION BOX - APC", "note": "ON 12/24 AND 12/31, THIS BOX MAY BE COLLECTED AS EARLY AS 12 NOON.", "ref": "3465300037"}, "type": "Feature"}
{"geometry": {"coordinates": [-82.7057513608, 28.2497365056], "type": "Point"}, "id": "sXY26W_aET4lZMrjYsmpVkkFVW0=", "properties": {"@spider": "usps_collection_boxes", "addr:city": "NEW PORT RICHEY", "addr:country": "US", "addr:full": "6550 MAIN ST", "addr:postcode": "34653", "addr:state": "FL", "brand": "USPS", "collection_times": "Mo-Fr 17:00; Sa 16:00", "name": "USPS COLLECTION BOX - BLUE BOX", "note": "ON 12/24 AND 12/31, THIS BOX MAY BE COLLECTED AS EARLY AS 12 NOON.", "ref": "3465300039"}, "type": "Feature"}
{"geometry": {"coordinates": [-82.705751361, 28.249736506], "type": "Point"}, "id": "-p0YQEPq0UvuWZeBm0EYadyaZI8=", "properties": {"@spider": "usps_collection_boxes", "addr:city": "NEW PORT RICHEY", "addr:country": "US", "addr:full": "6550 MAIN ST", "addr:postcode": "34653", "addr:state": "FL", "brand": "USPS", "collection_times": "Mo-Fr 16:30; Sa 12:00", "name": "USPS COLLECTION BOX - PO LOBBY", "note": "ON 12/24 AND 12/31, THIS BOX MAY BE COLLECTED AS EARLY AS 12 NOON.", "ref": "3465300042"}, "type": "Feature"}
{"geometry": {"coordinates": [-82.675688, 28.268152], "type": "Point"}, "id": "CQlAh0Vt7M1wV0WK9TUPd6vopQg=", "properties": {"@spider": "usps_collection_boxes", "addr:city": "NEW PORT RICHEY", "addr:country": "US", "addr:full": "7619 LITTLE RD", "addr:postcode": "34654", "addr:state": "FL", "brand": "USPS", "collection_times": "Mo-Sa 11:30", "name": "USPS COLLECTION BOX - BLUE BOX", "ref": "3465400009"}, "type": "Feature"}
{"geometry": {"coordinates": [-82.6650799, 28.219756], "type": "Point"}, "id": "Di_DOjiBpjtkgHwkzQUqQFS302M=", "properties": {"@spider": "usps_collection_boxes", "addr:city": "NEW PORT RICHEY", "addr:country": "US", "addr:full": "4134 LITTLE RD", "addr:postcode": "34655", "addr:state": "FL", "brand": "USPS", "collection_times": "Mo-Fr 15:00; Sa 14:00", "name": "USPS COLLECTION BOX - BLUE BOX", "note": "ON 12/24 AND 12/31, THIS BOX MAY BE COLLECTED AS EARLY AS 12 NOON.", "ref": "3465500007"}, "type": "Feature"}
{"geometry": {"coordinates": [-82.665979, 28.21756], "type": "Point"}, "id": "-dLUAzHcHfG2stcVGeWfmC8iMMk=", "properties": {"@spider": "usps_collection_boxes", "addr:city": "NEW PORT RICHEY", "addr:country": "US", "addr:full": "4022 LITTLE RD", "addr:postcode": "34655", "addr:state": "FL", "brand": "USPS", "collection_times": "Mo-Fr 17:00; Sa 16:00", "name": "USPS COLLECTION BOX - BLUE BOX", "note": "ON 12/24 AND 12/31, THIS BOX MAY BE COLLECTED AS EARLY AS 12 NOON.", "ref": "3465500011"}, "type": "Feature"}
{"geometry": {"coordinates": [-82.776159384, 28.069182], "type": "Point"}, "id": "jonHTeyhP4irfCe3jPV2GCxtF8U=", "properties": {"@spider": "usps_collection_boxes", "addr:city": "OZONA", "addr:country": "US", "addr:full": "310 ORANGE ST", "addr:postcode": "34660", "addr:state": "FL", "brand": "USPS", "collection_times": "Mo-Fr 16:00", "name": "USPS COLLECTION BOX - PO LOBBY", "note": "ON 12/24 AND 12/31, THIS BOX MAY BE COLLECTED AS EARLY AS 12 NOON.", "ref": "3466000004"}, "type": "Feature"}
{"geometry": {"coordinates": [-82.262008132, 28.645484362], "type": "Point"}, "id": "tNyxxgPSiFJAFCG-Kpw7cOytUjc=", "properties": {"@spider": "usps_collection_boxes", "addr:city": "NOBLETON", "addr:country": "US", "addr:full": "29095 FORBES ST", "addr:postcode": "34661", "addr:state": "FL", "brand": "USPS", "collection_times": "Mo-Fr 11:30", "name": "USPS COLLECTION BOX - PO LOBBY", "ref": "3466100004"}, "type": "Feature"}
{"geometry": {"coordinates": [-82.6979417, 28.3316], "type": "Point"}, "id": "NPPjKSyUHupJVjnCpf522xS5HsA=", "properties": {"@spider": "usps_collection_boxes", "addr:city": "PORT RICHEY", "addr:country": "US", "addr:full": "7031 STATE ROAD 52", "addr:postcode": "34667", "addr:state": "FL", "brand": "USPS", "collection_times": "Mo-Sa 14:00", "name": "USPS COLLECTION BOX - BLUE BOX", "note": "ON 12/24 AND 12/31, THIS BOX MAY BE COLLECTED AS EARLY AS 12 NOON.", "ref": "3466700003"}, "type": "Feature"}
{"geometry": {"coordinates": [-82.6972030792, 28.3553966586], "type": "Point"}, "id": "FMYq87s9bgw2ydMM0hID5kkOcTk=", "properties": {"@spider": "usps_collection_boxes", "addr:city": "PORT RICHEY", "addr:country": "US", "addr:full": "13610 BIG BEND DR", "addr:postcode": "34667", "addr:state": "FL", "brand": "USPS", "collection_times": "Mo-Fr 17:00; Sa 16:30", "name": "USPS COLLECTION BOX - PO LOBBY", "note": "ON 12/24 AND 12/31, THIS BOX MAY BE COLLECTED AS EARLY AS 12 NOON.", "ref": "3466700006"}, "type": "Feature"}
{"geometry": {"coordinates": [-82.6828966, 28.336918], "type": "Point"}, "id": "shLdoKWzhsYQzNjz79PNKOnNvxA=", "properties": {"@spider": "usps_collection_boxes", "addr:city": "PORT RICHEY", "addr:country": "US", "addr:full": "12417 CLOCK TOWER PKWY", "addr:postcode": "34667", "addr:state": "FL", "brand": "USPS", "collection_times": "Mo-Sa 14:00", "name": "USPS COLLECTION BOX - BLUE BOX", "note": "ON 12/24 AND 12/31, THIS BOX MAY BE COLLECTED AS EARLY AS 12 NOON.", "ref": "3466700008"}, "type": "Feature"}
{"geometry": {"coordinates": [-82.6681039, 28.329741], "type": "Point"}, "id": "_vKhx6I9J-lGVTbxh36jLQVGArM=", "properties": {"@spider": "usps_collection_boxes", "addr:city": "PORT RICHEY", "addr:country": "US", "addr:full": "8912 STATE ROAD 52", "addr:postcode": "34667", "addr:state": "FL", "brand": "USPS", "collection_times": "Mo-Sa 11:30", "name": "USPS COLLECTION BOX - BLUE BOX", "ref": "3466700015"}, "type": "Feature"}
{"geometry": {"coordinates": [-82.6649504, 28.357833], "type": "Point"}, "id": "hCF6zxM8nw0p_pwL6mzGy0d9e3c=", "properties": {"@spider": "usps_collection_boxes", "addr:city": "PORT RICHEY", "addr:country": "US", "addr:full": "13806 LITTLE RD", "addr:postcode": "34667", "addr:state": "FL", "brand": "USPS", "collection_times": "Mo-Sa 11:30", "name": "USPS COLLECTION BOX - BLUE BOX", "ref": "3466700016"}, "type": "Feature"}
{"geometry": {"coordinates": [-82.6478924, 28.330934], "type": "Point"}, "id": "OltyCibI6yGgfLjVnHkOzNCQa9I=", "properties": {"@spider": "usps_collection_boxes", "addr:city": "PORT RICHEY", "addr:country": "US", "addr:full": "10114 STATE ROAD 52", "addr:postcode": "34667", "addr:state": "FL", "brand": "USPS", "collection_times": "Mo-Sa 10:30", "name": "USPS COLLECTION BOX - BLUE BOX", "ref": "3466700025"}, "type": "Feature"}
{"geometry": {"coordinates": [-82.6972030792, 28.3553966586], "type": "Point"}, "id": "VKYUg5wqqQgCpQjBMnRPW3jJefc=", "properties": {"@spider": "usps_collection_boxes", "addr:city": "PORT RICHEY", "addr:country": "US", "addr:full": "13610 BIG BEND DR", "addr:postcode": "34667", "addr:state": "FL", "brand": "USPS", "collection_times": "Mo-Fr 17:00; Sa 16:30", "name": "USPS COLLECTION BOX - PO LOBBY", "note": "ON 12/24 AND 12/31, THIS BOX MAY BE COLLECTED AS EARLY AS 12 NOON.", "ref": "3466700026"}, "type": "Feature"}
{"geometry": {"coordinates": [-82.6972030792, 28.3553966586], "type": "Point"}, "id": "xMUB7wRsXI1h6JAQZhFKnqccKx0=", "properties": {"@spider": "usps_collection_boxes", "addr:city": "PORT RICHEY", "addr:country": "US", "addr:full": "13610 BIG BEND DR", "addr:postcode": "34667", "addr:state": "FL", "brand": "USPS", "collection_times": "Mo-Fr 17:00; Sa 16:30", "name": "USPS COLLECTION BOX - BLUE BOX", "note": "ON 12/24 AND 12/31, THIS BOX MAY BE COLLECTED AS EARLY AS 12 NOON.", "ref": "3466700027"}, "type": "Feature"}
{"geometry": {"coordinates": [-82.697203079, 28.355396659], "type": "Point"}, "id": "0nDDFP57j0g0jB0PE2nHRkyzlyk=", "properties": {"@spider": "usps_collection_boxes", "addr:city": "PORT RICHEY", "addr:country": "US", "addr:full": "13610 BIG BEND DR", "addr:postcode": "34667", "addr:state": "FL", "brand": "USPS", "collection_times": "Mo-Fr 17:00", "name": "USPS COLLECTION BOX - PO LOBBY", "note": "ON 12/24 AND 12/31, THIS BOX MAY BE COLLECTED AS EARLY AS 12 NOON.", "ref": "3466700032"}, "type": "Feature"}
{"geometry": {"coordinates": [-82.6986167, 28.316604], "type": "Point"}, "id": "htLab6QEr4HYX88MqDnZzPPgSSo=", "properties": {"@spider": "usps_collection_boxes", "addr:city": "PORT RICHEY", "addr:country": "US", "addr:full": "10934 US HIGHWAY 19", "addr:postcode": "34668", "addr:state": "FL", "brand": "USPS", "collection_times": "Mo-Sa 15:00", "name": "USPS COLLECTION BOX - BLUE BOX", "note": "ON 12/24 AND 12/31, THIS BOX MAY BE COLLECTED AS EARLY AS 12 NOON.", "ref": "3466800014"}, "type": "Feature"}
{"geometry": {"coordinates": [-82.7035374, 28.310243], "type": "Point"}, "id": "yiCnUTdAJIFVWzWGFB8XhacizRA=", "properties": {"@spider": "usps_collection_boxes", "addr:city": "PORT RICHEY", "addr:country": "US", "addr:full": "10521 SCENIC DR", "addr:postcode": "34668", "addr:state": "FL", "brand": "USPS", "collection_times": "Mo-Sa 14:00", "name": "USPS COLLECTION BOX - BLUE BOX", "note": "ON 12/24 AND 12/31, THIS BOX MAY BE COLLECTED AS EARLY AS 12 NOON.", "ref": "3466800019"}, "type": "Feature"}
{"geometry": {"coordinates": [-82.7199855, 28.274773], "type": "Point"}, "id": "WYGIuCpmJWVl0SxoR_Ey2x6ewiQ=", "properties": {"@spider": "usps_collection_boxes", "addr:city": "PORT RICHEY", "addr:country": "US", "addr:full": "8101 WASHINGTON ST", "addr:postcode": "34668", "addr:state": "FL", "brand": "USPS", "collection_times": "Mo-Fr 17:00; Sa 16:30", "name": "USPS COLLECTION BOX - BLUE BOX", "note": "ON 12/24 AND 12/31, THIS BOX MAY BE COLLECTED AS EARLY AS 12 NOON.", "ref": "3466800020"}, "type": "Feature"}
{"geometry": {"coordinates": [-82.7058099, 28.29239], "type": "Point"}, "id": "BGep31TW-uIr5GJm6z6AuXrHEso=", "properties": {"@spider": "usps_collection_boxes", "addr:city": "PORT RICHEY", "addr:country": "US", "addr:full": "9302 BINNACLE DR", "addr:postcode": "34668", "addr:state": "FL", "brand": "USPS", "collection_times": "Mo-Sa 15:00", "name": "USPS COLLECTION BOX - BLUE BOX", "note": "ON 12/24 AND 12/31, THIS BOX MAY BE COLLECTED AS EARLY AS 12 NOON.", "ref": "3466800026"}, "type": "Feature"}
{"geometry": {"coordinates": [-82.6985428, 28.282313], "type": "Point"}, "id": "DUSMqsmlBSViPqDqVanLtr2PSH8=", "properties": {"@spider": "usps_collection_boxes", "addr:city": "PORT RICHEY", "addr:country": "US", "addr:full": "7037 RIDGE RD", "addr:postcode": "34668", "addr:state": "FL", "brand": "USPS", "collection_times": "Mo-Sa 14:00", "name": "USPS COLLECTION BOX - BLUE BOX", "note": "ON 12/24 AND 12/31, THIS BOX MAY BE COLLECTED AS EARLY AS 12 NOON.", "ref": "3466800033"}, "type": "Feature"}
{"geometry": {"coordinates": [-82.7070446542, 28.29725659], "type": "Point"}, "id": "4nI9M4_4o5gpqtC6pbTga0O8lRQ=", "properties": {"@spider": "usps_collection_boxes", "addr:city": "PORT RICHEY", "addr:country": "US", "addr:full": "9602 US HIGHWAY 19", "addr:postcode": "34668", "addr:state": "FL", "brand": "USPS", "collection_times": "Mo-Fr 16:30; Sa 12:30", "name": "USPS COLLECTION BOX - PO LOBBY", "note": "ON 12/24 AND 12/31, THIS BOX MAY BE COLLECTED AS EARLY AS 12 NOON.", "ref": "3466800035"}, "type": "Feature"}
{"geometry": {"coordinates": [-82.7070446542, 28.29725659], "type": "Point"}, "id": "HkROfSF4XPsgJK9r6EosJCXPiuc=", "properties": {"@spider": "usps_collection_boxes", "addr:city": "PORT RICHEY", "addr:country": "US", "addr:full": "9602 US HIGHWAY 19", "addr:postcode": "34668", "addr:state": "FL", "brand": "USPS", "collection_times": "Mo-Fr 16:30; Sa 12:30", "name": "USPS COLLECTION BOX - PO LOBBY", "note": "ON 12/24 AND 12/31, THIS BOX MAY BE COLLECTED AS EARLY AS 12 NOON.", "ref": "3466800039"}, "type": "Feature"}
{"geometry": {"coordinates": [-82.7070446542, 28.29725659], "type": "Point"}, "id": "n_08yYVZo5xCI4FX6pEmk97fK3A=", "properties": {"@spider": "usps_collection_boxes", "addr:city": "PORT RICHEY", "addr:country": "US", "addr:full": "9602 US HIGHWAY 19", "addr:postcode": "34668", "addr:state": "FL", "brand": "USPS", "collection_times": "Mo-Fr 16:30; Sa 12:30", "name": "USPS COLLECTION BOX - PO LOBBY", "note": "ON 12/24 AND 12/31, THIS BOX MAY BE COLLECTED AS EARLY AS 12 NOON.", "ref": "3466800040"}, "type": "Feature"}
{"geometry": {"coordinates": [-82.7070446542, 28.29725659], "type": "Point"}, "id": "zxnGl1XpZYe66wKdx4Fw5roTw3U=", "properties": {"@spider": "usps_collection_boxes", "addr:city": "PORT RICHEY", "addr:country": "US", "addr:full": "9602 US HIGHWAY 19", "addr:postcode": "34668", "addr:state": "FL", "brand": "USPS", "collection_times": "Mo-Fr 17:00; Sa 12:30", "name": "USPS COLLECTION BOX - BLUE BOX", "note": "ON 12/24 AND 12/31, THIS BOX MAY BE COLLECTED AS EARLY AS 12 NOON.", "ref": "3466800041"}, "type": "Feature"}
{"geometry": {"coordinates": [-82.7344494, 28.27801], "type": "Point"}, "id": "haHL_I-Ca7K9a4x-Pefl-vYfdCE=", "properties": {"@spider": "usps_collection_boxes", "addr:city": "PORT RICHEY", "addr:country": "US", "addr:full": "4740 BAY BLVD", "addr:postcode": "34668", "addr:state": "FL", "brand": "USPS", "collection_times": "Mo-Sa 14:00", "name": "USPS COLLECTION BOX - BLUE BOX", "note": "ON 12/24 AND 12/31, THIS BOX MAY BE COLLECTED AS EARLY AS 12 NOON.", "ref": "3466800042"}, "type": "Feature"}
{"geometry": {"coordinates": [-82.707044654, 28.29725659], "type": "Point"}, "id": "_WTILr7foW4cC6Qtrwbpjpk-8MU=", "properties": {"@spider": "usps_collection_boxes", "addr:city": "PORT RICHEY", "addr:country": "US", "addr:full": "9602 US HIGHWAY 19", "addr:postcode": "34668", "addr:state": "FL", "brand": "USPS", "collection_times": "Mo-Fr 16:30", "name": "USPS COLLECTION BOX - PO LOBBY", "note": "ON 12/24 AND 12/31, THIS BOX MAY BE COLLECTED AS EARLY AS 12 NOON.", "ref": "3466800048"}, "type": "Feature"}
{"geometry": {"coordinates": [-82.668058, 28.040393], "type": "Point"}, "id": "DFYMmSQpDvVwhshnbkeUMdIoLQQ=", "properties": {"@spider": "usps_collection_boxes", "addr:city": "OLDSMAR", "addr:country": "US", "addr:full": "3905 TAMPA RD", "addr:postcode": "34677", "addr:state": "FL", "brand": "USPS", "collection_times": "Mo-Fr 17:00; Sa 14:30", "name": "USPS COLLECTION BOX - BLUE BOX", "note": "ON 12/24 AND 12/31, THIS BOX MAY BE COLLECTED AS EARLY AS 12 NOON.", "ref": "3467700002"}, "type": "Feature"}
{"geometry": {"coordinates": [-82.6985036, 28.050138], "type": "Point"}, "id": "Hs_OP24lgbkwKdq3lw7yH6cc6e8=", "properties": {"@spider": "usps_collection_boxes", "addr:city": "OLDSMAR", "addr:country": "US", "addr:full": "3146 TAMPA RD", "addr:postcode": "34677", "addr:state": "FL", "brand": "USPS", "collection_times": "Mo-Sa 11:00", "name": "USPS COLLECTION BOX - BLUE BOX", "ref": "3467700003"}, "type": "Feature"}
{"geometry": {"coordinates": [-82.6542733, 28.036148], "type": "Point"}, "id": "wND36QwFCDvFsXksm0fM_2Wqz8A=", "properties": {"@spider": "usps_collection_boxes", "addr:city": "OLDSMAR", "addr:country": "US", "addr:full": "4025 TAMPA RD", "addr:postcode": "34677", "addr:state": "FL", "brand": "USPS", "collection_times": "Mo-Sa 12:00", "name": "USPS COLLECTION BOX - BLUE BOX", "ref": "3467700006"}, "type": "Feature"}
{"geometry": {"coordinates": [-82.6632013, 28.037389], "type": "Point"}, "id": "W3lNOgJVhyppiLKo0Vgi6wpxk00=", "properties": {"@spider": "usps_collection_boxes", "addr:city": "OLDSMAR", "addr:country": "US", "addr:full": "100 STATE ST W", "addr:postcode": "34677", "addr:state": "FL", "brand": "USPS", "collection_times": "Mo-Sa 11:00", "name": "USPS COLLECTION BOX - BLUE BOX", "ref": "3467700009"}, "type": "Feature"}
{"geometry": {"coordinates": [-82.6807596, 28.045473], "type": "Point"}, "id": "_EjzZpvE_O74P5mR3gEIwoABuV8=", "properties": {"@spider": "usps_collection_boxes", "addr:city": "OLDSMAR", "addr:country": "US", "addr:full": "3687 TAMPA RD", "addr:postcode": "34677", "addr:state": "FL", "brand": "USPS", "collection_times": "Mo-Sa 11:30", "name": "USPS COLLECTION BOX - BLUE BOX", "ref": "3467700011"}, "type": "Feature"}
{"geometry": {"coordinates": [-82.6549461, 28.037533], "type": "Point"}, "id": "dBfkgrIR9GAc_5opgMGDqm5h4ak=", "properties": {"@spider": "usps_collection_boxes", "addr:city": "OLDSMAR", "addr:country": "US", "addr:full": "4023 TAMPA RD", "addr:postcode": "34677", "addr:state": "FL", "brand": "USPS", "collection_times": "Mo-Sa 12:00", "name": "USPS COLLECTION BOX - BLUE BOX", "ref": "3467700016"}, "type": "Feature"}
{"geometry": {"coordinates": [-82.668058, 28.040393], "type": "Point"}, "id": "DUZRfv6_FAS-eJUwYYyTQSVVIus=", "properties": {"@spider": "usps_collection_boxes", "addr:city": "OLDSMAR", "addr:country": "US", "addr:full": "3905 TAMPA RD", "addr:postcode": "34677", "addr:state": "FL", "brand": "USPS", "collection_times": "Mo-Fr 17:00; Sa 14:30", "name": "USPS COLLECTION BOX - APC", "note": "ON 12/24 AND 12/31, THIS BOX MAY BE COLLECTED AS EARLY AS 12 NOON.", "ref": "3467700017"}, "type": "Feature"}
{"geometry": {"coordinates": [-82.668094278, 28.040418499], "type": "Point"}, "id": "-ryNKQmdxHNcUlTJRpD3UHOntLk=", "properties": {"@spider": "usps_collection_boxes", "addr:city": "OLDSMAR", "addr:country": "US", "addr:full": "3905 TAMPA RD", "addr:postcode": "34677", "addr:state": "FL", "brand": "USPS", "collection_times": "Mo-Fr 17:00; Sa 13:00", "name": "USPS COLLECTION BOX - PO LOBBY", "note": "ON 12/24 AND 12/31, THIS BOX MAY BE COLLECTED AS EARLY AS 12 NOON.", "ref": "3467700020"}, "type": "Feature"}
{"geometry": {"coordinates": [-82.6654099685, 28.4323509915], "type": "Point"}, "id": "RP92vEiN5ylzJFd-ssLyuvBQzdc=", "properties": {"@spider": "usps_collection_boxes", "addr:city": "ARIPEKA", "addr:country": "US", "addr:full": "18925 ARIPEKA RD", "addr:postcode": "34679", "addr:state": "FL", "brand": "USPS", "collection_times": "Mo-Fr 15:30; Sa 09:15", "name": "USPS COLLECTION BOX - BLUE BOX", "note": "ON 12/24 AND 12/31, THIS BOX MAY BE COLLECTED AS EARLY AS 12 NOON.", "ref": "3467900001"}, "type": "Feature"}
{"geometry": {"coordinates": [-82.665580103, 28.432492514], "type": "Point"}, "id": "EzuYX0oOx2TCXZx3cg8Ci9Avohg=", "properties": {"@spider": "usps_collection_boxes", "addr:city": "ARIPEKA", "addr:country": "US", "addr:full": "18925 ARIPEKA RD", "addr:postcode": "34679", "addr:state": "FL", "brand": "USPS", "collection_times": "Mo-Fr 16:00", "name": "USPS COLLECTION BOX - PO LOBBY", "note": "ON 12/24 AND 12/31, THIS BOX MAY BE COLLECTED AS EARLY AS 12 NOON.", "ref": "3467900003"}, "type": "Feature"}
{"geometry": {"coordinates": [-82.714911, 28.21906], "type": "Point"}, "id": "cwB2LEgHciRHu88x419wiPBdoYs=", "properties": {"@spider": "usps_collection_boxes", "addr:city": "ELFERS", "addr:country": "US", "addr:full": "4122 MADISON ST", "addr:postcode": "34680", "addr:state": "FL", "brand": "USPS", "collection_times": "Mo-Fr 16:25; Sa 12:00", "name": "USPS COLLECTION BOX - BLUE BOX", "note": "ON 12/24 AND 12/31, THIS BOX MAY BE COLLECTED AS EARLY AS 12 NOON.", "ref": "3468000003"}, "type": "Feature"}
{"geometry": {"coordinates": [-82.714911, 28.21906], "type": "Point"}, "id": "CpW6JQ0jbgUNXz74Fvcc34hN4-k=", "properties": {"@spider": "usps_collection_boxes", "addr:city": "ELFERS", "addr:country": "US", "addr:full": "4122 MADISON ST", "addr:postcode": "34680", "addr:state": "FL", "brand": "USPS", "collection_times": "Mo-Fr 16:45; Sa 12:00", "name": "USPS COLLECTION BOX - APC", "note": "ON 12/24 AND 12/31, THIS BOX MAY BE COLLECTED AS EARLY AS 12 NOON.", "ref": "3468000006"}, "type": "Feature"}
{"geometry": {"coordinates": [-82.715312811, 28.219059], "type": "Point"}, "id": "WCc3yLzq4aUhzyEzRnIdxQtGxCA=", "properties": {"@spider": "usps_collection_boxes", "addr:city": "ELFERS", "addr:country": "US", "addr:full": "4122 MADISON ST", "addr:postcode": "34680", "addr:state": "FL", "brand": "USPS", "collection_times": "Mo-Fr 16:30; Sa 12:00", "name": "USPS COLLECTION BOX - PO LOBBY", "note": "ON 12/24 AND 12/31, THIS BOX MAY BE COLLECTED AS EARLY AS 12 NOON.", "ref": "3468000007"}, "type": "Feature"}
{"geometry": {"coordinates": [-82.777826, 28.091234], "type": "Point"}, "id": "WVgVDPBfXn8QR7wBIldWx0xWTSc=", "properties": {"@spider": "usps_collection_boxes", "addr:city": "CRYSTAL BEACH", "addr:country": "US", "addr:full": "420 CRYSTAL BEACH AVE", "addr:postcode": "34681", "addr:state": "FL", "brand": "USPS", "collection_times": "Mo-Fr 16:00; Sa 11:00", "name": "USPS COLLECTION BOX - BLUE BOX", "note": "ON 12/24 AND 12/31, THIS BOX MAY BE COLLECTED AS EARLY AS 12 NOON.", "ref": "3468100001"}, "type": "Feature"}
{"geometry": {"coordinates": [-82.777820878, 28.091229442], "type": "Point"}, "id": "vdIQHsgsPal8mZDDHAT6U0bv3os=", "properties": {"@spider": "usps_collection_boxes", "addr:city": "CRYSTAL BEACH", "addr:country": "US", "addr:full": "420 CRYSTAL BEACH AVE", "addr:postcode": "34681", "addr:state": "FL", "brand": "USPS", "collection_times": "Mo-Fr 16:00", "name": "USPS COLLECTION BOX - PO LOBBY", "note": "ON 12/24 AND 12/31, THIS BOX MAY BE COLLECTED AS EARLY AS 12 NOON.", "ref": "3468100004"}, "type": "Feature"}
{"geometry": {"coordinates": [-82.767743, 28.071658], "type": "Point"}, "id": "Frj2oKvmvOVde5QBmNy_fUZ_3lU=", "properties": {"@spider": "usps_collection_boxes", "addr:city": "PALM HARBOR", "addr:country": "US", "addr:full": "495 ALT 19", "addr:postcode": "34683", "addr:state": "FL", "brand": "USPS", "collection_times": "Mo-Fr 17:00; Sa 15:00", "name": "USPS COLLECTION BOX - BLUE BOX", "note": "ON 12/24 AND 12/31, THIS BOX MAY BE COLLECTED AS EARLY AS 12 NOON.", "ref": "3468300001"}, "type": "Feature"}
{"geometry": {"coordinates": [-82.7714204, 28.093044], "type": "Point"}, "id": "qwDx530a4Yk8v_dijCcd_KaSWvI=", "properties": {"@spider": "usps_collection_boxes", "addr:city": "PALM HARBOR", "addr:country": "US", "addr:full": "2710 ALT 19", "addr:postcode": "34683", "addr:state": "FL", "brand": "USPS", "collection_times": "Mo-Sa 12:00", "name": "USPS COLLECTION BOX - BLUE BOX", "ref": "3468300035"}, "type": "Feature"}
{"geometry": {"coordinates": [-82.76768, 28.071729], "type": "Point"}, "id": "YpCGQUjnkO8SsQMptUyJGRjjnrE=", "properties": {"@spider": "usps_collection_boxes", "addr:city": "PALM HARBOR", "addr:country": "US", "addr:full": "495 ALT 19", "addr:postcode": "34683", "addr:state": "FL", "brand": "USPS", "collection_times": "Mo-Fr 17:00; Sa 15:00", "name": "USPS COLLECTION BOX - APC", "note": "ON 12/24 AND 12/31, THIS BOX MAY BE COLLECTED AS EARLY AS 12 NOON.", "ref": "3468300039"}, "type": "Feature"}
{"geometry": {"coordinates": [-82.767757136, 28.071687768], "type": "Point"}, "id": "UekysbGLkkp6HoseViy-61Ad3xE=", "properties": {"@spider": "usps_collection_boxes", "addr:city": "PALM HARBOR", "addr:country": "US", "addr:full": "495 ALT 19", "addr:postcode": "34683", "addr:state": "FL", "brand": "USPS", "collection_times": "Mo-Fr 17:00", "name": "USPS COLLECTION BOX - PO LOBBY", "note": "ON 12/24 AND 12/31, THIS BOX MAY BE COLLECTED AS EARLY AS 12 NOON.", "ref": "3468300041"}, "type": "Feature"}
{"geometry": {"coordinates": [-82.7230412, 28.06687], "type": "Point"}, "id": "Xqe6V-IZJHnOldnP64jHphFYg7c=", "properties": {"@spider": "usps_collection_boxes", "addr:city": "PALM HARBOR", "addr:country": "US", "addr:full": "3382 TAMPA RD", "addr:postcode": "34684", "addr:state": "FL", "brand": "USPS", "collection_times": "Mo-Sa 12:00", "name": "USPS COLLECTION BOX - BLUE BOX", "ref": "3468400001"}, "type": "Feature"}
{"geometry": {"coordinates": [-82.7375422, 28.073875], "type": "Point"}, "id": "8-MJsTr1aoLXZZRHu1QFEUm6KH0=", "properties": {"@spider": "usps_collection_boxes", "addr:city": "PALM HARBOR", "addr:country": "US", "addr:full": "33195 US HIGHWAY 19 N", "addr:postcode": "34684", "addr:state": "FL", "brand": "USPS", "collection_times": "Mo-Fr 14:00", "name": "USPS COLLECTION BOX - BLUE BOX", "note": "ON 12/24 AND 12/31, THIS BOX MAY BE COLLECTED AS EARLY AS 12 NOON.", "ref": "3468400005"}, "type": "Feature"}
{"geometry": {"coordinates": [-82.7399704, 28.087082], "type": "Point"}, "id": "k2MhYqj9HGPYR5ZTm1Iot7b38pI=", "properties": {"@spider": "usps_collection_boxes", "addr:city": "PALM HARBOR", "addr:country": "US", "addr:full": "34650 US HIGHWAY 19 N", "addr:postcode": "34684", "addr:state": "FL", "brand": "USPS", "collection_times": "Mo-Fr 12:30", "name": "USPS COLLECTION BOX - BLUE BOX", "note": "ON 12/24 AND 12/31, THIS BOX MAY BE COLLECTED AS EARLY AS 12 NOON.", "ref": "3468400008"}, "type": "Feature"}
{"geometry": {"coordinates": [-82.739692, 28.092181], "type": "Point"}, "id": "xmb6l7H6bGM9WE1P3chxIudLpRo=", "properties": {"@spider": "usps_collection_boxes", "addr:city": "PALM HARBOR", "addr:country": "US", "addr:full": "35176 US HIGHWAY 19 N", "addr:postcode": "34684", "addr:state": "FL", "brand": "USPS", "collection_times": "Mo-Fr 12:30", "name": "USPS COLLECTION BOX - BLUE BOX", "note": "ON 12/24 AND 12/31, THIS BOX MAY BE COLLECTED AS EARLY AS 12 NOON.", "ref": "3468400010"}, "type": "Feature"}
{"geometry": {"coordinates": [-82.7060095, 28.061933], "type": "Point"}, "id": "UpxlYhZQ9_4Yjwvs_mZM-MD_qEg=", "properties": {"@spider": "usps_collection_boxes", "addr:city": "PALM HARBOR", "addr:country": "US", "addr:full": "3438 EAST LAKE    STE 14 RD", "addr:postcode": "34685", "addr:state": "FL", "brand": "USPS", "collection_times": "Mo-Fr 13:30; Sa 12:00", "name": "USPS COLLECTION BOX - BLUE BOX", "note": "ON 12/24 AND 12/31, THIS BOX MAY BE COLLECTED AS EARLY AS 12 NOON.", "ref": "3468500000"}, "type": "Feature"}
{"geometry": {"coordinates": [-82.7058709, 28.066052], "type": "Point"}, "id": "KGSpKJj4F_2CAOQJFaHMC9nZGWA=", "properties": {"@spider": "usps_collection_boxes", "addr:city": "PALM HARBOR", "addr:country": "US", "addr:full": "4114 WOODLANDS PKWY", "addr:postcode": "34685", "addr:state": "FL", "brand": "USPS", "collection_times": "Mo-Fr 12:00", "name": "USPS COLLECTION BOX - BLUE BOX", "ref": "3468500001"}, "type": "Feature"}
{"geometry": {"coordinates": [-82.7071795, 28.061056], "type": "Point"}, "id": "TPka_hyH1SXHTI-30Tr_abW48kY=", "properties": {"@spider": "usps_collection_boxes", "addr:city": "PALM HARBOR", "addr:country": "US", "addr:full": "3450 E LAKE RD", "addr:postcode": "34685", "addr:state": "FL", "brand": "USPS", "collection_times": "Mo-Fr 13:30; Sa 12:00", "name": "USPS COLLECTION BOX - BLUE BOX", "note": "ON 12/24 AND 12/31, THIS BOX MAY BE COLLECTED AS EARLY AS 12 NOON.", "ref": "3468500003"}, "type": "Feature"}
{"geometry": {"coordinates": [-82.6930464, 28.10195], "type": "Point"}, "id": "UiiVfhGI7LpHhwz5o46PtbSGxOk=", "properties": {"@spider": "usps_collection_boxes", "addr:city": "PALM HARBOR", "addr:country": "US", "addr:full": "36301 E LAKE RD", "addr:postcode": "34685", "addr:state": "FL", "brand": "USPS", "collection_times": "Mo-Fr 12:30; Sa 12:00", "name": "USPS COLLECTION BOX - BLUE BOX", "note": "ON 12/24 AND 12/31, THIS BOX MAY BE COLLECTED AS EARLY AS 12 NOON.", "ref": "3468500007"}, "type": "Feature"}
{"geometry": {"coordinates": [-82.7091238, 28.061435], "type": "Point"}, "id": "V-cd4PQDyGNRS_m57iSzWgLwIjs=", "properties": {"@spider": "usps_collection_boxes", "addr:city": "PALM HARBOR", "addr:country": "US", "addr:full": "334 E LAKE RD", "addr:postcode": "34685", "addr:state": "FL", "brand": "USPS", "collection_times": "Mo-Fr 13:30; Sa 12:00", "name": "USPS COLLECTION BOX - BLUE BOX", "note": "ON 12/24 AND 12/31, THIS BOX MAY BE COLLECTED AS EARLY AS 12 NOON.", "ref": "3468500009"}, "type": "Feature"}
{"geometry": {"coordinates": [-82.7566433, 28.146383], "type": "Point"}, "id": "VVCmKugatxJ5pWKFI_ICdg0NcLY=", "properties": {"@spider": "usps_collection_boxes", "addr:city": "TARPON SPRINGS", "addr:country": "US", "addr:full": "1 N PINELLAS AVE", "addr:postcode": "34689", "addr:state": "FL", "brand": "USPS", "collection_times": "Mo-Fr 09:30", "name": "USPS COLLECTION BOX - BLUE BOX", "ref": "3468900002"}, "type": "Feature"}
{"geometry": {"coordinates": [-82.742750026, 28.143164477], "type": "Point"}, "id": "xnQMhBACjSx3nCjIqYc053DylUQ=", "properties": {"@spider": "usps_collection_boxes", "addr:city": "TARPON SPRINGS", "addr:country": "US", "addr:full": "850 E LIME ST", "addr:postcode": "34689", "addr:state": "FL", "brand": "USPS", "collection_times": "Mo-Fr 17:00; Sa 16:30", "name": "USPS COLLECTION BOX - BLUE BOX", "note": "ON 12/24 AND 12/31, THIS BOX MAY BE COLLECTED AS EARLY AS 12 NOON.", "ref": "3468900006"}, "type": "Feature"}
{"geometry": {"coordinates": [-82.7423195, 28.142799], "type": "Point"}, "id": "R-nkZ2fWc-rmPs_ZGddnx3RH_KM=", "properties": {"@spider": "usps_collection_boxes", "addr:city": "TARPON SPRINGS", "addr:country": "US", "addr:full": "850 E LIME ST", "addr:postcode": "34689", "addr:state": "FL", "brand": "USPS", "collection_times": "Mo-Fr 17:00; Sa 16:30", "name": "USPS COLLECTION BOX - APC", "note": "ON 12/24 AND 12/31, THIS BOX MAY BE COLLECTED AS EARLY AS 12 NOON.", "ref": "3468900046"}, "type": "Feature"}
{"geometry": {"coordinates": [-82.742750026, 28.143164477], "type": "Point"}, "id": "-dR3QAn87eYmmJVurxutnczJJVw=", "properties": {"@spider": "usps_collection_boxes", "addr:city": "TARPON SPRINGS", "addr:country": "US", "addr:full": "850 E LIME ST", "addr:postcode": "34689", "addr:state": "FL", "brand": "USPS", "collection_times": "Mo-Fr 17:00", "name": "USPS COLLECTION BOX - PO LOBBY", "note": "ON 12/24 AND 12/31, THIS BOX MAY BE COLLECTED AS EARLY AS 12 NOON.", "ref": "3468900050"}, "type": "Feature"}
{"geometry": {"coordinates": [-82.7355757, 28.188083], "type": "Point"}, "id": "HHXi-gBSpMxpgI-gh8RexOU0iH4=", "properties": {"@spider": "usps_collection_boxes", "addr:city": "TARPON SPRINGS", "addr:country": "US", "addr:full": "4737 MILE STRETCH DR", "addr:postcode": "34690", "addr:state": "FL", "brand": "USPS", "collection_times": "Mo-Fr 16:30; Sa 13:00", "name": "USPS COLLECTION BOX - BLUE BOX", "note": "ON 12/24 AND 12/31, THIS BOX MAY BE COLLECTED AS EARLY AS 12 NOON.", "ref": "3469000011"}, "type": "Feature"}
{"geometry": {"coordinates": [-82.735502003, 28.18797749], "type": "Point"}, "id": "eTHPc0L3gqFCE8pebablRcJevqY=", "properties": {"@spider": "usps_collection_boxes", "addr:city": "TARPON SPRINGS", "addr:country": "US", "addr:full": "4737 MILE STRETCH DR", "addr:postcode": "34690", "addr:state": "FL", "brand": "USPS", "collection_times": "Mo-Fr 16:30", "name": "USPS COLLECTION BOX - PO LOBBY", "note": "ON 12/24 AND 12/31, THIS BOX MAY BE COLLECTED AS EARLY AS 12 NOON.", "ref": "3469000029"}, "type": "Feature"}
{"geometry": {"coordinates": [-82.7088808831, 27.9835216975], "type": "Point"}, "id": "JP1Xf67XazcszmF714wyfCRF3_M=", "properties": {"@spider": "usps_collection_boxes", "addr:city": "SAFETY HARBOR", "addr:country": "US", "addr:full": "1703 N MCMULLEN BOOTH RD", "addr:postcode": "34695", "addr:state": "FL", "brand": "USPS", "collection_times": "Mo-Fr 16:45; Sa 13:00", "name": "USPS COLLECTION BOX - PO LOBBY", "note": "ON 12/24 AND 12/31, THIS BOX MAY BE COLLECTED AS EARLY AS 12 NOON.", "ref": "3469500010"}, "type": "Feature"}
{"geometry": {"coordinates": [-82.6885411, 27.991682], "type": "Point"}, "id": "4gL5MCpanY9DXjeuIQHixdEStf0=", "properties": {"@spider": "usps_collection_boxes", "addr:city": "SAFETY HARBOR", "addr:country": "US", "addr:full": "101 2ND ST N", "addr:postcode": "34695", "addr:state": "FL", "brand": "USPS", "collection_times": "Mo-Sa 10:30", "name": "USPS COLLECTION BOX - BLUE BOX", "ref": "3469500012"}, "type": "Feature"}
{"geometry": {"coordinates": [-82.6945626, 27.990876], "type": "Point"}, "id": "Q26bTU0n_kSKqKM_jhbppyIGW2A=", "properties": {"@spider": "usps_collection_boxes", "addr:city": "SAFETY HARBOR", "addr:country": "US", "addr:full": "737 MAIN ST", "addr:postcode": "34695", "addr:state": "FL", "brand": "USPS", "collection_times": "Mo-Fr 12:30; Sa 11:30", "name": "USPS COLLECTION BOX - BLUE BOX", "note": "ON 12/24 AND 12/31, THIS BOX MAY BE COLLECTED AS EARLY AS 12 NOON.", "ref": "3469500013"}, "type": "Feature"}
{"geometry": {"coordinates": [-82.7088808831, 27.9835216975], "type": "Point"}, "id": "2zeiZKL-3qflzvSzSrAPLgP460Q=", "properties": {"@spider": "usps_collection_boxes", "addr:city": "SAFETY HARBOR", "addr:country": "US", "addr:full": "1703 N MCMULLEN BOOTH RD", "addr:postcode": "34695", "addr:state": "FL", "brand": "USPS", "collection_times": "Mo-Fr 16:45", "name": "USPS COLLECTION BOX - PO LOBBY", "note": "ON 12/24 AND 12/31, THIS BOX MAY BE COLLECTED AS EARLY AS 12 NOON.", "ref": "3469500014"}, "type": "Feature"}
{"geometry": {"coordinates": [-82.7886694, 28.01132], "type": "Point"}, "id": "9SmRAe4ysex74p7IP_Gc2gR6nIc=", "properties": {"@spider": "usps_collection_boxes", "addr:city": "DUNEDIN", "addr:country": "US", "addr:full": "735 RAILROAD AVE E", "addr:postcode": "34698", "addr:state": "FL", "brand": "USPS", "collection_times": "Mo-Fr 14:00; Sa 11:00", "name": "USPS COLLECTION BOX - BLUE BOX", "note": "ON 12/24 AND 12/31, THIS BOX MAY BE COLLECTED AS EARLY AS 12 NOON.", "ref": "3469800004"}, "type": "Feature"}
{"geometry": {"coordinates": [-82.763527, 28.022495], "type": "Point"}, "id": "5RvdFiyjwT9EqEJvabIkt1d15u4=", "properties": {"@spider": "usps_collection_boxes", "addr:city": "DUNEDIN", "addr:country": "US", "addr:full": "1350 COUNTY ROAD 1", "addr:postcode": "34698", "addr:state": "FL", "brand": "USPS", "collection_times": "Mo-Fr 17:00; Sa 15:00", "name": "USPS COLLECTION BOX - BLUE BOX", "note": "ON 12/24 AND 12/31, THIS BOX MAY BE COLLECTED AS EARLY AS 12 NOON.", "ref": "3469800011"}, "type": "Feature"}
{"geometry": {"coordinates": [-82.7769557, 28.018522], "type": "Point"}, "id": "gg4IKQcFe2zZ-W5OZhEoo_k63hE=", "properties": {"@spider": "usps_collection_boxes", "addr:city": "DUNEDIN", "addr:country": "US", "addr:full": "1022 MAIN ST", "addr:postcode": "34698", "addr:state": "FL", "brand": "USPS", "collection_times": "Mo-Fr 14:00; Sa 11:00", "name": "USPS COLLECTION BOX - BLUE BOX", "note": "ON 12/24 AND 12/31, THIS BOX MAY BE COLLECTED AS EARLY AS 12 NOON.", "ref": "3469800042"}, "type": "Feature"}
{"geometry": {"coordinates": [-82.7763341, 28.017044], "type": "Point"}, "id": "rfnX3HFtmdTDPtMNgS1LmND7_1Y=", "properties": {"@spider": "usps_collection_boxes", "addr:city": "DUNEDIN", "addr:country": "US", "addr:full": "938 PATRICIA AVE", "addr:postcode": "34698", "addr:state": "FL", "brand": "USPS", "collection_times": "Mo-Fr 14:00; Sa 11:00", "name": "USPS COLLECTION BOX - BLUE BOX", "note": "ON 12/24 AND 12/31, THIS BOX MAY BE COLLECTED AS EARLY AS 12 NOON.", "ref": "3469800049"}, "type": "Feature"}
{"geometry": {"coordinates": [-82.7850871, 28.013333], "type": "Point"}, "id": "LenqOyRFpFx_IN37O8mHtol0JRM=", "properties": {"@spider": "usps_collection_boxes", "addr:city": "DUNEDIN", "addr:country": "US", "addr:full": "542 MAIN ST", "addr:postcode": "34698", "addr:state": "FL", "brand": "USPS", "collection_times": "Mo-Fr 14:00; Sa 11:00", "name": "USPS COLLECTION BOX - BLUE BOX", "note": "ON 12/24 AND 12/31, THIS BOX MAY BE COLLECTED AS EARLY AS 12 NOON.", "ref": "3469800053"}, "type": "Feature"}
{"geometry": {"coordinates": [-82.7582409, 28.019908], "type": "Point"}, "id": "_qMF_nLJShz-nTb0Pws8QNVnPn8=", "properties": {"@spider": "usps_collection_boxes", "addr:city": "DUNEDIN", "addr:country": "US", "addr:full": "1750 MAIN ST", "addr:postcode": "34698", "addr:state": "FL", "brand": "USPS", "collection_times": "Mo-Fr 16:00; Sa 15:00", "name": "USPS COLLECTION BOX - BLUE BOX", "note": "ON 12/24 AND 12/31, THIS BOX MAY BE COLLECTED AS EARLY AS 12 NOON.", "ref": "3469800054"}, "type": "Feature"}
{"geometry": {"coordinates": [-82.7420888, 28.048299], "type": "Point"}, "id": "T55utdVCk0gOU9OlSdmPJk_NZ1U=", "properties": {"@spider": "usps_collection_boxes", "addr:city": "DUNEDIN", "addr:country": "US", "addr:full": "2323 CURLEW RD STE 7E", "addr:postcode": "34698", "addr:state": "FL", "brand": "USPS", "collection_times": "Mo-Sa 11:00", "name": "USPS COLLECTION BOX - BLUE BOX", "ref": "3469800056"}, "type": "Feature"}
{"geometry": {"coordinates": [-82.763527, 28.022495], "type": "Point"}, "id": "Y6Gdtwbz2ZGG3j-2sjZsqhp8IMw=", "properties": {"@spider": "usps_collection_boxes", "addr:city": "DUNEDIN", "addr:country": "US", "addr:full": "1350 COUNTY ROAD 1", "addr:postcode": "34698", "addr:state": "FL", "brand": "USPS", "collection_times": "Mo-Fr 17:00; Sa 15:00", "name": "USPS COLLECTION BOX - APC", "note": "ON 12/24 AND 12/31, THIS BOX MAY BE COLLECTED AS EARLY AS 12 NOON.", "ref": "3469800057"}, "type": "Feature"}
{"geometry": {"coordinates": [-82.763562635, 28.022462445], "type": "Point"}, "id": "4joQGSYSBPu4nprLa2Fe66ldOrY=", "properties": {"@spider": "usps_collection_boxes", "addr:city": "DUNEDIN", "addr:country": "US", "addr:full": "1350 COUNTY ROAD 1", "addr:postcode": "34698", "addr:state": "FL", "brand": "USPS", "collection_times": "Mo-Fr 17:00", "name": "USPS COLLECTION BOX - PO LOBBY", "note": "ON 12/24 AND 12/31, THIS BOX MAY BE COLLECTED AS EARLY AS 12 NOON.", "ref": "3469800061"}, "type": "Feature"}
