{"geometry": {"coordinates": [-86.955389569, 31.434959573], "type": "Point"}, "id": "S5TlIA4AWlh_1S4aHTPsDqXXhYY=", "properties": {"@spider": "usps_collection_boxes", "addr:city": "EVERGREEN", "addr:country": "US", "addr:full": "200 RURAL ST", "addr:postcode": "36401", "addr:state": "AL", "brand": "USPS", "collection_times": "Mo-Fr 16:00; Sa 12:00", "name": "USPS COLLECTION BOX - PO LOBBY", "note": "ON 12/24 AND 12/31, THIS BOX MAY BE COLLECTED AS EARLY AS 12 NOON.", "ref": "3640100002"}, "type": "Feature"}
{"geometry": {"coordinates": [-86.955389569, 31.434959573], "type": "Point"}, "id": "8ARoF4ooblRAbNG8oWigZl4_Lr0=", "properties": {"@spider": "usps_collection_boxes", "addr:city": "EVERGREEN", "addr:country": "US", "addr:full": "200 RURAL ST", "addr:postcode": "36401", "addr:state": "AL", "brand": "USPS", "collection_times": "Mo-Fr 16:00; Sa 12:00", "name": "USPS COLLECTION BOX - BLUE BOX", "note": "ON 12/24 AND 12/31, THIS BOX MAY BE COLLECTED AS EARLY AS 12 NOON.", "ref": "3640100004"}, "type": "Feature"}
{"geometry": {"coordinates": [-86.954842884, 31.434506309], "type": "Point"}, "id": "K3WquoEOATWKjIogS_D6wkGQEYw=", "properties": {"@spider": "usps_collection_boxes", "addr:city": "EVERGREEN", "addr:country": "US", "addr:full": "100 JACKSON ST", "addr:postcode": "36401", "addr:state": "AL", "brand": "USPS", "collection_times": "Mo-Sa 11:00", "name": "USPS COLLECTION BOX - BLUE BOX", "ref": "3640100008"}, "type": "Feature"}
{"geometry": {"coordinates": [-86.967989183, 31.43650061], "type": "Point"}, "id": "8qHWwB4ORYUcbNWE5B7gTxsOYY4=", "properties": {"@spider": "usps_collection_boxes", "addr:city": "EVERGREEN", "addr:country": "US", "addr:full": "140 EVERGREEN RETIREMENT RD", "addr:postcode": "36401", "addr:state": "AL", "brand": "USPS", "collection_times": "Mo-Sa 07:00", "name": "USPS COLLECTION BOX - BLUE BOX", "ref": "3640100024"}, "type": "Feature"}
{"geometry": {"coordinates": [-86.9545772382, 31.43413151], "type": "Point"}, "id": "YAF3X-1n09JAAjhjvThYlqLhUZc=", "properties": {"@spider": "usps_collection_boxes", "addr:city": "EVERGREEN", "addr:country": "US", "addr:full": "1 W FRONT ST", "addr:postcode": "36401", "addr:state": "AL", "brand": "USPS", "collection_times": "Mo-Sa 10:00", "name": "USPS COLLECTION BOX - BLUE BOX", "ref": "3640100025"}, "type": "Feature"}
{"geometry": {"coordinates": [-86.955389569, 31.434959573], "type": "Point"}, "id": "PTI4t8BbqajTbSzrG6grn9aAGok=", "properties": {"@spider": "usps_collection_boxes", "addr:city": "EVERGREEN", "addr:country": "US", "addr:full": "200 RURAL ST", "addr:postcode": "36401", "addr:state": "AL", "brand": "USPS", "collection_times": "Mo-Fr 16:00; Sa 12:00", "name": "USPS COLLECTION BOX - PO LOBBY", "note": "ON 12/24 AND 12/31, THIS BOX MAY BE COLLECTED AS EARLY AS 12 NOON.", "ref": "3640100029"}, "type": "Feature"}
{"geometry": {"coordinates": [-87.21160778, 31.733509229], "type": "Point"}, "id": "tHL8zl6n6CCKZHMPLGrNjSp598M=", "properties": {"@spider": "usps_collection_boxes", "addr:city": "BEATRICE", "addr:country": "US", "addr:full": "291 MOORE ST", "addr:postcode": "36425", "addr:state": "AL", "brand": "USPS", "collection_times": "Mo-Fr 15:45; Sa 10:45", "name": "USPS COLLECTION BOX - BLUE BOX", "note": "ON 12/24 AND 12/31, THIS BOX MAY BE COLLECTED AS EARLY AS 12 NOON.", "ref": "3642500001"}, "type": "Feature"}
{"geometry": {"coordinates": [-87.21160778, 31.733509229], "type": "Point"}, "id": "sHEyri_98KizjfeozO1mKDtDfTU=", "properties": {"@spider": "usps_collection_boxes", "addr:city": "BEATRICE", "addr:country": "US", "addr:full": "291 MOORE ST", "addr:postcode": "36425", "addr:state": "AL", "brand": "USPS", "collection_times": "Mo-Fr 15:45; Sa 10:45", "name": "USPS COLLECTION BOX - PO LOBBY", "note": "ON 12/24 AND 12/31, THIS BOX MAY BE COLLECTED AS EARLY AS 12 NOON.", "ref": "3642500002"}, "type": "Feature"}
{"geometry": {"coordinates": [-87.21160778, 31.733509229], "type": "Point"}, "id": "ZH4AN8cSzmGo2j1rmXGxBeq3RoM=", "properties": {"@spider": "usps_collection_boxes", "addr:city": "BEATRICE", "addr:country": "US", "addr:full": "291 MOORE ST", "addr:postcode": "36425", "addr:state": "AL", "brand": "USPS", "collection_times": "Mo-Fr 16:00; Sa 11:00", "name": "USPS COLLECTION BOX - PO LOBBY", "note": "ON 12/24 AND 12/31, THIS BOX MAY BE COLLECTED AS EARLY AS 12 NOON.", "ref": "3642500004"}, "type": "Feature"}
{"geometry": {"coordinates": [-87.071581295, 31.107489181], "type": "Point"}, "id": "WC2PEemL4DcaL6O0XwD530wA8A0=", "properties": {"@spider": "usps_collection_boxes", "addr:city": "BREWTON", "addr:country": "US", "addr:full": "323 BELLEVILLE AVE", "addr:postcode": "36426", "addr:state": "AL", "brand": "USPS", "collection_times": "Mo-Fr 16:30; Sa 12:00", "name": "USPS COLLECTION BOX - BLUE BOX", "note": "ON 12/24 AND 12/31, THIS BOX MAY BE COLLECTED AS EARLY AS 12 NOON.", "ref": "3642600001"}, "type": "Feature"}
{"geometry": {"coordinates": [-87.071581295, 31.107489181], "type": "Point"}, "id": "8GzFpW0mmLNRNc43343gkhprPZk=", "properties": {"@spider": "usps_collection_boxes", "addr:city": "BREWTON", "addr:country": "US", "addr:full": "323 BELLEVILLE AVE", "addr:postcode": "36426", "addr:state": "AL", "brand": "USPS", "collection_times": "Mo-Fr 16:30; Sa 12:00", "name": "USPS COLLECTION BOX - BLUE BOX", "note": "ON 12/24 AND 12/31, THIS BOX MAY BE COLLECTED AS EARLY AS 12 NOON.", "ref": "3642600002"}, "type": "Feature"}
{"geometry": {"coordinates": [-87.071581295, 31.107489181], "type": "Point"}, "id": "ffhLijvIssNxGpIV0GaukVY3qd4=", "properties": {"@spider": "usps_collection_boxes", "addr:city": "BREWTON", "addr:country": "US", "addr:full": "323 BELLEVILLE AVE", "addr:postcode": "36426", "addr:state": "AL", "brand": "USPS", "collection_times": "Mo-Fr 16:30; Sa 12:00", "name": "USPS COLLECTION BOX - BLUE BOX", "note": "ON 12/24 AND 12/31, THIS BOX MAY BE COLLECTED AS EARLY AS 12 NOON.", "ref": "3642600003"}, "type": "Feature"}
{"geometry": {"coordinates": [-87.062799023, 31.095938024], "type": "Point"}, "id": "JyHT6QimIrXYH8XXFh6t4SuYhEg=", "properties": {"@spider": "usps_collection_boxes", "addr:city": "BREWTON", "addr:country": "US", "addr:full": "505 FORREST AVE", "addr:postcode": "36426", "addr:state": "AL", "brand": "USPS", "collection_times": "Mo-Fr 11:30; Sa 09:00", "name": "USPS COLLECTION BOX - BLUE BOX", "ref": "3642600007"}, "type": "Feature"}
{"geometry": {"coordinates": [-87.071581295, 31.107489181], "type": "Point"}, "id": "dxA3LzgQvairRl7KgBRVv9vXTyM=", "properties": {"@spider": "usps_collection_boxes", "addr:city": "BREWTON", "addr:country": "US", "addr:full": "323 BELLEVILLE AVE", "addr:postcode": "36426", "addr:state": "AL", "brand": "USPS", "collection_times": "Mo-Fr 16:30; Sa 12:00", "name": "USPS COLLECTION BOX - PO LOBBY", "note": "ON 12/24 AND 12/31, THIS BOX MAY BE COLLECTED AS EARLY AS 12 NOON.", "ref": "3642600013"}, "type": "Feature"}
{"geometry": {"coordinates": [-87.062799023, 31.095938024], "type": "Point"}, "id": "z6Xa1jOsj7o3-yfvy_Klc_hirzg=", "properties": {"@spider": "usps_collection_boxes", "addr:city": "BREWTON", "addr:country": "US", "addr:full": "505 FORREST AVE", "addr:postcode": "36426", "addr:state": "AL", "brand": "USPS", "collection_times": "Mo-Fr 11:30; Sa 09:00", "name": "USPS COLLECTION BOX - PO LOBBY", "ref": "3642600017"}, "type": "Feature"}
{"geometry": {"coordinates": [-87.071581295, 31.107489181], "type": "Point"}, "id": "vBwqj7GDim9cWNT17sfwMcOO1nk=", "properties": {"@spider": "usps_collection_boxes", "addr:city": "BREWTON", "addr:country": "US", "addr:full": "323 BELLEVILLE AVE", "addr:postcode": "36426", "addr:state": "AL", "brand": "USPS", "collection_times": "Mo-Fr 16:30; Sa 12:00", "name": "USPS COLLECTION BOX - PO LOBBY", "note": "ON 12/24 AND 12/31, THIS BOX MAY BE COLLECTED AS EARLY AS 12 NOON.", "ref": "3642600021"}, "type": "Feature"}
{"geometry": {"coordinates": [-87.062799023, 31.095938024], "type": "Point"}, "id": "9rp4CMoxhTtM8K8wUcwyNIV7FfM=", "properties": {"@spider": "usps_collection_boxes", "addr:city": "BREWTON", "addr:country": "US", "addr:full": "505 FORREST AVE", "addr:postcode": "36426", "addr:state": "AL", "brand": "USPS", "collection_times": "Mo-Fr 11:30", "name": "USPS COLLECTION BOX - PO LOBBY", "ref": "3642600022"}, "type": "Feature"}
{"geometry": {"coordinates": [-87.022059234, 31.297602126], "type": "Point"}, "id": "o_ZusOA9xpDcBxe7crC-0ayBgdA=", "properties": {"@spider": "usps_collection_boxes", "addr:city": "CASTLEBERRY", "addr:country": "US", "addr:full": "2742 S JACKSON ST", "addr:postcode": "36432", "addr:state": "AL", "brand": "USPS", "collection_times": "Mo-Fr 14:30; Sa 10:45", "name": "USPS COLLECTION BOX - PO LOBBY", "note": "ON 12/24 AND 12/31, THIS BOX MAY BE COLLECTED AS EARLY AS 12 NOON.", "ref": "3643200002"}, "type": "Feature"}
{"geometry": {"coordinates": [-87.022059234, 31.297602126], "type": "Point"}, "id": "GN04Gq99bk8tOxFz6B80NRNYe8w=", "properties": {"@spider": "usps_collection_boxes", "addr:city": "CASTLEBERRY", "addr:country": "US", "addr:full": "2742 S JACKSON ST", "addr:postcode": "36432", "addr:state": "AL", "brand": "USPS", "collection_times": "Mo-Fr 14:30; Sa 10:45", "name": "USPS COLLECTION BOX - BLUE BOX", "note": "ON 12/24 AND 12/31, THIS BOX MAY BE COLLECTED AS EARLY AS 12 NOON.", "ref": "3643200003"}, "type": "Feature"}
{"geometry": {"coordinates": [-87.022059234, 31.297602126], "type": "Point"}, "id": "d2446CsZGj6VLx0WpIxZOECdquY=", "properties": {"@spider": "usps_collection_boxes", "addr:city": "CASTLEBERRY", "addr:country": "US", "addr:full": "2742 S JACKSON ST", "addr:postcode": "36432", "addr:state": "AL", "brand": "USPS", "collection_times": "Mo-Fr 14:30; Sa 10:45", "name": "USPS COLLECTION BOX - PO LOBBY", "note": "ON 12/24 AND 12/31, THIS BOX MAY BE COLLECTED AS EARLY AS 12 NOON.", "ref": "3643200004"}, "type": "Feature"}
{"geometry": {"coordinates": [-87.022059234, 31.297602126], "type": "Point"}, "id": "IU-TR1--d2qK1wkG-TpsRyhAvpE=", "properties": {"@spider": "usps_collection_boxes", "addr:city": "CASTLEBERRY", "addr:country": "US", "addr:full": "2742 S JACKSON ST", "addr:postcode": "36432", "addr:state": "AL", "brand": "USPS", "collection_times": "Mo-Fr 15:00; Sa 11:00", "name": "USPS COLLECTION BOX - PO LOBBY", "note": "ON 12/24 AND 12/31, THIS BOX MAY BE COLLECTED AS EARLY AS 12 NOON.", "ref": "3643200006"}, "type": "Feature"}
{"geometry": {"coordinates": [-87.472242122, 31.886215547], "type": "Point"}, "id": "aQY29fygSeakHItFNKFzwUHZsn4=", "properties": {"@spider": "usps_collection_boxes", "addr:city": "COY", "addr:country": "US", "addr:full": "5092 J M BROOKS RD", "addr:postcode": "36435", "addr:state": "AL", "brand": "USPS", "collection_times": "Mo-Fr 11:50; Sa 10:00", "name": "USPS COLLECTION BOX - BLUE BOX", "ref": "3643500001"}, "type": "Feature"}
{"geometry": {"coordinates": [-87.472242122, 31.886215547], "type": "Point"}, "id": "mFNobUUCZONFrlg69hF2rBi_C_g=", "properties": {"@spider": "usps_collection_boxes", "addr:city": "COY", "addr:country": "US", "addr:full": "5092 J M BROOKS RD", "addr:postcode": "36435", "addr:state": "AL", "brand": "USPS", "collection_times": "Mo-Fr 11:50; Sa 10:00", "name": "USPS COLLECTION BOX - PO LOBBY", "ref": "3643500002"}, "type": "Feature"}
{"geometry": {"coordinates": [-87.472242122, 31.886215547], "type": "Point"}, "id": "B96tncXCYoIZNbRp3Q-eiC5phf0=", "properties": {"@spider": "usps_collection_boxes", "addr:city": "COY", "addr:country": "US", "addr:full": "5092 J M BROOKS RD", "addr:postcode": "36435", "addr:state": "AL", "brand": "USPS", "collection_times": "Mo-Fr 12:00; Sa 11:00", "name": "USPS COLLECTION BOX - PO LOBBY", "ref": "3643500004"}, "type": "Feature"}
{"geometry": {"coordinates": [-87.341663813, 31.427818108], "type": "Point"}, "id": "NwpPDaSYwp8ahh2AOIFYjiy6SGg=", "properties": {"@spider": "usps_collection_boxes", "addr:city": "EXCEL", "addr:country": "US", "addr:full": "10 MAIN ST", "addr:postcode": "36439", "addr:state": "AL", "brand": "USPS", "collection_times": "Mo-Fr 14:45; Sa 11:00", "name": "USPS COLLECTION BOX - PO LOBBY", "note": "ON 12/24 AND 12/31, THIS BOX MAY BE COLLECTED AS EARLY AS 12 NOON.", "ref": "3643900001"}, "type": "Feature"}
{"geometry": {"coordinates": [-87.341663813, 31.427818108], "type": "Point"}, "id": "pDM3D-aXWEwVduTlRMxzHsGX-eY=", "properties": {"@spider": "usps_collection_boxes", "addr:city": "EXCEL", "addr:country": "US", "addr:full": "10 MAIN ST", "addr:postcode": "36439", "addr:state": "AL", "brand": "USPS", "collection_times": "Mo-Fr 14:45; Sa 11:00", "name": "USPS COLLECTION BOX - BLUE BOX", "note": "ON 12/24 AND 12/31, THIS BOX MAY BE COLLECTED AS EARLY AS 12 NOON.", "ref": "3643900002"}, "type": "Feature"}
{"geometry": {"coordinates": [-87.341663813, 31.427818108], "type": "Point"}, "id": "lSefKRuixdEotxl73foFEBgyrDk=", "properties": {"@spider": "usps_collection_boxes", "addr:city": "EXCEL", "addr:country": "US", "addr:full": "10 MAIN ST", "addr:postcode": "36439", "addr:state": "AL", "brand": "USPS", "collection_times": "Mo-Fr 15:00; Sa 11:00", "name": "USPS COLLECTION BOX - PO LOBBY", "note": "ON 12/24 AND 12/31, THIS BOX MAY BE COLLECTED AS EARLY AS 12 NOON.", "ref": "3643900003"}, "type": "Feature"}
{"geometry": {"coordinates": [-87.260044565, 31.001413995], "type": "Point"}, "id": "3UKhSqSnyA-b1Y0XmT7wRUmccWM=", "properties": {"@spider": "usps_collection_boxes", "addr:city": "FLOMATON", "addr:country": "US", "addr:full": "417 PALAFOX ST", "addr:postcode": "36441", "addr:state": "AL", "brand": "USPS", "collection_times": "Mo-Fr 11:50; Sa 11:30", "name": "USPS COLLECTION BOX - BLUE BOX", "ref": "3644100003"}, "type": "Feature"}
{"geometry": {"coordinates": [-87.260044565, 31.001413995], "type": "Point"}, "id": "VNnWneOi4YCqwSl9bVwtL1c_vKc=", "properties": {"@spider": "usps_collection_boxes", "addr:city": "FLOMATON", "addr:country": "US", "addr:full": "417 PALAFOX ST", "addr:postcode": "36441", "addr:state": "AL", "brand": "USPS", "collection_times": "Mo-Fr 11:50; Sa 11:30", "name": "USPS COLLECTION BOX - PO LOBBY", "ref": "3644100004"}, "type": "Feature"}
{"geometry": {"coordinates": [-87.2600445648, 31.0014139949], "type": "Point"}, "id": "saoonxxXW8pFIcSiG_BUCRGiq6c=", "properties": {"@spider": "usps_collection_boxes", "addr:city": "FLOMATON", "addr:country": "US", "addr:full": "417 PALAFOX ST", "addr:postcode": "36441", "addr:state": "AL", "brand": "USPS", "collection_times": "Mo-Fr 16:15; Sa 11:30", "name": "USPS COLLECTION BOX - PO LOBBY", "note": "ON 12/24 AND 12/31, THIS BOX MAY BE COLLECTED AS EARLY AS 12 NOON.", "ref": "3644100006"}, "type": "Feature"}
{"geometry": {"coordinates": [-87.4144635, 31.709203788], "type": "Point"}, "id": "yWyQVDwWbFqpV5SAgaDXs4cmbLQ=", "properties": {"@spider": "usps_collection_boxes", "addr:city": "FRANKLIN", "addr:country": "US", "addr:full": "102 MAIN ST", "addr:postcode": "36444", "addr:state": "AL", "brand": "USPS", "collection_times": "Mo-Fr 11:45; Sa 08:00", "name": "USPS COLLECTION BOX - BLUE BOX", "ref": "3644400001"}, "type": "Feature"}
{"geometry": {"coordinates": [-87.4144635, 31.709203788], "type": "Point"}, "id": "WLdEjYLi_UKRtZfIsikOZ40toPg=", "properties": {"@spider": "usps_collection_boxes", "addr:city": "FRANKLIN", "addr:country": "US", "addr:full": "102 MAIN ST", "addr:postcode": "36444", "addr:state": "AL", "brand": "USPS", "collection_times": "Mo-Fr 12:00; Sa 11:00", "name": "USPS COLLECTION BOX - PO LOBBY", "ref": "3644400003"}, "type": "Feature"}
{"geometry": {"coordinates": [-87.399333478, 31.43512042], "type": "Point"}, "id": "DVuaSvr7bmfjr1c3a7yUgF_RdCo=", "properties": {"@spider": "usps_collection_boxes", "addr:city": "FRISCO CITY", "addr:country": "US", "addr:full": "27 CHURCH ST", "addr:postcode": "36445", "addr:state": "AL", "brand": "USPS", "collection_times": "Mo-Fr 16:30; Sa 10:30", "name": "USPS COLLECTION BOX - PO LOBBY", "note": "ON 12/24 AND 12/31, THIS BOX MAY BE COLLECTED AS EARLY AS 12 NOON.", "ref": "3644500002"}, "type": "Feature"}
{"geometry": {"coordinates": [-87.399333478, 31.43512042], "type": "Point"}, "id": "bURIZq5OGcaYpQb0nqvNxp0cOZ4=", "properties": {"@spider": "usps_collection_boxes", "addr:city": "FRISCO CITY", "addr:country": "US", "addr:full": "27 CHURCH ST", "addr:postcode": "36445", "addr:state": "AL", "brand": "USPS", "collection_times": "Mo-Fr 16:30; Sa 10:30", "name": "USPS COLLECTION BOX - PO LOBBY", "note": "ON 12/24 AND 12/31, THIS BOX MAY BE COLLECTED AS EARLY AS 12 NOON.", "ref": "3644500004"}, "type": "Feature"}
{"geometry": {"coordinates": [-87.7268919665, 31.7882389137], "type": "Point"}, "id": "59B6idnPhcNK2_LYMi6qMufz9mk=", "properties": {"@spider": "usps_collection_boxes", "addr:city": "FULTON", "addr:country": "US", "addr:full": "152 MAIN ST", "addr:postcode": "36446", "addr:state": "AL", "brand": "USPS", "collection_times": "Mo-Fr 16:00; Sa 12:15", "name": "USPS COLLECTION BOX - PO LOBBY", "note": "ON 12/24 AND 12/31, THIS BOX MAY BE COLLECTED AS EARLY AS 12 NOON.", "ref": "3644600001"}, "type": "Feature"}
{"geometry": {"coordinates": [-87.726891967, 31.788238914], "type": "Point"}, "id": "FSpuouTiV5hNZ18plHc_saOxdR0=", "properties": {"@spider": "usps_collection_boxes", "addr:city": "FULTON", "addr:country": "US", "addr:full": "152 MAIN ST", "addr:postcode": "36446", "addr:state": "AL", "brand": "USPS", "collection_times": "Mo-Fr 15:00; Sa 12:15", "name": "USPS COLLECTION BOX - BLUE BOX", "note": "ON 12/24 AND 12/31, THIS BOX MAY BE COLLECTED AS EARLY AS 12 NOON.", "ref": "3644600004"}, "type": "Feature"}
{"geometry": {"coordinates": [-87.726891967, 31.788238914], "type": "Point"}, "id": "7htyC1tc0VTeul7YUnKL71lssu0=", "properties": {"@spider": "usps_collection_boxes", "addr:city": "FULTON", "addr:country": "US", "addr:full": "152 MAIN ST", "addr:postcode": "36446", "addr:state": "AL", "brand": "USPS", "collection_times": "Mo-Fr 16:00; Sa 12:15", "name": "USPS COLLECTION BOX - PO LOBBY", "note": "ON 12/24 AND 12/31, THIS BOX MAY BE COLLECTED AS EARLY AS 12 NOON.", "ref": "3644600005"}, "type": "Feature"}
{"geometry": {"coordinates": [-87.7753191, 31.7088836537], "type": "Point"}, "id": "syuEGhc6FOADkHjcbOS28UkmbWE=", "properties": {"@spider": "usps_collection_boxes", "addr:city": "GROVE HILL", "addr:country": "US", "addr:full": "102 MAIN ST", "addr:postcode": "36451", "addr:state": "AL", "brand": "USPS", "collection_times": "Mo-Fr 16:00; Sa 11:30", "name": "USPS COLLECTION BOX - BLUE BOX", "note": "ON 12/24 AND 12/31, THIS BOX MAY BE COLLECTED AS EARLY AS 12 NOON.", "ref": "3645100002"}, "type": "Feature"}
{"geometry": {"coordinates": [-87.7753191, 31.708883654], "type": "Point"}, "id": "Jpikhph8knMPB2DJYZe0uuCqtfk=", "properties": {"@spider": "usps_collection_boxes", "addr:city": "GROVE HILL", "addr:country": "US", "addr:full": "102 MAIN ST", "addr:postcode": "36451", "addr:state": "AL", "brand": "USPS", "collection_times": "Mo-Fr 16:00; Sa 11:30", "name": "USPS COLLECTION BOX - PO LOBBY", "note": "ON 12/24 AND 12/31, THIS BOX MAY BE COLLECTED AS EARLY AS 12 NOON.", "ref": "3645100003"}, "type": "Feature"}
{"geometry": {"coordinates": [-87.7753191, 31.708883654], "type": "Point"}, "id": "A6lUUX0d0SG2OIHPk_YHYRxHIHw=", "properties": {"@spider": "usps_collection_boxes", "addr:city": "GROVE HILL", "addr:country": "US", "addr:full": "102 MAIN ST", "addr:postcode": "36451", "addr:state": "AL", "brand": "USPS", "collection_times": "Mo-Fr 16:30; Sa 11:30", "name": "USPS COLLECTION BOX - PO LOBBY", "note": "ON 12/24 AND 12/31, THIS BOX MAY BE COLLECTED AS EARLY AS 12 NOON.", "ref": "3645100005"}, "type": "Feature"}
{"geometry": {"coordinates": [-86.71444611, 31.54300813], "type": "Point"}, "id": "9lr-d29m3oLs136YQDYurYocf94=", "properties": {"@spider": "usps_collection_boxes", "addr:city": "MCKENZIE", "addr:country": "US", "addr:full": "83 N GARLAND RD", "addr:postcode": "36456", "addr:state": "AL", "brand": "USPS", "collection_times": "Mo-Fr 11:45; Sa 10:30", "name": "USPS COLLECTION BOX - BLUE BOX", "ref": "3645600001"}, "type": "Feature"}
{"geometry": {"coordinates": [-86.71444611, 31.54300813], "type": "Point"}, "id": "5hegPGmc2njgEoxMVlGXo0LxbBI=", "properties": {"@spider": "usps_collection_boxes", "addr:city": "MCKENZIE", "addr:country": "US", "addr:full": "83 N GARLAND RD", "addr:postcode": "36456", "addr:state": "AL", "brand": "USPS", "collection_times": "Mo-Fr 11:45; Sa 10:30", "name": "USPS COLLECTION BOX - PO LOBBY", "ref": "3645600002"}, "type": "Feature"}
{"geometry": {"coordinates": [-86.71444611, 31.54300813], "type": "Point"}, "id": "ZmHyeQwgTPsMk1Iss071RekkSLo=", "properties": {"@spider": "usps_collection_boxes", "addr:city": "MCKENZIE", "addr:country": "US", "addr:full": "83 N GARLAND RD", "addr:postcode": "36456", "addr:state": "AL", "brand": "USPS", "collection_times": "Mo-Fr 15:30; Sa 10:30", "name": "USPS COLLECTION BOX - PO LOBBY", "note": "ON 12/24 AND 12/31, THIS BOX MAY BE COLLECTED AS EARLY AS 12 NOON.", "ref": "3645600004"}, "type": "Feature"}
{"geometry": {"coordinates": [-87.394668741, 31.505173196], "type": "Point"}, "id": "q9tFvzRXxHJ3nujw5lawugaIC54=", "properties": {"@spider": "usps_collection_boxes", "addr:city": "MEXIA", "addr:country": "US", "addr:full": "4891 HIGHWAY 47 S", "addr:postcode": "36458", "addr:state": "AL", "brand": "USPS", "collection_times": "Mo-Fr 13:45; Sa 10:45", "name": "USPS COLLECTION BOX - BLUE BOX", "note": "ON 12/24 AND 12/31, THIS BOX MAY BE COLLECTED AS EARLY AS 12 NOON.", "ref": "3645800001"}, "type": "Feature"}
{"geometry": {"coordinates": [-87.394668741, 31.505173196], "type": "Point"}, "id": "1axPpSoQ3Zf76ysATU9BuRDoboc=", "properties": {"@spider": "usps_collection_boxes", "addr:city": "MEXIA", "addr:country": "US", "addr:full": "4891 HIGHWAY 47 S", "addr:postcode": "36458", "addr:state": "AL", "brand": "USPS", "collection_times": "Mo-Fr 13:45; Sa 10:45", "name": "USPS COLLECTION BOX - PO LOBBY", "note": "ON 12/24 AND 12/31, THIS BOX MAY BE COLLECTED AS EARLY AS 12 NOON.", "ref": "3645800002"}, "type": "Feature"}
{"geometry": {"coordinates": [-87.394668741, 31.5051731964], "type": "Point"}, "id": "gL_6XY6d1SEXlR-aVyVevRQDEhw=", "properties": {"@spider": "usps_collection_boxes", "addr:city": "MEXIA", "addr:country": "US", "addr:full": "4891 HIGHWAY 47 S", "addr:postcode": "36458", "addr:state": "AL", "brand": "USPS", "collection_times": "Mo-Fr 16:00; Sa 11:30", "name": "USPS COLLECTION BOX - PO LOBBY", "note": "ON 12/24 AND 12/31, THIS BOX MAY BE COLLECTED AS EARLY AS 12 NOON.", "ref": "3645800003"}, "type": "Feature"}
{"geometry": {"coordinates": [-87.3237918745, 31.5268284235], "type": "Point"}, "id": "4B8BcUJH9Z5AT2cMZrXLGAUgZfU=", "properties": {"@spider": "usps_collection_boxes", "addr:city": "MONROEVILLE", "addr:country": "US", "addr:full": "16 N ALABAMA AVE", "addr:postcode": "36460", "addr:state": "AL", "brand": "USPS", "collection_times": "Mo-Fr 16:30; Sa 12:00", "name": "USPS COLLECTION BOX - PO LOBBY", "note": "ON 12/24 AND 12/31, THIS BOX MAY BE COLLECTED AS EARLY AS 12 NOON.", "ref": "3646000001"}, "type": "Feature"}
{"geometry": {"coordinates": [-87.32358382, 31.526513693], "type": "Point"}, "id": "2_pwNJoMitQfpOk6_CUk1kayrNk=", "properties": {"@spider": "usps_collection_boxes", "addr:city": "MONROEVILLE", "addr:country": "US", "addr:full": "107 E CLAIBORNE ST", "addr:postcode": "36460", "addr:state": "AL", "brand": "USPS", "collection_times": "Mo-Fr 16:30; Sa 12:00", "name": "USPS COLLECTION BOX - BLUE BOX", "note": "ON 12/24 AND 12/31, THIS BOX MAY BE COLLECTED AS EARLY AS 12 NOON.", "ref": "3646000002"}, "type": "Feature"}
{"geometry": {"coordinates": [-87.323791875, 31.526828424], "type": "Point"}, "id": "_dnUAquQcE6EnWkYXF1EMH_WlY8=", "properties": {"@spider": "usps_collection_boxes", "addr:city": "MONROEVILLE", "addr:country": "US", "addr:full": "16 N ALABAMA AVE", "addr:postcode": "36460", "addr:state": "AL", "brand": "USPS", "collection_times": "Mo-Fr 16:30; Sa 12:00", "name": "USPS COLLECTION BOX - PO LOBBY", "note": "ON 12/24 AND 12/31, THIS BOX MAY BE COLLECTED AS EARLY AS 12 NOON.", "ref": "3646000012"}, "type": "Feature"}
{"geometry": {"coordinates": [-87.4969578125, 31.5172747539], "type": "Point"}, "id": "CWjWADFKbj6ADWd11NfDdPoWxD4=", "properties": {"@spider": "usps_collection_boxes", "addr:city": "PERDUE HILL", "addr:country": "US", "addr:full": "10115 US HIGHWAY 84 W", "addr:postcode": "36470", "addr:state": "AL", "brand": "USPS", "collection_times": "Mo-Fr 11:15", "name": "USPS COLLECTION BOX - BLUE BOX", "ref": "3647000001"}, "type": "Feature"}
{"geometry": {"coordinates": [-87.496799999, 31.517073163], "type": "Point"}, "id": "xgsZwhFs8pRh4aV6q1nY31kMnYs=", "properties": {"@spider": "usps_collection_boxes", "addr:city": "PERDUE HILL", "addr:country": "US", "addr:full": "10111 US HIGHWAY 84 W", "addr:postcode": "36470", "addr:state": "AL", "brand": "USPS", "collection_times": "Mo-Fr 11:30", "name": "USPS COLLECTION BOX - PO LOBBY", "ref": "3647000002"}, "type": "Feature"}
{"geometry": {"coordinates": [-87.260435549, 31.582831528], "type": "Point"}, "id": "1bRuQPzOSiWrZG_p8u3Xr1iTAas=", "properties": {"@spider": "usps_collection_boxes", "addr:city": "PETERMAN", "addr:country": "US", "addr:full": "885 OLD PETERMAN HWY", "addr:postcode": "36471", "addr:state": "AL", "brand": "USPS", "collection_times": "Mo-Fr 11:45; Sa 10:45", "name": "USPS COLLECTION BOX - BLUE BOX", "ref": "3647100001"}, "type": "Feature"}
{"geometry": {"coordinates": [-87.260435549, 31.582831528], "type": "Point"}, "id": "lcPQD43uZ6qI8pyG5Ulz8UrcJcU=", "properties": {"@spider": "usps_collection_boxes", "addr:city": "PETERMAN", "addr:country": "US", "addr:full": "885 OLD PETERMAN HWY", "addr:postcode": "36471", "addr:state": "AL", "brand": "USPS", "collection_times": "Mo-Fr 11:45; Sa 11:00", "name": "USPS COLLECTION BOX - PO LOBBY", "ref": "3647100002"}, "type": "Feature"}
{"geometry": {"coordinates": [-87.2604355494, 31.5828315281], "type": "Point"}, "id": "VgAmfR0Asy7bpfp_RGQiaik6vXs=", "properties": {"@spider": "usps_collection_boxes", "addr:city": "PETERMAN", "addr:country": "US", "addr:full": "885 OLD PETERMAN HWY", "addr:postcode": "36471", "addr:state": "AL", "brand": "USPS", "collection_times": "Mo-Fr 12:00; Sa 11:00", "name": "USPS COLLECTION BOX - PO LOBBY", "ref": "3647100005"}, "type": "Feature"}
{"geometry": {"coordinates": [-86.612361797, 31.407212493], "type": "Point"}, "id": "RcD-_F30ECPSMEjgPh4uiiN19JM=", "properties": {"@spider": "usps_collection_boxes", "addr:city": "RED LEVEL", "addr:country": "US", "addr:full": "28906 SMILEY ST", "addr:postcode": "36474", "addr:state": "AL", "brand": "USPS", "collection_times": "Mo-Fr 14:00; Sa 10:00", "name": "USPS COLLECTION BOX - BLUE BOX", "note": "ON 12/24 AND 12/31, THIS BOX MAY BE COLLECTED AS EARLY AS 12 NOON.", "ref": "3647400001"}, "type": "Feature"}
{"geometry": {"coordinates": [-86.612361797, 31.407212493], "type": "Point"}, "id": "_1pQ8tDdbw6lt7V2ghf95Ft1Xpg=", "properties": {"@spider": "usps_collection_boxes", "addr:city": "RED LEVEL", "addr:country": "US", "addr:full": "28906 SMILEY ST", "addr:postcode": "36474", "addr:state": "AL", "brand": "USPS", "collection_times": "Mo-Fr 14:00; Sa 10:00", "name": "USPS COLLECTION BOX - PO LOBBY", "note": "ON 12/24 AND 12/31, THIS BOX MAY BE COLLECTED AS EARLY AS 12 NOON.", "ref": "3647400002"}, "type": "Feature"}
{"geometry": {"coordinates": [-86.612361797, 31.407212493], "type": "Point"}, "id": "2Fo27pyMUGC4U8b_w6NTIYcNOjg=", "properties": {"@spider": "usps_collection_boxes", "addr:city": "RED LEVEL", "addr:country": "US", "addr:full": "28906 SMILEY ST", "addr:postcode": "36474", "addr:state": "AL", "brand": "USPS", "collection_times": "Mo-Fr 14:00; Sa 10:30", "name": "USPS COLLECTION BOX - PO LOBBY", "note": "ON 12/24 AND 12/31, THIS BOX MAY BE COLLECTED AS EARLY AS 12 NOON.", "ref": "3647400004"}, "type": "Feature"}
{"geometry": {"coordinates": [-87.243386249, 31.410524969], "type": "Point"}, "id": "9iE0QHUKujMysfeUf3bt-t2ki_M=", "properties": {"@spider": "usps_collection_boxes", "addr:city": "REPTON", "addr:country": "US", "addr:full": "1801 CONALY ST", "addr:postcode": "36475", "addr:state": "AL", "brand": "USPS", "collection_times": "Mo-Fr 14:45; Sa 10:45", "name": "USPS COLLECTION BOX - BLUE BOX", "note": "ON 12/24 AND 12/31, THIS BOX MAY BE COLLECTED AS EARLY AS 12 NOON.", "ref": "3647500002"}, "type": "Feature"}
{"geometry": {"coordinates": [-87.243386249, 31.410524969], "type": "Point"}, "id": "1DXOz3pFT2ZQeE-IKQreJEOGcGY=", "properties": {"@spider": "usps_collection_boxes", "addr:city": "REPTON", "addr:country": "US", "addr:full": "1801 CONALY ST", "addr:postcode": "36475", "addr:state": "AL", "brand": "USPS", "collection_times": "Mo-Fr 14:45; Sa 10:45", "name": "USPS COLLECTION BOX - PO LOBBY", "note": "ON 12/24 AND 12/31, THIS BOX MAY BE COLLECTED AS EARLY AS 12 NOON.", "ref": "3647500003"}, "type": "Feature"}
{"geometry": {"coordinates": [-87.243386249, 31.410524969], "type": "Point"}, "id": "nqSlCSf8mGdS_9MgL4oOkEeEke0=", "properties": {"@spider": "usps_collection_boxes", "addr:city": "REPTON", "addr:country": "US", "addr:full": "1801 CONALY ST", "addr:postcode": "36475", "addr:state": "AL", "brand": "USPS", "collection_times": "Mo-Fr 15:00; Sa 10:45", "name": "USPS COLLECTION BOX - PO LOBBY", "note": "ON 12/24 AND 12/31, THIS BOX MAY BE COLLECTED AS EARLY AS 12 NOON.", "ref": "3647500005"}, "type": "Feature"}
{"geometry": {"coordinates": [-87.503347928, 31.305826588], "type": "Point"}, "id": "EohFZip_4VdiadZpfjJd7tcxFDs=", "properties": {"@spider": "usps_collection_boxes", "addr:city": "URIAH", "addr:country": "US", "addr:full": "77 CEMETERY ST", "addr:postcode": "36480", "addr:state": "AL", "brand": "USPS", "collection_times": "Mo-Fr 13:45; Sa 09:00", "name": "USPS COLLECTION BOX - BLUE BOX", "note": "ON 12/24 AND 12/31, THIS BOX MAY BE COLLECTED AS EARLY AS 12 NOON.", "ref": "3648000001"}, "type": "Feature"}
{"geometry": {"coordinates": [-87.503347928, 31.305826588], "type": "Point"}, "id": "TMvmyBIy1GZ1CLd8C_Yl0WSC2DE=", "properties": {"@spider": "usps_collection_boxes", "addr:city": "URIAH", "addr:country": "US", "addr:full": "77 CEMETERY ST", "addr:postcode": "36480", "addr:state": "AL", "brand": "USPS", "collection_times": "Mo-Fr 13:45; Sa 09:00", "name": "USPS COLLECTION BOX - PO LOBBY", "note": "ON 12/24 AND 12/31, THIS BOX MAY BE COLLECTED AS EARLY AS 12 NOON.", "ref": "3648000002"}, "type": "Feature"}
{"geometry": {"coordinates": [-87.503347928, 31.305826588], "type": "Point"}, "id": "NBEIaGvtAF5pbZdDtMzr5z8DKrc=", "properties": {"@spider": "usps_collection_boxes", "addr:city": "URIAH", "addr:country": "US", "addr:full": "77 CEMETERY ST", "addr:postcode": "36480", "addr:state": "AL", "brand": "USPS", "collection_times": "Mo-Fr 14:00; Sa 09:00", "name": "USPS COLLECTION BOX - PO LOBBY", "note": "ON 12/24 AND 12/31, THIS BOX MAY BE COLLECTED AS EARLY AS 12 NOON.", "ref": "3648000004"}, "type": "Feature"}
{"geometry": {"coordinates": [-87.3156890952, 31.8202722977], "type": "Point"}, "id": "-FSM9ik7lSKrf1CDBs5EdiBN8zQ=", "properties": {"@spider": "usps_collection_boxes", "addr:city": "VREDENBURGH", "addr:country": "US", "addr:full": "34 CHURCH ST", "addr:postcode": "36481", "addr:state": "AL", "brand": "USPS", "collection_times": "Mo-Fr 11:45; Sa 09:00", "name": "USPS COLLECTION BOX - BLUE BOX", "ref": "3648100001"}, "type": "Feature"}
{"geometry": {"coordinates": [-87.315689095, 31.820272298], "type": "Point"}, "id": "lvDljH1LHdGvWnK_cajvkx0HqVI=", "properties": {"@spider": "usps_collection_boxes", "addr:city": "VREDENBURGH", "addr:country": "US", "addr:full": "34 CHURCH ST", "addr:postcode": "36481", "addr:state": "AL", "brand": "USPS", "collection_times": "Mo-Fr 11:45; Sa 09:00", "name": "USPS COLLECTION BOX - PO LOBBY", "ref": "3648100002"}, "type": "Feature"}
{"geometry": {"coordinates": [-87.315689095, 31.820272298], "type": "Point"}, "id": "tG21Yj9X2AojAWgYrZRwsOAAVG0=", "properties": {"@spider": "usps_collection_boxes", "addr:city": "VREDENBURGH", "addr:country": "US", "addr:full": "34 CHURCH ST", "addr:postcode": "36481", "addr:state": "AL", "brand": "USPS", "collection_times": "Mo-Fr 12:00; Sa 09:30", "name": "USPS COLLECTION BOX - PO LOBBY", "ref": "3648100003"}, "type": "Feature"}
{"geometry": {"coordinates": [-87.705979355, 31.650435915], "type": "Point"}, "id": "tSjDcpswVuwPsawnceT8x6m1d6c=", "properties": {"@spider": "usps_collection_boxes", "addr:city": "WHATLEY", "addr:country": "US", "addr:full": "1009 MAIN ST", "addr:postcode": "36482", "addr:state": "AL", "brand": "USPS", "collection_times": "Mo-Fr 13:45", "name": "USPS COLLECTION BOX - PO LOBBY", "note": "ON 12/24 AND 12/31, THIS BOX MAY BE COLLECTED AS EARLY AS 12 NOON.", "ref": "3648200001"}, "type": "Feature"}
{"geometry": {"coordinates": [-87.7059793547, 31.6504359154], "type": "Point"}, "id": "EhrdtWyZRdr26GuU0I0-X8WoY30=", "properties": {"@spider": "usps_collection_boxes", "addr:city": "WHATLEY", "addr:country": "US", "addr:full": "1009 MAIN ST", "addr:postcode": "36482", "addr:state": "AL", "brand": "USPS", "collection_times": "Mo-Fr 13:45", "name": "USPS COLLECTION BOX - PO LOBBY", "note": "ON 12/24 AND 12/31, THIS BOX MAY BE COLLECTED AS EARLY AS 12 NOON.", "ref": "3648200004"}, "type": "Feature"}
