{"geometry": {"coordinates": [-83.972582, 35.766661], "type": "Point"}, "id": "3rz43VnE3xPI9vilBfYp2wSYFww=", "properties": {"@spider": "usps_collection_boxes", "addr:city": "ALCOA", "addr:country": "US", "addr:full": "108 S HALL RD", "addr:postcode": "37701", "addr:state": "TN", "brand": "USPS", "collection_times": "Mo-Fr 16:30; Sa 12:00", "name": "USPS COLLECTION BOX - BLUE BOX", "note": "ON 12/24 AND 12/31, THIS BOX MAY BE COLLECTED AS EARLY AS 12 NOON.", "ref": "3770100009"}, "type": "Feature"}
{"geometry": {"coordinates": [-83.972608, 35.766738], "type": "Point"}, "id": "cC2FxPJESdrmiJ79apVf5Ta2bb8=", "properties": {"@spider": "usps_collection_boxes", "addr:city": "ALCOA", "addr:country": "US", "addr:full": "108 S HALL RD", "addr:postcode": "37701", "addr:state": "TN", "brand": "USPS", "collection_times": "Mo-Fr 16:30; Sa 12:00", "name": "USPS COLLECTION BOX - BLUE BOX", "note": "ON 12/24 AND 12/31, THIS BOX MAY BE COLLECTED AS EARLY AS 12 NOON.", "ref": "3770100010"}, "type": "Feature"}
{"geometry": {"coordinates": [-83.972608, 35.766738], "type": "Point"}, "id": "IHlG0m5qx_bQnslV4Fog2_6aHSE=", "properties": {"@spider": "usps_collection_boxes", "addr:city": "ALCOA", "addr:country": "US", "addr:full": "108 S HALL RD", "addr:postcode": "37701", "addr:state": "TN", "brand": "USPS", "collection_times": "Mo-Fr 16:30; Sa 12:00", "name": "USPS COLLECTION BOX - BLUE BOX", "note": "ON 12/24 AND 12/31, THIS BOX MAY BE COLLECTED AS EARLY AS 12 NOON.", "ref": "3770100011"}, "type": "Feature"}
{"geometry": {"coordinates": [-83.972608, 35.766738], "type": "Point"}, "id": "r5P8WnLDNDv9WU3uJdIMpCo1RpQ=", "properties": {"@spider": "usps_collection_boxes", "addr:city": "ALCOA", "addr:country": "US", "addr:full": "108 S HALL RD", "addr:postcode": "37701", "addr:state": "TN", "brand": "USPS", "collection_times": "Mo-Fr 16:30; Sa 12:00", "name": "USPS COLLECTION BOX - BLUE BOX", "note": "ON 12/24 AND 12/31, THIS BOX MAY BE COLLECTED AS EARLY AS 12 NOON.", "ref": "3770100012"}, "type": "Feature"}
{"geometry": {"coordinates": [-83.9792855, 35.815005], "type": "Point"}, "id": "NPILwcAPG8gSW3Dl9BFclDsIksg=", "properties": {"@spider": "usps_collection_boxes", "addr:city": "ALCOA", "addr:country": "US", "addr:full": "186 AIRPORT PLAZA BLVD", "addr:postcode": "37701", "addr:state": "TN", "brand": "USPS", "collection_times": "Mo-Sa 09:00", "name": "USPS COLLECTION BOX - BLUE BOX", "ref": "3770100013"}, "type": "Feature"}
{"geometry": {"coordinates": [-83.972608, 35.766738], "type": "Point"}, "id": "h9yVIGIPzu_7TX3I_IE2jeY9okk=", "properties": {"@spider": "usps_collection_boxes", "addr:city": "ALCOA", "addr:country": "US", "addr:full": "108 S HALL RD", "addr:postcode": "37701", "addr:state": "TN", "brand": "USPS", "collection_times": "Mo-Fr 16:30; Sa 12:00", "name": "USPS COLLECTION BOX - PO LOBBY", "note": "ON 12/24 AND 12/31, THIS BOX MAY BE COLLECTED AS EARLY AS 12 NOON.", "ref": "3770100014"}, "type": "Feature"}
{"geometry": {"coordinates": [-83.972608, 35.766738], "type": "Point"}, "id": "nxjSHSOlopTkVU4eJvBQzEzhUTI=", "properties": {"@spider": "usps_collection_boxes", "addr:city": "ALCOA", "addr:country": "US", "addr:full": "108 S HALL RD", "addr:postcode": "37701", "addr:state": "TN", "brand": "USPS", "collection_times": "Mo-Fr 16:30; Sa 12:00", "name": "USPS COLLECTION BOX - PO LOBBY", "note": "ON 12/24 AND 12/31, THIS BOX MAY BE COLLECTED AS EARLY AS 12 NOON.", "ref": "3770100015"}, "type": "Feature"}
{"geometry": {"coordinates": [-83.9905911, 35.769531], "type": "Point"}, "id": "ULbqb9XLWdzaVHCdFKm1Pd5ck_M=", "properties": {"@spider": "usps_collection_boxes", "addr:city": "ALCOA", "addr:country": "US", "addr:full": "875 LOUISVILLE RD", "addr:postcode": "37701", "addr:state": "TN", "brand": "USPS", "collection_times": "Mo-Sa 09:00", "name": "USPS COLLECTION BOX - BLUE BOX", "ref": "3770100016"}, "type": "Feature"}
{"geometry": {"coordinates": [-83.9709388, 35.831965], "type": "Point"}, "id": "Zh05xI4e6DxCKGeqwkXMsRlagm4=", "properties": {"@spider": "usps_collection_boxes", "addr:city": "ALCOA", "addr:country": "US", "addr:full": "3401 RUSS CIR", "addr:postcode": "37701", "addr:state": "TN", "brand": "USPS", "collection_times": "Mo-Sa 10:00", "name": "USPS COLLECTION BOX - BLUE BOX", "ref": "3770100017"}, "type": "Feature"}
{"geometry": {"coordinates": [-83.9898147, 35.80553], "type": "Point"}, "id": "R543jzKq-e2HjD0rUW_cGJW7dZQ=", "properties": {"@spider": "usps_collection_boxes", "addr:city": "ALCOA", "addr:country": "US", "addr:full": "2055 ALCOA HWY", "addr:postcode": "37701", "addr:state": "TN", "brand": "USPS", "collection_times": "Mo-Sa 10:00", "name": "USPS COLLECTION BOX - BLUE BOX", "ref": "3770100018"}, "type": "Feature"}
{"geometry": {"coordinates": [-83.9766417, 35.825708], "type": "Point"}, "id": "pq7vohMhxXgynYWCTi53XNelGEs=", "properties": {"@spider": "usps_collection_boxes", "addr:city": "ALCOA", "addr:country": "US", "addr:full": "3051 AIRPORT HWY", "addr:postcode": "37701", "addr:state": "TN", "brand": "USPS", "collection_times": "Mo-Sa 10:00", "name": "USPS COLLECTION BOX - BLUE BOX", "ref": "3770100020"}, "type": "Feature"}
{"geometry": {"coordinates": [-83.9898769, 35.782571], "type": "Point"}, "id": "J7RwbPmJygSMfvkG-8rIZNRNkMY=", "properties": {"@spider": "usps_collection_boxes", "addr:city": "ALCOA", "addr:country": "US", "addr:full": "110 ASSOCIATES BLVD", "addr:postcode": "37701", "addr:state": "TN", "brand": "USPS", "collection_times": "Mo-Sa 10:00", "name": "USPS COLLECTION BOX - BLUE BOX", "ref": "3770100021"}, "type": "Feature"}
{"geometry": {"coordinates": [-84.029324, 36.203317], "type": "Point"}, "id": "qadoQtJPBCpN1dpD4dZ3AqWjmTk=", "properties": {"@spider": "usps_collection_boxes", "addr:city": "ANDERSONVILLE", "addr:country": "US", "addr:full": "4134 ANDERSONVILLE HWY", "addr:postcode": "37705", "addr:state": "TN", "brand": "USPS", "collection_times": "Mo-Fr 15:45; Sa 09:45", "name": "USPS COLLECTION BOX - BLUE BOX", "note": "ON 12/24 AND 12/31, THIS BOX MAY BE COLLECTED AS EARLY AS 12 NOON.", "ref": "3770500001"}, "type": "Feature"}
{"geometry": {"coordinates": [-84.029306, 36.203361], "type": "Point"}, "id": "w_AZc8-6Sg9TThSUAVpE5ZDW2Cg=", "properties": {"@spider": "usps_collection_boxes", "addr:city": "ANDERSONVILLE", "addr:country": "US", "addr:full": "4134 ANDERSONVILLE HWY", "addr:postcode": "37705", "addr:state": "TN", "brand": "USPS", "collection_times": "Mo-Fr 16:00; Sa 09:45", "name": "USPS COLLECTION BOX - PO LOBBY", "note": "ON 12/24 AND 12/31, THIS BOX MAY BE COLLECTED AS EARLY AS 12 NOON.", "ref": "3770500002"}, "type": "Feature"}
{"geometry": {"coordinates": [-83.293388, 36.345455], "type": "Point"}, "id": "Ou5EWdJDZmhsBYKvXYqsJJuxm8M=", "properties": {"@spider": "usps_collection_boxes", "addr:city": "BEAN STATION", "addr:country": "US", "addr:full": "340 MAIN ST", "addr:postcode": "37708", "addr:state": "TN", "brand": "USPS", "collection_times": "Mo-Fr 16:00; Sa 10:00", "name": "USPS COLLECTION BOX - PO LOBBY", "note": "ON 12/24 AND 12/31, THIS BOX MAY BE COLLECTED AS EARLY AS 12 NOON.", "ref": "3770800001"}, "type": "Feature"}
{"geometry": {"coordinates": [-83.293352, 36.345478], "type": "Point"}, "id": "Yw2LsDGkH1dC1IWF7mV3GQ_ggV8=", "properties": {"@spider": "usps_collection_boxes", "addr:city": "BEAN STATION", "addr:country": "US", "addr:full": "340 MAIN ST", "addr:postcode": "37708", "addr:state": "TN", "brand": "USPS", "collection_times": "Mo-Fr 15:45; Sa 10:00", "name": "USPS COLLECTION BOX - BLUE BOX", "note": "ON 12/24 AND 12/31, THIS BOX MAY BE COLLECTED AS EARLY AS 12 NOON.", "ref": "3770800002"}, "type": "Feature"}
{"geometry": {"coordinates": [-83.3106858, 36.312874], "type": "Point"}, "id": "0qSnxOenVlKc21W60gRA8HzY-90=", "properties": {"@spider": "usps_collection_boxes", "addr:city": "BEAN STATION", "addr:country": "US", "addr:full": "1024 LAKESHORE DR", "addr:postcode": "37708", "addr:state": "TN", "brand": "USPS", "collection_times": "Mo-Sa 11:00", "name": "USPS COLLECTION BOX - BLUE BOX", "ref": "3770800003"}, "type": "Feature"}
{"geometry": {"coordinates": [-83.702857, 36.156101], "type": "Point"}, "id": "I0lpKFbfOx-jOnG6wjCg33vEsng=", "properties": {"@spider": "usps_collection_boxes", "addr:city": "BLAINE", "addr:country": "US", "addr:full": "1006 RUTLEDGE PIKE", "addr:postcode": "37709", "addr:state": "TN", "brand": "USPS", "collection_times": "Mo-Fr 15:00; Sa 09:00", "name": "USPS COLLECTION BOX - PO LOBBY", "note": "ON 12/24 AND 12/31, THIS BOX MAY BE COLLECTED AS EARLY AS 12 NOON.", "ref": "3770900001"}, "type": "Feature"}
{"geometry": {"coordinates": [-83.702937, 36.156053], "type": "Point"}, "id": "p3eB-p2Y2f6OGSuGssYEHT86w0E=", "properties": {"@spider": "usps_collection_boxes", "addr:city": "BLAINE", "addr:country": "US", "addr:full": "1006 RUTLEDGE PIKE", "addr:postcode": "37709", "addr:state": "TN", "brand": "USPS", "collection_times": "Mo-Fr 15:00; Sa 09:00", "name": "USPS COLLECTION BOX - BLUE BOX", "note": "ON 12/24 AND 12/31, THIS BOX MAY BE COLLECTED AS EARLY AS 12 NOON.", "ref": "3770900002"}, "type": "Feature"}
{"geometry": {"coordinates": [-84.182251, 36.17986], "type": "Point"}, "id": "-TxIDip0ys7NsSFL7N5R-XqL-ew=", "properties": {"@spider": "usps_collection_boxes", "addr:city": "BRICEVILLE", "addr:country": "US", "addr:full": "1410 BRICEVILLE HWY", "addr:postcode": "37710", "addr:state": "TN", "brand": "USPS", "collection_times": "Mo-Fr 12:00; Sa 11:00", "name": "USPS COLLECTION BOX - BLUE BOX", "ref": "3771000001"}, "type": "Feature"}
{"geometry": {"coordinates": [-84.182209, 36.180588], "type": "Point"}, "id": "xMRrpmxP8Fsig3Xgnr1c5Q_8J1k=", "properties": {"@spider": "usps_collection_boxes", "addr:city": "BRICEVILLE", "addr:country": "US", "addr:full": "1410 BRICEVILLE HWY", "addr:postcode": "37710", "addr:state": "TN", "brand": "USPS", "collection_times": "Mo-Fr 12:00; Sa 11:15", "name": "USPS COLLECTION BOX - PO LOBBY", "ref": "3771000002"}, "type": "Feature"}
{"geometry": {"coordinates": [-83.086984, 36.256853], "type": "Point"}, "id": "k9vMTVvHUbcbIa_K1CQXhhiatf0=", "properties": {"@spider": "usps_collection_boxes", "addr:city": "BULLS GAP", "addr:country": "US", "addr:full": "410 HIGHWAY 11 E", "addr:postcode": "37711", "addr:state": "TN", "brand": "USPS", "collection_times": "Mo-Fr 16:15; Sa 10:15", "name": "USPS COLLECTION BOX - BLUE BOX", "note": "ON 12/24 AND 12/31, THIS BOX MAY BE COLLECTED AS EARLY AS 12 NOON.", "ref": "3771100001"}, "type": "Feature"}
{"geometry": {"coordinates": [-83.087008, 36.256832], "type": "Point"}, "id": "3tcXPD9f0kSYImiZ9NKZMyprVno=", "properties": {"@spider": "usps_collection_boxes", "addr:city": "BULLS GAP", "addr:country": "US", "addr:full": "410 HIGHWAY 11 E", "addr:postcode": "37711", "addr:state": "TN", "brand": "USPS", "collection_times": "Mo-Fr 16:30; Sa 10:30", "name": "USPS COLLECTION BOX - PO LOBBY", "note": "ON 12/24 AND 12/31, THIS BOX MAY BE COLLECTED AS EARLY AS 12 NOON.", "ref": "3771100002"}, "type": "Feature"}
{"geometry": {"coordinates": [-83.163429, 36.106562], "type": "Point"}, "id": "Q8TF4Rm-Isc6-Whv1GiK10Gv-v0=", "properties": {"@spider": "usps_collection_boxes", "addr:city": "BYBEE", "addr:country": "US", "addr:full": "1580 HIGHWAY 160", "addr:postcode": "37713", "addr:state": "TN", "brand": "USPS", "collection_times": "Mo-Fr 11:30; Sa 09:45", "name": "USPS COLLECTION BOX - BLUE BOX", "ref": "3771300001"}, "type": "Feature"}
{"geometry": {"coordinates": [-83.163429, 36.106562], "type": "Point"}, "id": "NXmU4llmDWDUQk3N17olJS63ryI=", "properties": {"@spider": "usps_collection_boxes", "addr:city": "BYBEE", "addr:country": "US", "addr:full": "1580 HIGHWAY 160", "addr:postcode": "37713", "addr:state": "TN", "brand": "USPS", "collection_times": "Mo-Fr 11:30; Sa 09:45", "name": "USPS COLLECTION BOX - PO LOBBY", "ref": "3771300002"}, "type": "Feature"}
{"geometry": {"coordinates": [-84.218112, 36.298482], "type": "Point"}, "id": "c7NARww2M3v_iaprk2LifPIAipM=", "properties": {"@spider": "usps_collection_boxes", "addr:city": "CARYVILLE", "addr:country": "US", "addr:full": "107 HILL LN", "addr:postcode": "37714", "addr:state": "TN", "brand": "USPS", "collection_times": "Mo-Fr 16:00; Sa 11:00", "name": "USPS COLLECTION BOX - BLUE BOX", "note": "ON 12/24 AND 12/31, THIS BOX MAY BE COLLECTED AS EARLY AS 12 NOON.", "ref": "3771400001"}, "type": "Feature"}
{"geometry": {"coordinates": [-84.218114, 36.29854], "type": "Point"}, "id": "j1-UOBdkw44GvUwAQWqy57WTNLw=", "properties": {"@spider": "usps_collection_boxes", "addr:city": "CARYVILLE", "addr:country": "US", "addr:full": "107 HILL LN", "addr:postcode": "37714", "addr:state": "TN", "brand": "USPS", "collection_times": "Mo-Fr 16:00; Sa 11:00", "name": "USPS COLLECTION BOX - PO LOBBY", "note": "ON 12/24 AND 12/31, THIS BOX MAY BE COLLECTED AS EARLY AS 12 NOON.", "ref": "3771400002"}, "type": "Feature"}
{"geometry": {"coordinates": [-83.942541, 36.558115], "type": "Point"}, "id": "_1XnACcfj4Tq4I6nEjSJzqEwBk4=", "properties": {"@spider": "usps_collection_boxes", "addr:city": "CLAIRFIELD", "addr:country": "US", "addr:full": "5671 HIGHWAY 90", "addr:postcode": "37715", "addr:state": "TN", "brand": "USPS", "collection_times": "Mo-Fr 12:00; Sa 10:00", "name": "USPS COLLECTION BOX - BLUE BOX", "ref": "3771500001"}, "type": "Feature"}
{"geometry": {"coordinates": [-83.942442, 36.558138], "type": "Point"}, "id": "1fxCrK690UI8yCvTALLiyRXAC_4=", "properties": {"@spider": "usps_collection_boxes", "addr:city": "CLAIRFIELD", "addr:country": "US", "addr:full": "5671 HIGHWAY 90", "addr:postcode": "37715", "addr:state": "TN", "brand": "USPS", "collection_times": "Mo-Fr 12:00; Sa 10:00", "name": "USPS COLLECTION BOX - PO LOBBY", "ref": "3771500002"}, "type": "Feature"}
{"geometry": {"coordinates": [-84.1163899, 36.119205], "type": "Point"}, "id": "h5mOFBcbKWqoKzct9gSw3hNpw1k=", "properties": {"@spider": "usps_collection_boxes", "addr:city": "CLINTON", "addr:country": "US", "addr:full": "1121 N CHARLES G SEIVERS BLVD", "addr:postcode": "37716", "addr:state": "TN", "brand": "USPS", "collection_times": "Mo-Fr 17:00; Sa 12:00", "name": "USPS COLLECTION BOX - BLUE BOX", "note": "ON 12/24 AND 12/31, THIS BOX MAY BE COLLECTED AS EARLY AS 12 NOON.", "ref": "3771600002"}, "type": "Feature"}
{"geometry": {"coordinates": [-84.1334442, 36.100393], "type": "Point"}, "id": "vy5PY2vuuu2LGfldT-TUPp--6Ig=", "properties": {"@spider": "usps_collection_boxes", "addr:city": "CLINTON", "addr:country": "US", "addr:full": "100 N MAIN ST", "addr:postcode": "37716", "addr:state": "TN", "brand": "USPS", "collection_times": "Mo-Fr 14:00; Sa 12:00", "name": "USPS COLLECTION BOX - BLUE BOX", "note": "ON 12/24 AND 12/31, THIS BOX MAY BE COLLECTED AS EARLY AS 12 NOON.", "ref": "3771600005"}, "type": "Feature"}
{"geometry": {"coordinates": [-84.133461, 36.100376], "type": "Point"}, "id": "3p_zWkUedN9fxATDjDbvvaFiaaY=", "properties": {"@spider": "usps_collection_boxes", "addr:city": "CLINTON", "addr:country": "US", "addr:full": "100 N MAIN ST", "addr:postcode": "37716", "addr:state": "TN", "brand": "USPS", "collection_times": "Mo-Fr 14:00; Sa 12:00", "name": "USPS COLLECTION BOX - BLUE BOX", "note": "ON 12/24 AND 12/31, THIS BOX MAY BE COLLECTED AS EARLY AS 12 NOON.", "ref": "3771600006"}, "type": "Feature"}
{"geometry": {"coordinates": [-84.140627, 36.090772], "type": "Point"}, "id": "brxmhScuf_4gZk9IHfrjQwodga0=", "properties": {"@spider": "usps_collection_boxes", "addr:city": "CLINTON", "addr:country": "US", "addr:full": "507 S CHARLES G SEIVERS BLVD", "addr:postcode": "37716", "addr:state": "TN", "brand": "USPS", "collection_times": "Mo-Fr 14:00; Sa 12:00", "name": "USPS COLLECTION BOX - BLUE BOX", "note": "ON 12/24 AND 12/31, THIS BOX MAY BE COLLECTED AS EARLY AS 12 NOON.", "ref": "3771600007"}, "type": "Feature"}
{"geometry": {"coordinates": [-84.1316424, 36.08269], "type": "Point"}, "id": "rb_yPCYHUPoizbra1a99HvKH5AI=", "properties": {"@spider": "usps_collection_boxes", "addr:city": "CLINTON", "addr:country": "US", "addr:full": "512 CLINCH AVE", "addr:postcode": "37716", "addr:state": "TN", "brand": "USPS", "collection_times": "Mo-Sa 12:00", "name": "USPS COLLECTION BOX - BLUE BOX", "ref": "3771600016"}, "type": "Feature"}
{"geometry": {"coordinates": [-84.1483794, 36.028205], "type": "Point"}, "id": "qAb7A-NFkG78A-tpCEhN7yMAip4=", "properties": {"@spider": "usps_collection_boxes", "addr:city": "CLINTON", "addr:country": "US", "addr:full": "1060 EDGEMOOR RD", "addr:postcode": "37716", "addr:state": "TN", "brand": "USPS", "collection_times": "Mo-Sa 12:00", "name": "USPS COLLECTION BOX - BLUE BOX", "ref": "3771600017"}, "type": "Feature"}
{"geometry": {"coordinates": [-84.1160543, 36.119006], "type": "Point"}, "id": "kQpwGTdLIA5XVATMGI4FRKoLmKE=", "properties": {"@spider": "usps_collection_boxes", "addr:city": "CLINTON", "addr:country": "US", "addr:full": "1121 N CHARLES G SEIVERS BLVD", "addr:postcode": "37716", "addr:state": "TN", "brand": "USPS", "collection_times": "Mo-Fr 17:00; Sa 12:00", "name": "USPS COLLECTION BOX - PO LOBBY", "note": "ON 12/24 AND 12/31, THIS BOX MAY BE COLLECTED AS EARLY AS 12 NOON.", "ref": "3771600019"}, "type": "Feature"}
{"geometry": {"coordinates": [-84.414977, 36.03373], "type": "Point"}, "id": "5p75wPj681k_cX1ZTAiiypM4_Ao=", "properties": {"@spider": "usps_collection_boxes", "addr:city": "COALFIELD", "addr:country": "US", "addr:full": "5707 KNOXVILLE HWY", "addr:postcode": "37719", "addr:state": "TN", "brand": "USPS", "collection_times": "Mo-Fr 14:00; Sa 11:15", "name": "USPS COLLECTION BOX - BLUE BOX", "note": "ON 12/24 AND 12/31, THIS BOX MAY BE COLLECTED AS EARLY AS 12 NOON.", "ref": "3771900000"}, "type": "Feature"}
{"geometry": {"coordinates": [-83.7805249, 36.153447], "type": "Point"}, "id": "K3aCSLjGYwr2JerE0mTKC6LRy6U=", "properties": {"@spider": "usps_collection_boxes", "addr:city": "CORRYTON", "addr:country": "US", "addr:full": "7713 CORRYTON RD", "addr:postcode": "37721", "addr:state": "TN", "brand": "USPS", "collection_times": "Mo-Fr 15:45; Sa 10:15", "name": "USPS COLLECTION BOX - BLUE BOX", "note": "ON 12/24 AND 12/31, THIS BOX MAY BE COLLECTED AS EARLY AS 12 NOON.", "ref": "3772100001"}, "type": "Feature"}
{"geometry": {"coordinates": [-83.7806024, 36.153483], "type": "Point"}, "id": "EZIzTA4nr-q-0Nt0x7o_6J-7o8w=", "properties": {"@spider": "usps_collection_boxes", "addr:city": "CORRYTON", "addr:country": "US", "addr:full": "7713 CORRYTON RD", "addr:postcode": "37721", "addr:state": "TN", "brand": "USPS", "collection_times": "Mo-Fr 16:00; Sa 10:00", "name": "USPS COLLECTION BOX - PO LOBBY", "note": "ON 12/24 AND 12/31, THIS BOX MAY BE COLLECTED AS EARLY AS 12 NOON.", "ref": "3772100002"}, "type": "Feature"}
{"geometry": {"coordinates": [-83.8550259, 36.117332], "type": "Point"}, "id": "TmSyK2vfpFh_EH5F-fMfHuBVlq4=", "properties": {"@spider": "usps_collection_boxes", "addr:city": "CORRYTON", "addr:country": "US", "addr:full": "7335 TAZEWELL PIKE", "addr:postcode": "37721", "addr:state": "TN", "brand": "USPS", "collection_times": "Mo-Fr 08:30", "name": "USPS COLLECTION BOX - BLUE BOX", "ref": "3772100003"}, "type": "Feature"}
{"geometry": {"coordinates": [-83.235938, 35.793717], "type": "Point"}, "id": "HDwtgvsmNB8gWAsfwae3sFdPEQM=", "properties": {"@spider": "usps_collection_boxes", "addr:city": "COSBY", "addr:country": "US", "addr:full": "4402 HOOPER HWY", "addr:postcode": "37722", "addr:state": "TN", "brand": "USPS", "collection_times": "Mo-Fr 15:45; Sa 10:30", "name": "USPS COLLECTION BOX - PO LOBBY", "note": "ON 12/24 AND 12/31, THIS BOX MAY BE COLLECTED AS EARLY AS 12 NOON.", "ref": "3772200001"}, "type": "Feature"}
{"geometry": {"coordinates": [-83.235885, 35.793794], "type": "Point"}, "id": "KlkP8gT7Pvi2Jgsf1G7HRTMwmZk=", "properties": {"@spider": "usps_collection_boxes", "addr:city": "COSBY", "addr:country": "US", "addr:full": "4402 HOOPER HWY", "addr:postcode": "37722", "addr:state": "TN", "brand": "USPS", "collection_times": "Mo-Fr 15:45; Sa 10:30", "name": "USPS COLLECTION BOX - BLUE BOX", "note": "ON 12/24 AND 12/31, THIS BOX MAY BE COLLECTED AS EARLY AS 12 NOON.", "ref": "3772200003"}, "type": "Feature"}
{"geometry": {"coordinates": [-84.87717, 35.908851], "type": "Point"}, "id": "JYarclA4tud0LwPytl32D-x7XHA=", "properties": {"@spider": "usps_collection_boxes", "addr:city": "CRAB ORCHARD", "addr:country": "US", "addr:full": "154 MAIN ST", "addr:postcode": "37723", "addr:state": "TN", "brand": "USPS", "collection_times": "Mo-Fr 12:00; Sa 11:30", "name": "USPS COLLECTION BOX - BLUE BOX", "ref": "3772300001"}, "type": "Feature"}
{"geometry": {"coordinates": [-84.87717, 35.908851], "type": "Point"}, "id": "bXDnZguL1s8VYjY7nBP8jzPZI2c=", "properties": {"@spider": "usps_collection_boxes", "addr:city": "CRAB ORCHARD", "addr:country": "US", "addr:full": "154 MAIN ST", "addr:postcode": "37723", "addr:state": "TN", "brand": "USPS", "collection_times": "Mo-Fr 12:00; Sa 11:45", "name": "USPS COLLECTION BOX - PO LOBBY", "ref": "3772300002"}, "type": "Feature"}
{"geometry": {"coordinates": [-83.666862, 36.599155], "type": "Point"}, "id": "0DDxtI0sO3Ddf1DaJ0Z7Op1hsAQ=", "properties": {"@spider": "usps_collection_boxes", "addr:city": "CUMBERLAND GAP", "addr:country": "US", "addr:full": "530 COLWYN AVE", "addr:postcode": "37724", "addr:state": "TN", "brand": "USPS", "collection_times": "Mo-Fr 15:15; Sa 10:00", "name": "USPS COLLECTION BOX - BLUE BOX", "note": "ON 12/24 AND 12/31, THIS BOX MAY BE COLLECTED AS EARLY AS 12 NOON.", "ref": "3772400000"}, "type": "Feature"}
{"geometry": {"coordinates": [-83.666832, 36.599118], "type": "Point"}, "id": "3xoM-62XQogg5hW86GvL1rCuM_I=", "properties": {"@spider": "usps_collection_boxes", "addr:city": "CUMBERLAND GAP", "addr:country": "US", "addr:full": "530 COLWYN AVE", "addr:postcode": "37724", "addr:state": "TN", "brand": "USPS", "collection_times": "Mo-Fr 15:15; Sa 10:00", "name": "USPS COLLECTION BOX - PO LOBBY", "note": "ON 12/24 AND 12/31, THIS BOX MAY BE COLLECTED AS EARLY AS 12 NOON.", "ref": "3772400001"}, "type": "Feature"}
{"geometry": {"coordinates": [-83.4150099, 36.015331], "type": "Point"}, "id": "LZdoIMguZzzy4LYFEfP0fKR4CQQ=", "properties": {"@spider": "usps_collection_boxes", "addr:city": "DANDRIDGE", "addr:country": "US", "addr:full": "100 MAIN ST", "addr:postcode": "37725", "addr:state": "TN", "brand": "USPS", "collection_times": "Mo-Fr 13:00", "name": "USPS COLLECTION BOX - BLUE BOX", "note": "ON 12/24 AND 12/31, THIS BOX MAY BE COLLECTED AS EARLY AS 12 NOON.", "ref": "3772500001"}, "type": "Feature"}
{"geometry": {"coordinates": [-83.416891, 36.01712], "type": "Point"}, "id": "VcD6gRpfTouSmGPVnifg8LK7OGs=", "properties": {"@spider": "usps_collection_boxes", "addr:city": "DANDRIDGE", "addr:country": "US", "addr:full": "1130 ACADEMY CR", "addr:postcode": "37725", "addr:state": "TN", "brand": "USPS", "collection_times": "Mo-Fr 14:45; Sa 10:15", "name": "USPS COLLECTION BOX - BLUE BOX", "note": "ON 12/24 AND 12/31, THIS BOX MAY BE COLLECTED AS EARLY AS 12 NOON.", "ref": "3772500002"}, "type": "Feature"}
{"geometry": {"coordinates": [-83.416891, 36.017121], "type": "Point"}, "id": "Imt9TfLxKIDyHmTf4M9uavtmypk=", "properties": {"@spider": "usps_collection_boxes", "addr:city": "DANDRIDGE", "addr:country": "US", "addr:full": "1130 ACADEMY CR", "addr:postcode": "37725", "addr:state": "TN", "brand": "USPS", "collection_times": "Mo-Fr 14:45; Sa 10:15", "name": "USPS COLLECTION BOX - BLUE BOX", "note": "ON 12/24 AND 12/31, THIS BOX MAY BE COLLECTED AS EARLY AS 12 NOON.", "ref": "3772500003"}, "type": "Feature"}
{"geometry": {"coordinates": [-83.416891, 36.017121], "type": "Point"}, "id": "IX-uynQHTSwg0qi3rV3s3oENXH4=", "properties": {"@spider": "usps_collection_boxes", "addr:city": "DANDRIDGE", "addr:country": "US", "addr:full": "1130 ACADEMY CR", "addr:postcode": "37725", "addr:state": "TN", "brand": "USPS", "collection_times": "Mo-Fr 14:45; Sa 10:15", "name": "USPS COLLECTION BOX - BLUE BOX", "note": "ON 12/24 AND 12/31, THIS BOX MAY BE COLLECTED AS EARLY AS 12 NOON.", "ref": "3772500004"}, "type": "Feature"}
{"geometry": {"coordinates": [-83.416891, 36.017121], "type": "Point"}, "id": "o23m46BfT2IReSbd42LJDtIrPCg=", "properties": {"@spider": "usps_collection_boxes", "addr:city": "DANDRIDGE", "addr:country": "US", "addr:full": "1130 ACADEMY CR", "addr:postcode": "37725", "addr:state": "TN", "brand": "USPS", "collection_times": "Mo-Fr 16:30; Sa 11:00", "name": "USPS COLLECTION BOX - PO LOBBY", "note": "ON 12/24 AND 12/31, THIS BOX MAY BE COLLECTED AS EARLY AS 12 NOON.", "ref": "3772500007"}, "type": "Feature"}
{"geometry": {"coordinates": [-83.416891, 36.017121], "type": "Point"}, "id": "XVEjCPUItw5t4Evgt1CJdfRSkO4=", "properties": {"@spider": "usps_collection_boxes", "addr:city": "DANDRIDGE", "addr:country": "US", "addr:full": "1130 ACADEMY CR", "addr:postcode": "37725", "addr:state": "TN", "brand": "USPS", "collection_times": "Mo-Fr 16:30; Sa 11:00", "name": "USPS COLLECTION BOX - PO LOBBY", "note": "ON 12/24 AND 12/31, THIS BOX MAY BE COLLECTED AS EARLY AS 12 NOON.", "ref": "3772500008"}, "type": "Feature"}
{"geometry": {"coordinates": [-84.762804, 36.196915], "type": "Point"}, "id": "NFjHXGGfJG_AUz0KHImPpFecf5U=", "properties": {"@spider": "usps_collection_boxes", "addr:city": "DEER LODGE", "addr:country": "US", "addr:full": "2211 DEER LODGE HWY", "addr:postcode": "37726", "addr:state": "TN", "brand": "USPS", "collection_times": "Mo-Fr 11:30; Sa 10:00", "name": "USPS COLLECTION BOX - PO LOBBY", "ref": "3772600001"}, "type": "Feature"}
{"geometry": {"coordinates": [-84.762847, 36.196983], "type": "Point"}, "id": "i55Hzmq1aBhUNVY5HapEln6uYio=", "properties": {"@spider": "usps_collection_boxes", "addr:city": "DEER LODGE", "addr:country": "US", "addr:full": "2211 DEER LODGE HWY", "addr:postcode": "37726", "addr:state": "TN", "brand": "USPS", "collection_times": "Mo-Fr 11:30; Sa 10:00", "name": "USPS COLLECTION BOX - BLUE BOX", "ref": "3772600002"}, "type": "Feature"}
{"geometry": {"coordinates": [-83.021935, 35.926576], "type": "Point"}, "id": "M5uwLASTX-VKJ3DFTwY0aCXZyWs=", "properties": {"@spider": "usps_collection_boxes", "addr:city": "DEL RIO", "addr:country": "US", "addr:full": "3105 HIGHWAY 25 70 E", "addr:postcode": "37727", "addr:state": "TN", "brand": "USPS", "collection_times": "Mo-Fr 15:00; Sa 09:45", "name": "USPS COLLECTION BOX - BLUE BOX", "note": "ON 12/24 AND 12/31, THIS BOX MAY BE COLLECTED AS EARLY AS 12 NOON.", "ref": "3772700001"}, "type": "Feature"}
{"geometry": {"coordinates": [-83.022015, 35.926584], "type": "Point"}, "id": "BwpeiF3chF6HoU3PiljkuMXBYHw=", "properties": {"@spider": "usps_collection_boxes", "addr:city": "DEL RIO", "addr:country": "US", "addr:full": "3105 HIGHWAY 25 70 E", "addr:postcode": "37727", "addr:state": "TN", "brand": "USPS", "collection_times": "Mo-Fr 15:00; Sa 10:00", "name": "USPS COLLECTION BOX - PO LOBBY", "note": "ON 12/24 AND 12/31, THIS BOX MAY BE COLLECTED AS EARLY AS 12 NOON.", "ref": "3772700002"}, "type": "Feature"}
{"geometry": {"coordinates": [-83.975028, 36.554965], "type": "Point"}, "id": "P9vgieGUZyq0zlMc6WMRI75hN2A=", "properties": {"@spider": "usps_collection_boxes", "addr:city": "EAGAN", "addr:country": "US", "addr:full": "4183 HIGHWAY 90", "addr:postcode": "37730", "addr:state": "TN", "brand": "USPS", "collection_times": "Mo-Fr 15:45; Sa 13:30", "name": "USPS COLLECTION BOX - BLUE BOX", "note": "ON 12/24 AND 12/31, THIS BOX MAY BE COLLECTED AS EARLY AS 12 NOON.", "ref": "3773000001"}, "type": "Feature"}
{"geometry": {"coordinates": [-83.031101, 36.515229], "type": "Point"}, "id": "kK4ubL4hnhwA3Ivz1QMT8Jg8H0Q=", "properties": {"@spider": "usps_collection_boxes", "addr:country": "US", "addr:full": "3867 HIGHWAY 70 N", "addr:postcode": "37731", "brand": "USPS", "collection_times": "Mo-Fr 12:00; Sa 09:15", "name": "USPS COLLECTION BOX - BLUE BOX", "ref": "3773100001"}, "type": "Feature"}
{"geometry": {"coordinates": [-83.031081, 36.515207], "type": "Point"}, "id": "gUkmjRU0cTusRa_9IqU-DSRGqe8=", "properties": {"@spider": "usps_collection_boxes", "addr:country": "US", "addr:full": "3867 HIGHWAY 70 N", "addr:postcode": "37731", "brand": "USPS", "collection_times": "Mo-Fr 12:00; Sa 09:15", "name": "USPS COLLECTION BOX - PO LOBBY", "ref": "3773100002"}, "type": "Feature"}
{"geometry": {"coordinates": [-84.605870399, 36.333219932], "type": "Point"}, "id": "tqM8V5PZv2LqEBaciNIAXkBhoF8=", "properties": {"@spider": "usps_collection_boxes", "addr:city": "ELGIN", "addr:country": "US", "addr:full": "179 RUGBY HWY", "addr:postcode": "37732", "addr:state": "TN", "brand": "USPS", "collection_times": "Mo-Fr 16:00; Sa 11:00", "name": "USPS COLLECTION BOX - BLUE BOX", "note": "ON 12/24 AND 12/31, THIS BOX MAY BE COLLECTED AS EARLY AS 12 NOON.", "ref": "3773200001"}, "type": "Feature"}
{"geometry": {"coordinates": [-84.605862, 36.333612], "type": "Point"}, "id": "W-PB0ZtZ3PznEK2NW1YjB5ztVjc=", "properties": {"@spider": "usps_collection_boxes", "addr:city": "ELGIN", "addr:country": "US", "addr:full": "179 RUGBY HWY", "addr:postcode": "37732", "addr:state": "TN", "brand": "USPS", "collection_times": "Mo-Fr 16:00; Sa 11:00", "name": "USPS COLLECTION BOX - PO LOBBY", "note": "ON 12/24 AND 12/31, THIS BOX MAY BE COLLECTED AS EARLY AS 12 NOON.", "ref": "3773200002"}, "type": "Feature"}
{"geometry": {"coordinates": [-84.135055, 35.760836], "type": "Point"}, "id": "J3Wjr8iyrb6ZjCCOxJjit5mhWoc=", "properties": {"@spider": "usps_collection_boxes", "addr:city": "FRIENDSVILLE", "addr:country": "US", "addr:full": "105 S MORGAN ST", "addr:postcode": "37737", "addr:state": "TN", "brand": "USPS", "collection_times": "Mo-Fr 16:15", "name": "USPS COLLECTION BOX - BLUE BOX", "note": "ON 12/24 AND 12/31, THIS BOX MAY BE COLLECTED AS EARLY AS 12 NOON.", "ref": "3773700001"}, "type": "Feature"}
{"geometry": {"coordinates": [-84.13502, 35.760918], "type": "Point"}, "id": "M7aizAr3OmE-eL9OzK-88eWoUgg=", "properties": {"@spider": "usps_collection_boxes", "addr:city": "FRIENDSVILLE", "addr:country": "US", "addr:full": "105 S MORGAN ST", "addr:postcode": "37737", "addr:state": "TN", "brand": "USPS", "collection_times": "Mo-Fr 16:30", "name": "USPS COLLECTION BOX - PO LOBBY", "note": "ON 12/24 AND 12/31, THIS BOX MAY BE COLLECTED AS EARLY AS 12 NOON.", "ref": "3773700002"}, "type": "Feature"}
{"geometry": {"coordinates": [-83.5102518, 35.714399], "type": "Point"}, "id": "pXivBCk7s_UcpX3mfOu8j63Yuj4=", "properties": {"@spider": "usps_collection_boxes", "addr:city": "GATLINBURG", "addr:country": "US", "addr:full": "500 PARKWAY", "addr:postcode": "37738", "addr:state": "TN", "brand": "USPS", "collection_times": "Mo-Sa 11:00", "name": "USPS COLLECTION BOX - BLUE BOX", "ref": "3773800010"}, "type": "Feature"}
{"geometry": {"coordinates": [-83.482136, 35.726066], "type": "Point"}, "id": "YE35hrZw6qDeY1YoghJgpx_KKcQ=", "properties": {"@spider": "usps_collection_boxes", "addr:city": "GATLINBURG", "addr:country": "US", "addr:full": "1216 E PARKWAY", "addr:postcode": "37738", "addr:state": "TN", "brand": "USPS", "collection_times": "Mo-Fr 16:45; Sa 11:00", "name": "USPS COLLECTION BOX - BLUE BOX", "note": "ON 12/24 AND 12/31, THIS BOX MAY BE COLLECTED AS EARLY AS 12 NOON.", "ref": "3773800013"}, "type": "Feature"}
{"geometry": {"coordinates": [-83.482225, 35.726097], "type": "Point"}, "id": "938VLrxSAGKk340p95t_0Fusw04=", "properties": {"@spider": "usps_collection_boxes", "addr:city": "GATLINBURG", "addr:country": "US", "addr:full": "1216 E PARKWAY", "addr:postcode": "37738", "addr:state": "TN", "brand": "USPS", "collection_times": "Mo-Fr 17:00; Sa 11:00", "name": "USPS COLLECTION BOX - PO LOBBY", "note": "ON 12/24 AND 12/31, THIS BOX MAY BE COLLECTED AS EARLY AS 12 NOON.", "ref": "3773800018"}, "type": "Feature"}
{"geometry": {"coordinates": [-83.5140816, 35.712833], "type": "Point"}, "id": "mzeBfitvWHtrjCEWIWdWTb8OLZs=", "properties": {"@spider": "usps_collection_boxes", "addr:city": "GATLINBURG", "addr:country": "US", "addr:full": "626 PARKWAY", "addr:postcode": "37738", "addr:state": "TN", "brand": "USPS", "collection_times": "Mo-Sa 11:00", "name": "USPS COLLECTION BOX - BLUE BOX", "ref": "3773800020"}, "type": "Feature"}
{"geometry": {"coordinates": [-83.518515, 35.710911], "type": "Point"}, "id": "XITyX3R6tGrwcjGJP4c9eZe2E2A=", "properties": {"@spider": "usps_collection_boxes", "addr:city": "GATLINBURG", "addr:country": "US", "addr:full": "812 PARKWAY", "addr:postcode": "37738", "addr:state": "TN", "brand": "USPS", "collection_times": "Mo-Sa 11:00", "name": "USPS COLLECTION BOX - BLUE BOX", "ref": "3773800021"}, "type": "Feature"}
{"geometry": {"coordinates": [-84.171591, 35.661081], "type": "Point"}, "id": "UqRiZe18pvX7VJhD9TeN9vf3MfU=", "properties": {"@spider": "usps_collection_boxes", "addr:city": "GREENBACK", "addr:country": "US", "addr:full": "6726 MORGANTON RD", "addr:postcode": "37742", "addr:state": "TN", "brand": "USPS", "collection_times": "Mo-Fr 16:00", "name": "USPS COLLECTION BOX - BLUE BOX", "note": "ON 12/24 AND 12/31, THIS BOX MAY BE COLLECTED AS EARLY AS 12 NOON.", "ref": "3774200001"}, "type": "Feature"}
{"geometry": {"coordinates": [-84.171615, 35.661046], "type": "Point"}, "id": "oFHSrqqVWhIJmsNQBAEa6HE7m78=", "properties": {"@spider": "usps_collection_boxes", "addr:city": "GREENBACK", "addr:country": "US", "addr:full": "6726 MORGANTON RD", "addr:postcode": "37742", "addr:state": "TN", "brand": "USPS", "collection_times": "Mo-Fr 16:00", "name": "USPS COLLECTION BOX - PO LOBBY", "note": "ON 12/24 AND 12/31, THIS BOX MAY BE COLLECTED AS EARLY AS 12 NOON.", "ref": "3774200002"}, "type": "Feature"}
{"geometry": {"coordinates": [-82.7905481, 36.173669], "type": "Point"}, "id": "vjzaYJcb3Ey5yJDPg0bJK2zKUnU=", "properties": {"@spider": "usps_collection_boxes", "addr:city": "GREENEVILLE", "addr:country": "US", "addr:full": "1420 TUSCULUM BLVD", "addr:postcode": "37743", "addr:state": "TN", "brand": "USPS", "collection_times": "Mo-Sa 10:00", "name": "USPS COLLECTION BOX - BLUE BOX", "ref": "3774300009"}, "type": "Feature"}
{"geometry": {"coordinates": [-82.8355549, 36.163911], "type": "Point"}, "id": "ECk8Y-ZAvYq_L8urYSSuA4IkfGw=", "properties": {"@spider": "usps_collection_boxes", "addr:city": "GREENEVILLE", "addr:country": "US", "addr:full": "220 W SUMMER ST", "addr:postcode": "37743", "addr:state": "TN", "brand": "USPS", "collection_times": "Mo-Fr 16:30; Sa 15:00", "name": "USPS COLLECTION BOX - BLUE BOX", "note": "ON 12/24 AND 12/31, THIS BOX MAY BE COLLECTED AS EARLY AS 12 NOON.", "ref": "3774300011"}, "type": "Feature"}
{"geometry": {"coordinates": [-82.8462143, 36.147022], "type": "Point"}, "id": "X7Two6Ci2HncD2eToY5AeQ_P7hc=", "properties": {"@spider": "usps_collection_boxes", "addr:city": "GREENEVILLE", "addr:country": "US", "addr:full": "511 ASHEVILLE HWY", "addr:postcode": "37743", "addr:state": "TN", "brand": "USPS", "collection_times": "Mo-Sa 10:30", "name": "USPS COLLECTION BOX - BLUE BOX", "ref": "3774300013"}, "type": "Feature"}
{"geometry": {"coordinates": [-82.8155532, 36.171872], "type": "Point"}, "id": "lE-Atj326MQGoz4PhSpA2qbRHAg=", "properties": {"@spider": "usps_collection_boxes", "addr:city": "GREENEVILLE", "addr:country": "US", "addr:full": "901 SNAPP FERRY RD", "addr:postcode": "37743", "addr:state": "TN", "brand": "USPS", "collection_times": "Mo-Sa 09:00", "name": "USPS COLLECTION BOX - BLUE BOX", "ref": "3774300014"}, "type": "Feature"}
{"geometry": {"coordinates": [-82.8134017, 36.169627], "type": "Point"}, "id": "CcaKWvm4qEaHnYBLNmA_4lZbt3w=", "properties": {"@spider": "usps_collection_boxes", "addr:city": "GREENEVILLE", "addr:country": "US", "addr:full": "845 TUSCULUM BLVD", "addr:postcode": "37743", "addr:state": "TN", "brand": "USPS", "collection_times": "Mo-Sa 09:00", "name": "USPS COLLECTION BOX - BLUE BOX", "ref": "3774300020"}, "type": "Feature"}
{"geometry": {"coordinates": [-82.7971922, 36.177947], "type": "Point"}, "id": "zGjgsk6krDVvzc0fjwvzL538fkM=", "properties": {"@spider": "usps_collection_boxes", "addr:city": "GREENEVILLE", "addr:country": "US", "addr:full": "1505 E ANDREW JOHNSON HWY", "addr:postcode": "37743", "addr:state": "TN", "brand": "USPS", "collection_times": "Mo-Sa 11:00", "name": "USPS COLLECTION BOX - BLUE BOX", "ref": "3774300025"}, "type": "Feature"}
{"geometry": {"coordinates": [-82.8355761, 36.163935], "type": "Point"}, "id": "Au_FFVe-NipAmMzREpTIEGLqda8=", "properties": {"@spider": "usps_collection_boxes", "addr:city": "GREENEVILLE", "addr:country": "US", "addr:full": "220 W SUMMER ST", "addr:postcode": "37743", "addr:state": "TN", "brand": "USPS", "collection_times": "Mo-Fr 16:30; Sa 15:00", "name": "USPS COLLECTION BOX - BLUE BOX", "note": "ON 12/24 AND 12/31, THIS BOX MAY BE COLLECTED AS EARLY AS 12 NOON.", "ref": "3774300026"}, "type": "Feature"}
{"geometry": {"coordinates": [-82.8355915, 36.16392], "type": "Point"}, "id": "YHKj0rjqeAlNlIEElfzTpIJJJus=", "properties": {"@spider": "usps_collection_boxes", "addr:city": "GREENEVILLE", "addr:country": "US", "addr:full": "220 W SUMMER ST", "addr:postcode": "37743", "addr:state": "TN", "brand": "USPS", "collection_times": "Mo-Fr 16:30; Sa 15:00", "name": "USPS COLLECTION BOX - BLUE BOX", "note": "ON 12/24 AND 12/31, THIS BOX MAY BE COLLECTED AS EARLY AS 12 NOON.", "ref": "3774300027"}, "type": "Feature"}
{"geometry": {"coordinates": [-82.8355913, 36.162517], "type": "Point"}, "id": "2OWvT30EL44YKCbyGoYrHS8F-PU=", "properties": {"@spider": "usps_collection_boxes", "addr:city": "GREENEVILLE", "addr:country": "US", "addr:full": "263 W SUMMER ST", "addr:postcode": "37743", "addr:state": "TN", "brand": "USPS", "collection_times": "Mo-Sa 09:00", "name": "USPS COLLECTION BOX - BLUE BOX", "ref": "3774300028"}, "type": "Feature"}
{"geometry": {"coordinates": [-82.7964316, 36.173193], "type": "Point"}, "id": "AzFBQ-1ZuEi1XLZ-LWT-I6lDfjc=", "properties": {"@spider": "usps_collection_boxes", "addr:city": "GREENEVILLE", "addr:country": "US", "addr:full": "1351 TUSCULUM BLVD", "addr:postcode": "37743", "addr:state": "TN", "brand": "USPS", "collection_times": "Mo-Sa 10:00", "name": "USPS COLLECTION BOX - BLUE BOX", "ref": "3774300029"}, "type": "Feature"}
{"geometry": {"coordinates": [-82.8306537, 36.163111], "type": "Point"}, "id": "t3538CfP8phO-ABW570gUQe0hA0=", "properties": {"@spider": "usps_collection_boxes", "addr:city": "GREENEVILLE", "addr:country": "US", "addr:full": "100 E DEPOT ST", "addr:postcode": "37743", "addr:state": "TN", "brand": "USPS", "collection_times": "Mo-Sa 09:00", "name": "USPS COLLECTION BOX - BLUE BOX", "ref": "3774300036"}, "type": "Feature"}
{"geometry": {"coordinates": [-82.8338039, 36.166876], "type": "Point"}, "id": "mJkrIvPL9m1E0khpcx7S2ny-1hc=", "properties": {"@spider": "usps_collection_boxes", "addr:city": "GREENEVILLE", "addr:country": "US", "addr:full": "204 S CUTLER ST", "addr:postcode": "37743", "addr:state": "TN", "brand": "USPS", "collection_times": "Mo-Sa 09:00", "name": "USPS COLLECTION BOX - BLUE BOX", "ref": "3774300038"}, "type": "Feature"}
{"geometry": {"coordinates": [-82.7816939, 36.18004], "type": "Point"}, "id": "TRzZDGESttglxPV7UYEGVuDJmeI=", "properties": {"@spider": "usps_collection_boxes", "addr:city": "GREENEVILLE", "addr:country": "US", "addr:full": "2321 E ANDREW JOHNSON HWY", "addr:postcode": "37743", "addr:state": "TN", "brand": "USPS", "collection_times": "Mo-Sa 10:30", "name": "USPS COLLECTION BOX - BLUE BOX", "ref": "3774300039"}, "type": "Feature"}
{"geometry": {"coordinates": [-82.833924, 36.163163], "type": "Point"}, "id": "_ScoMc3zzYxne-mDAFou_qEl5lI=", "properties": {"@spider": "usps_collection_boxes", "addr:city": "GREENEVILLE", "addr:country": "US", "addr:full": "220 W SUMMER ST", "addr:postcode": "37743", "addr:state": "TN", "brand": "USPS", "collection_times": "Mo-Fr 16:30; Sa 15:00", "name": "USPS COLLECTION BOX - PO LOBBY", "note": "ON 12/24 AND 12/31, THIS BOX MAY BE COLLECTED AS EARLY AS 12 NOON.", "ref": "3774300040"}, "type": "Feature"}
{"geometry": {"coordinates": [-82.8351949, 36.163976], "type": "Point"}, "id": "bPY-yPbHF_iIK9pSKovTKGOkPj4=", "properties": {"@spider": "usps_collection_boxes", "addr:city": "GREENEVILLE", "addr:country": "US", "addr:full": "220 W SUMMER ST", "addr:postcode": "37743", "addr:state": "TN", "brand": "USPS", "collection_times": "Mo-Fr 16:30; Sa 15:00", "name": "USPS COLLECTION BOX - PO LOBBY", "note": "ON 12/24 AND 12/31, THIS BOX MAY BE COLLECTED AS EARLY AS 12 NOON.", "ref": "3774300041"}, "type": "Feature"}
{"geometry": {"coordinates": [-84.570961, 35.918009], "type": "Point"}, "id": "_UIKoLMHgqeNr-Nn9kMnGM_wakk=", "properties": {"@spider": "usps_collection_boxes", "addr:city": "HARRIMAN", "addr:country": "US", "addr:full": "1122 S ROANE ST", "addr:postcode": "37748", "addr:state": "TN", "brand": "USPS", "collection_times": "Mo-Fr 16:45; Sa 12:00", "name": "USPS COLLECTION BOX - PO LOBBY", "note": "ON 12/24 AND 12/31, THIS BOX MAY BE COLLECTED AS EARLY AS 12 NOON.", "ref": "3774800017"}, "type": "Feature"}
{"geometry": {"coordinates": [-84.570847, 35.917991], "type": "Point"}, "id": "b8rTNG29lCgN5mwJ6Vs3zHSGy7U=", "properties": {"@spider": "usps_collection_boxes", "addr:city": "HARRIMAN", "addr:country": "US", "addr:full": "1122 S ROANE ST", "addr:postcode": "37748", "addr:state": "TN", "brand": "USPS", "collection_times": "Mo-Fr 16:45; Sa 12:00", "name": "USPS COLLECTION BOX - PO LOBBY", "note": "ON 12/24 AND 12/31, THIS BOX MAY BE COLLECTED AS EARLY AS 12 NOON.", "ref": "3774800018"}, "type": "Feature"}
{"geometry": {"coordinates": [-84.570847, 35.917991], "type": "Point"}, "id": "JuKec5-7wlrntnUr0-2cbcfZYlY=", "properties": {"@spider": "usps_collection_boxes", "addr:city": "HARRIMAN", "addr:country": "US", "addr:full": "1122 S ROANE ST", "addr:postcode": "37748", "addr:state": "TN", "brand": "USPS", "collection_times": "Mo-Fr 16:45; Sa 12:00", "name": "USPS COLLECTION BOX - BLUE BOX", "note": "ON 12/24 AND 12/31, THIS BOX MAY BE COLLECTED AS EARLY AS 12 NOON.", "ref": "3774800019"}, "type": "Feature"}
{"geometry": {"coordinates": [-83.65378, 36.573578], "type": "Point"}, "id": "HB66_xlD6HPdVk3isbTox2XDviI=", "properties": {"@spider": "usps_collection_boxes", "addr:city": "HARROGATE", "addr:country": "US", "addr:full": "6690 CUMBERLAND GAP PKWY", "addr:postcode": "37752", "addr:state": "TN", "brand": "USPS", "collection_times": "Mo-Fr 16:30; Sa 12:00", "name": "USPS COLLECTION BOX - PO LOBBY", "note": "ON 12/24 AND 12/31, THIS BOX MAY BE COLLECTED AS EARLY AS 12 NOON.", "ref": "3775200001"}, "type": "Feature"}
{"geometry": {"coordinates": [-83.653807, 36.573536], "type": "Point"}, "id": "28OnQe0TD5Cw78Lyal7V3wC4ZYE=", "properties": {"@spider": "usps_collection_boxes", "addr:city": "HARROGATE", "addr:country": "US", "addr:full": "6690 CUMBERLAND GAP PKWY", "addr:postcode": "37752", "addr:state": "TN", "brand": "USPS", "collection_times": "Mo-Fr 16:30; Sa 12:00", "name": "USPS COLLECTION BOX - PO LOBBY", "note": "ON 12/24 AND 12/31, THIS BOX MAY BE COLLECTED AS EARLY AS 12 NOON.", "ref": "3775200002"}, "type": "Feature"}
{"geometry": {"coordinates": [-83.653807, 36.573536], "type": "Point"}, "id": "rzoy26e1C5mvKMZzo3NfNjTaw6Q=", "properties": {"@spider": "usps_collection_boxes", "addr:city": "HARROGATE", "addr:country": "US", "addr:full": "6690 CUMBERLAND GAP PKWY", "addr:postcode": "37752", "addr:state": "TN", "brand": "USPS", "collection_times": "Mo-Fr 16:00; Sa 12:00", "name": "USPS COLLECTION BOX - BLUE BOX", "note": "ON 12/24 AND 12/31, THIS BOX MAY BE COLLECTED AS EARLY AS 12 NOON.", "ref": "3775200003"}, "type": "Feature"}
{"geometry": {"coordinates": [-83.144694, 35.815457], "type": "Point"}, "id": "_HgcxHcBOfv2YXWMotg5wUlkpPQ=", "properties": {"@spider": "usps_collection_boxes", "addr:city": "HARTFORD", "addr:country": "US", "addr:full": "3603 HARTFORD RD", "addr:postcode": "37753", "addr:state": "TN", "brand": "USPS", "collection_times": "Mo-Fr 13:00; Sa 11:00", "name": "USPS COLLECTION BOX - BLUE BOX", "note": "ON 12/24 AND 12/31, THIS BOX MAY BE COLLECTED AS EARLY AS 12 NOON.", "ref": "3775300001"}, "type": "Feature"}
{"geometry": {"coordinates": [-83.144737, 35.815544], "type": "Point"}, "id": "seu4KhVEJZ_aali080TdX7K0udg=", "properties": {"@spider": "usps_collection_boxes", "addr:city": "HARTFORD", "addr:country": "US", "addr:full": "3603 HARTFORD RD", "addr:postcode": "37753", "addr:state": "TN", "brand": "USPS", "collection_times": "Mo-Fr 13:00; Sa 11:00", "name": "USPS COLLECTION BOX - PO LOBBY", "note": "ON 12/24 AND 12/31, THIS BOX MAY BE COLLECTED AS EARLY AS 12 NOON.", "ref": "3775300002"}, "type": "Feature"}
{"geometry": {"coordinates": [-84.053658, 36.081194], "type": "Point"}, "id": "QHuYBlVDDgafqa27wYvsqmgEzPI=", "properties": {"@spider": "usps_collection_boxes", "addr:city": "HEISKELL", "addr:country": "US", "addr:full": "9437 HEISKELL RD", "addr:postcode": "37754", "addr:state": "TN", "brand": "USPS", "collection_times": "Mo-Fr 16:15; Sa 09:45", "name": "USPS COLLECTION BOX - BLUE BOX", "note": "ON 12/24 AND 12/31, THIS BOX MAY BE COLLECTED AS EARLY AS 12 NOON.", "ref": "3775400001"}, "type": "Feature"}
{"geometry": {"coordinates": [-84.053586, 36.081154], "type": "Point"}, "id": "lbFdR0jJ6RH15EygKop1UOqSExk=", "properties": {"@spider": "usps_collection_boxes", "addr:city": "HEISKELL", "addr:country": "US", "addr:full": "9437 HEISKELL RD", "addr:postcode": "37754", "addr:state": "TN", "brand": "USPS", "collection_times": "Mo-Fr 16:30; Sa 10:00", "name": "USPS COLLECTION BOX - PO LOBBY", "note": "ON 12/24 AND 12/31, THIS BOX MAY BE COLLECTED AS EARLY AS 12 NOON.", "ref": "3775400002"}, "type": "Feature"}
{"geometry": {"coordinates": [-84.538592, 36.432918], "type": "Point"}, "id": "JG1nidZgBAqyZEEIx5YHprVZiDM=", "properties": {"@spider": "usps_collection_boxes", "addr:city": "HELENWOOD", "addr:country": "US", "addr:full": "13013 SCOTT HWY", "addr:postcode": "37755", "addr:state": "TN", "brand": "USPS", "collection_times": "Mo-Fr 16:15; Sa 10:00", "name": "USPS COLLECTION BOX - BLUE BOX", "note": "ON 12/24 AND 12/31, THIS BOX MAY BE COLLECTED AS EARLY AS 12 NOON.", "ref": "3775500000"}, "type": "Feature"}
{"geometry": {"coordinates": [-84.538543, 36.432869], "type": "Point"}, "id": "JeU8MiU8iPzhjlRVpm4N4IQbMlo=", "properties": {"@spider": "usps_collection_boxes", "addr:city": "HELENWOOD", "addr:country": "US", "addr:full": "13013 SCOTT HWY", "addr:postcode": "37755", "addr:state": "TN", "brand": "USPS", "collection_times": "Mo-Fr 16:30; Sa 10:00", "name": "USPS COLLECTION BOX - PO LOBBY", "note": "ON 12/24 AND 12/31, THIS BOX MAY BE COLLECTED AS EARLY AS 12 NOON.", "ref": "3775500002"}, "type": "Feature"}
{"geometry": {"coordinates": [-84.4907, 36.41001], "type": "Point"}, "id": "Jc3kAIKLxxrnXE47CddzuWLthJ8=", "properties": {"@spider": "usps_collection_boxes", "addr:city": "HUNTSVILLE", "addr:country": "US", "addr:full": "215 HUNTSVILLE DR", "addr:postcode": "37756", "addr:state": "TN", "brand": "USPS", "collection_times": "Mo-Fr 16:00; Sa 10:00", "name": "USPS COLLECTION BOX - BLUE BOX", "note": "ON 12/24 AND 12/31, THIS BOX MAY BE COLLECTED AS EARLY AS 12 NOON.", "ref": "3775600001"}, "type": "Feature"}
{"geometry": {"coordinates": [-84.490718, 36.409942], "type": "Point"}, "id": "SGzfW5wZCyGGyOS7zwNa5UxVuDA=", "properties": {"@spider": "usps_collection_boxes", "addr:city": "HUNTSVILLE", "addr:country": "US", "addr:full": "215 HUNTSVILLE DR", "addr:postcode": "37756", "addr:state": "TN", "brand": "USPS", "collection_times": "Mo-Fr 16:00; Sa 10:00", "name": "USPS COLLECTION BOX - PO LOBBY", "note": "ON 12/24 AND 12/31, THIS BOX MAY BE COLLECTED AS EARLY AS 12 NOON.", "ref": "3775600002"}, "type": "Feature"}
{"geometry": {"coordinates": [-84.490718, 36.409942], "type": "Point"}, "id": "0LjehnRe9f441L4qOz2JLGxc_P4=", "properties": {"@spider": "usps_collection_boxes", "addr:city": "HUNTSVILLE", "addr:country": "US", "addr:full": "215 HUNTSVILLE DR", "addr:postcode": "37756", "addr:state": "TN", "brand": "USPS", "collection_times": "Mo-Fr 16:00; Sa 10:00", "name": "USPS COLLECTION BOX - PO LOBBY", "note": "ON 12/24 AND 12/31, THIS BOX MAY BE COLLECTED AS EARLY AS 12 NOON.", "ref": "3775600003"}, "type": "Feature"}
{"geometry": {"coordinates": [-84.180446, 36.331093], "type": "Point"}, "id": "tWh6_R7EyT5TWBDdLDYvknMahpU=", "properties": {"@spider": "usps_collection_boxes", "addr:city": "JACKSBORO", "addr:country": "US", "addr:full": "424 MAIN ST", "addr:postcode": "37757", "addr:state": "TN", "brand": "USPS", "collection_times": "Mo-Fr 16:30; Sa 11:30", "name": "USPS COLLECTION BOX - PO LOBBY", "note": "ON 12/24 AND 12/31, THIS BOX MAY BE COLLECTED AS EARLY AS 12 NOON.", "ref": "3775700001"}, "type": "Feature"}
{"geometry": {"coordinates": [-84.180446, 36.331094], "type": "Point"}, "id": "Z_GvAFGdOX5inTrVhTeOhWKuFV0=", "properties": {"@spider": "usps_collection_boxes", "addr:city": "JACKSBORO", "addr:country": "US", "addr:full": "424 MAIN ST", "addr:postcode": "37757", "addr:state": "TN", "brand": "USPS", "collection_times": "Mo-Fr 16:30; Sa 11:30", "name": "USPS COLLECTION BOX - BLUE BOX", "note": "ON 12/24 AND 12/31, THIS BOX MAY BE COLLECTED AS EARLY AS 12 NOON.", "ref": "3775700003"}, "type": "Feature"}
{"geometry": {"coordinates": [-83.4915505, 36.12585], "type": "Point"}, "id": "tUb551hZ90qXS3qADJGOlj6lC18=", "properties": {"@spider": "usps_collection_boxes", "addr:city": "JEFFERSON CITY", "addr:country": "US", "addr:full": "101 E OLD ANDREW JOHNSON HWY", "addr:postcode": "37760", "addr:state": "TN", "brand": "USPS", "collection_times": "Mo-Fr 16:30; Sa 12:00", "name": "USPS COLLECTION BOX - BLUE BOX", "note": "ON 12/24 AND 12/31, THIS BOX MAY BE COLLECTED AS EARLY AS 12 NOON.", "ref": "3776000003"}, "type": "Feature"}
{"geometry": {"coordinates": [-83.4914919, 36.111041], "type": "Point"}, "id": "Cdn00d-v0Opbi2Kb3m-3X4fdeG0=", "properties": {"@spider": "usps_collection_boxes", "addr:city": "JEFFERSON CITY", "addr:country": "US", "addr:full": "112 CITY CENTER DR", "addr:postcode": "37760", "addr:state": "TN", "brand": "USPS", "collection_times": "Mo-Sa 12:00", "name": "USPS COLLECTION BOX - BLUE BOX", "ref": "3776000005"}, "type": "Feature"}
{"geometry": {"coordinates": [-83.5019599, 36.114056], "type": "Point"}, "id": "KsxAgaPOCHKikI3ZyRyMMiBhqt0=", "properties": {"@spider": "usps_collection_boxes", "addr:city": "JEFFERSON CITY", "addr:country": "US", "addr:full": "206 W BROADWAY BLVD", "addr:postcode": "37760", "addr:state": "TN", "brand": "USPS", "collection_times": "Mo-Sa 12:00", "name": "USPS COLLECTION BOX - BLUE BOX", "ref": "3776000006"}, "type": "Feature"}
{"geometry": {"coordinates": [-83.4864271, 36.117377], "type": "Point"}, "id": "n4Tx-a9oyBGbgfILP5pdzdi05E0=", "properties": {"@spider": "usps_collection_boxes", "addr:city": "JEFFERSON CITY", "addr:country": "US", "addr:full": "1507 ODELL AVE", "addr:postcode": "37760", "addr:state": "TN", "brand": "USPS", "collection_times": "Mo-Sa 12:00", "name": "USPS COLLECTION BOX - BLUE BOX", "ref": "3776000007"}, "type": "Feature"}
{"geometry": {"coordinates": [-83.4688417, 36.128986], "type": "Point"}, "id": "KOl2rqFBDD-epyEExB3zbSB4gcg=", "properties": {"@spider": "usps_collection_boxes", "addr:city": "JEFFERSON CITY", "addr:country": "US", "addr:full": "630 E BROADWAY BLVD", "addr:postcode": "37760", "addr:state": "TN", "brand": "USPS", "collection_times": "Mo-Sa 12:00", "name": "USPS COLLECTION BOX - BLUE BOX", "ref": "3776000008"}, "type": "Feature"}
{"geometry": {"coordinates": [-83.4917582, 36.125755], "type": "Point"}, "id": "frngI0DMACILIMOIJuZpPduOu6M=", "properties": {"@spider": "usps_collection_boxes", "addr:city": "JEFFERSON CITY", "addr:country": "US", "addr:full": "101 E OLD ANDREW JOHNSON HWY", "addr:postcode": "37760", "addr:state": "TN", "brand": "USPS", "collection_times": "Mo-Fr 16:45; Sa 12:00", "name": "USPS COLLECTION BOX - PO LOBBY", "note": "ON 12/24 AND 12/31, THIS BOX MAY BE COLLECTED AS EARLY AS 12 NOON.", "ref": "3776000010"}, "type": "Feature"}
{"geometry": {"coordinates": [-83.4917607, 36.125734], "type": "Point"}, "id": "9MKCwt7AREpi1H7q7ErnCi-MCMQ=", "properties": {"@spider": "usps_collection_boxes", "addr:city": "JEFFERSON CITY", "addr:country": "US", "addr:full": "101 E OLD ANDREW JOHNSON HWY", "addr:postcode": "37760", "addr:state": "TN", "brand": "USPS", "collection_times": "Mo-Fr 16:45; Sa 12:00", "name": "USPS COLLECTION BOX - PO LOBBY", "note": "ON 12/24 AND 12/31, THIS BOX MAY BE COLLECTED AS EARLY AS 12 NOON.", "ref": "3776000011"}, "type": "Feature"}
{"geometry": {"coordinates": [-83.5192749, 36.106767], "type": "Point"}, "id": "_-OhXNAhAFu4BcY29ccnwTop1JQ=", "properties": {"@spider": "usps_collection_boxes", "addr:city": "JEFFERSON CITY", "addr:country": "US", "addr:full": "110 HOSPITAL DR", "addr:postcode": "37760", "addr:state": "TN", "brand": "USPS", "collection_times": "Mo-Sa 12:00", "name": "USPS COLLECTION BOX - BLUE BOX", "ref": "3776000012"}, "type": "Feature"}
{"geometry": {"coordinates": [-83.4804987, 36.128068], "type": "Point"}, "id": "XpWq61BqzmAcsdSTmgP9vLeBA2g=", "properties": {"@spider": "usps_collection_boxes", "addr:city": "JEFFERSON CITY", "addr:country": "US", "addr:full": "1915 RITTENHOUSE RD", "addr:postcode": "37760", "addr:state": "TN", "brand": "USPS", "collection_times": "Mo-Sa 12:00", "name": "USPS COLLECTION BOX - BLUE BOX", "ref": "3776000014"}, "type": "Feature"}
{"geometry": {"coordinates": [-84.126519, 36.589898], "type": "Point"}, "id": "p3OuO4PYPnNbVorOJmC5Bnl565U=", "properties": {"@spider": "usps_collection_boxes", "addr:city": "JELLICO", "addr:country": "US", "addr:full": "368 N MAIN ST", "addr:postcode": "37762", "addr:state": "TN", "brand": "USPS", "collection_times": "Mo-Fr 16:15; Sa 12:00", "name": "USPS COLLECTION BOX - PO LOBBY", "note": "ON 12/24 AND 12/31, THIS BOX MAY BE COLLECTED AS EARLY AS 12 NOON.", "ref": "3776200003"}, "type": "Feature"}
{"geometry": {"coordinates": [-84.126548, 36.589936], "type": "Point"}, "id": "oJ8G4sCvfx4Px1H01--8-1JMrRE=", "properties": {"@spider": "usps_collection_boxes", "addr:city": "JELLICO", "addr:country": "US", "addr:full": "368 N MAIN ST", "addr:postcode": "37762", "addr:state": "TN", "brand": "USPS", "collection_times": "Mo-Fr 16:15; Sa 12:00", "name": "USPS COLLECTION BOX - BLUE BOX", "note": "ON 12/24 AND 12/31, THIS BOX MAY BE COLLECTED AS EARLY AS 12 NOON.", "ref": "3776200004"}, "type": "Feature"}
{"geometry": {"coordinates": [-84.126548, 36.589936], "type": "Point"}, "id": "sRVmWoVSa1KBfZApgBaq__1Wdj0=", "properties": {"@spider": "usps_collection_boxes", "addr:city": "JELLICO", "addr:country": "US", "addr:full": "368 N MAIN ST", "addr:postcode": "37762", "addr:state": "TN", "brand": "USPS", "collection_times": "Mo-Fr 16:15; Sa 12:00", "name": "USPS COLLECTION BOX - BLUE BOX", "note": "ON 12/24 AND 12/31, THIS BOX MAY BE COLLECTED AS EARLY AS 12 NOON.", "ref": "3776200010"}, "type": "Feature"}
{"geometry": {"coordinates": [-84.5150771, 35.871665], "type": "Point"}, "id": "wB49_wmEmsNQfkF0OkBFtdwdhRc=", "properties": {"@spider": "usps_collection_boxes", "addr:city": "KINGSTON", "addr:country": "US", "addr:full": "119 N 3RD ST", "addr:postcode": "37763", "addr:state": "TN", "brand": "USPS", "collection_times": "Mo-Sa 14:00", "name": "USPS COLLECTION BOX - BLUE BOX", "note": "ON 12/24 AND 12/31, THIS BOX MAY BE COLLECTED AS EARLY AS 12 NOON.", "ref": "3776300002"}, "type": "Feature"}
{"geometry": {"coordinates": [-84.513817, 35.875301], "type": "Point"}, "id": "B2i6xS6N_tNfgDh3UrD7GBa_I8U=", "properties": {"@spider": "usps_collection_boxes", "addr:city": "KINGSTON", "addr:country": "US", "addr:full": "424 N KENTUCKY ST", "addr:postcode": "37763", "addr:state": "TN", "brand": "USPS", "collection_times": "Mo-Fr 16:45; Sa 14:30", "name": "USPS COLLECTION BOX - BLUE BOX", "note": "ON 12/24 AND 12/31, THIS BOX MAY BE COLLECTED AS EARLY AS 12 NOON.", "ref": "3776300004"}, "type": "Feature"}
{"geometry": {"coordinates": [-84.513817, 35.875301], "type": "Point"}, "id": "fTjaQ6XNTnEndRom9JgEo-MIdEM=", "properties": {"@spider": "usps_collection_boxes", "addr:city": "KINGSTON", "addr:country": "US", "addr:full": "424 N KENTUCKY ST", "addr:postcode": "37763", "addr:state": "TN", "brand": "USPS", "collection_times": "Mo-Fr 16:45; Sa 14:30", "name": "USPS COLLECTION BOX - PO LOBBY", "note": "ON 12/24 AND 12/31, THIS BOX MAY BE COLLECTED AS EARLY AS 12 NOON.", "ref": "3776300010"}, "type": "Feature"}
{"geometry": {"coordinates": [-83.591552, 35.954173], "type": "Point"}, "id": "2C6FuJ4_-m1dNLXXZ5bXDHGIpCQ=", "properties": {"@spider": "usps_collection_boxes", "addr:city": "KODAK", "addr:country": "US", "addr:full": "2849 WINFIELD DUNN PKWY", "addr:postcode": "37764", "addr:state": "TN", "brand": "USPS", "collection_times": "Mo-Fr 15:30; Sa 10:00", "name": "USPS COLLECTION BOX - BLUE BOX", "note": "ON 12/24 AND 12/31, THIS BOX MAY BE COLLECTED AS EARLY AS 12 NOON.", "ref": "3776400001"}, "type": "Feature"}
{"geometry": {"coordinates": [-83.59157, 35.954232], "type": "Point"}, "id": "dubtJYYQ_CrkK1z_osPeSsIiNz4=", "properties": {"@spider": "usps_collection_boxes", "addr:city": "KODAK", "addr:country": "US", "addr:full": "2849 WINFIELD DUNN PKWY", "addr:postcode": "37764", "addr:state": "TN", "brand": "USPS", "collection_times": "Mo-Fr 15:30; Sa 10:00", "name": "USPS COLLECTION BOX - PO LOBBY", "note": "ON 12/24 AND 12/31, THIS BOX MAY BE COLLECTED AS EARLY AS 12 NOON.", "ref": "3776400002"}, "type": "Feature"}
{"geometry": {"coordinates": [-83.59157, 35.954232], "type": "Point"}, "id": "mfq5gaSZ-aJJsN08SCM4AgQJnSI=", "properties": {"@spider": "usps_collection_boxes", "addr:city": "KODAK", "addr:country": "US", "addr:full": "2849 WINFIELD DUNN PKWY", "addr:postcode": "37764", "addr:state": "TN", "brand": "USPS", "collection_times": "Mo-Fr 15:30; Sa 10:00", "name": "USPS COLLECTION BOX - PO LOBBY", "note": "ON 12/24 AND 12/31, THIS BOX MAY BE COLLECTED AS EARLY AS 12 NOON.", "ref": "3776400003"}, "type": "Feature"}
{"geometry": {"coordinates": [-83.59157, 35.954232], "type": "Point"}, "id": "rtDff6ZE_PSeZ0Y-UT5YdnEi3KM=", "properties": {"@spider": "usps_collection_boxes", "addr:city": "KODAK", "addr:country": "US", "addr:full": "2849 WINFIELD DUNN PKWY", "addr:postcode": "37764", "addr:state": "TN", "brand": "USPS", "collection_times": "Mo-Fr 15:30; Sa 10:00", "name": "USPS COLLECTION BOX - BLUE BOX", "note": "ON 12/24 AND 12/31, THIS BOX MAY BE COLLECTED AS EARLY AS 12 NOON.", "ref": "3776400004"}, "type": "Feature"}
{"geometry": {"coordinates": [-84.1352084, 36.367073], "type": "Point"}, "id": "ltPcfLNxlnry4asAKVHctVQoE10=", "properties": {"@spider": "usps_collection_boxes", "addr:city": "LAFOLLETTE", "addr:country": "US", "addr:full": "1221 JACKSBORO PIKE", "addr:postcode": "37766", "addr:state": "TN", "brand": "USPS", "collection_times": "Mo-Fr 12:00; Sa 11:30", "name": "USPS COLLECTION BOX - BLUE BOX", "ref": "3776600004"}, "type": "Feature"}
{"geometry": {"coordinates": [-84.1249411, 36.37911], "type": "Point"}, "id": "NvAvZb-COoG1PE9Ffy9TDWdqo_I=", "properties": {"@spider": "usps_collection_boxes", "addr:city": "LAFOLLETTE", "addr:country": "US", "addr:full": "240 W CENTRAL AVE", "addr:postcode": "37766", "addr:state": "TN", "brand": "USPS", "collection_times": "Mo-Sa 10:00", "name": "USPS COLLECTION BOX - BLUE BOX", "ref": "3776600008"}, "type": "Feature"}
{"geometry": {"coordinates": [-84.1558811, 36.352867], "type": "Point"}, "id": "yMNsAB4OEeuWxT0uVXNgzzA-QkQ=", "properties": {"@spider": "usps_collection_boxes", "addr:city": "LAFOLLETTE", "addr:country": "US", "addr:full": "2010 JACKBORO PIKE", "addr:postcode": "37766", "addr:state": "TN", "brand": "USPS", "collection_times": "Mo-Fr 09:30; Sa 09:00", "name": "USPS COLLECTION BOX - BLUE BOX", "ref": "3776600013"}, "type": "Feature"}
{"geometry": {"coordinates": [-84.1410067384, 36.3618610559], "type": "Point"}, "id": "ibIOhOmr_P-Mp5nZqcZbgJ4PHQg=", "properties": {"@spider": "usps_collection_boxes", "addr:city": "LAFOLLETTE", "addr:country": "US", "addr:full": "2323 JACKSBORO PIKE", "addr:postcode": "37766", "addr:state": "TN", "brand": "USPS", "collection_times": "Mo-Fr 11:15; Sa 10:45", "name": "USPS COLLECTION BOX - BLUE BOX", "ref": "3776600015"}, "type": "Feature"}
{"geometry": {"coordinates": [-84.1591399, 36.347272], "type": "Point"}, "id": "VncxQgU3z-nHyQAB9Juhaef09j4=", "properties": {"@spider": "usps_collection_boxes", "addr:city": "LAFOLLETTE", "addr:country": "US", "addr:full": "2221 JACKSBORO PIKE STE B", "addr:postcode": "37766", "addr:state": "TN", "brand": "USPS", "collection_times": "Mo-Fr 11:30; Sa 11:00", "name": "USPS COLLECTION BOX - BLUE BOX", "ref": "3776600019"}, "type": "Feature"}
{"geometry": {"coordinates": [-84.122174, 36.380386], "type": "Point"}, "id": "udqgLHUVtpSlVqUDJH921YXjei0=", "properties": {"@spider": "usps_collection_boxes", "addr:city": "LAFOLLETTE", "addr:country": "US", "addr:full": "119 S TENNESSEE AVE", "addr:postcode": "37766", "addr:state": "TN", "brand": "USPS", "collection_times": "Mo-Fr 14:30; Sa 12:00", "name": "USPS COLLECTION BOX - BLUE BOX", "note": "ON 12/24 AND 12/31, THIS BOX MAY BE COLLECTED AS EARLY AS 12 NOON.", "ref": "3776600021"}, "type": "Feature"}
{"geometry": {"coordinates": [-84.104005, 36.388317], "type": "Point"}, "id": "zJnH5BIFCq4pv-K5zR0362vsotk=", "properties": {"@spider": "usps_collection_boxes", "addr:city": "LAFOLLETTE", "addr:country": "US", "addr:full": "1221 E CENTRAL AVE", "addr:postcode": "37766", "addr:state": "TN", "brand": "USPS", "collection_times": "Mo-Fr 16:30; Sa 15:30", "name": "USPS COLLECTION BOX - BLUE BOX", "note": "ON 12/24 AND 12/31, THIS BOX MAY BE COLLECTED AS EARLY AS 12 NOON.", "ref": "3776600023"}, "type": "Feature"}
{"geometry": {"coordinates": [-84.103888, 36.38832], "type": "Point"}, "id": "ZNgU2GjsA7riaMfHmVoasB0h8kk=", "properties": {"@spider": "usps_collection_boxes", "addr:city": "LAFOLLETTE", "addr:country": "US", "addr:full": "1221 E CENTRAL AVE", "addr:postcode": "37766", "addr:state": "TN", "brand": "USPS", "collection_times": "Mo-Fr 16:30; Sa 15:30", "name": "USPS COLLECTION BOX - PO LOBBY", "note": "ON 12/24 AND 12/31, THIS BOX MAY BE COLLECTED AS EARLY AS 12 NOON.", "ref": "3776600025"}, "type": "Feature"}
{"geometry": {"coordinates": [-84.103888, 36.38832], "type": "Point"}, "id": "Qr202hybJdCkZebJj-86ZBCa9sY=", "properties": {"@spider": "usps_collection_boxes", "addr:city": "LAFOLLETTE", "addr:country": "US", "addr:full": "1221 E CENTRAL AVE", "addr:postcode": "37766", "addr:state": "TN", "brand": "USPS", "collection_times": "Mo-Fr 16:30; Sa 15:30", "name": "USPS COLLECTION BOX - BLUE BOX", "note": "ON 12/24 AND 12/31, THIS BOX MAY BE COLLECTED AS EARLY AS 12 NOON.", "ref": "3776600027"}, "type": "Feature"}
{"geometry": {"coordinates": [-84.154402, 36.220101], "type": "Point"}, "id": "jcEKu8E7ghq1_By--1QHBtEHN3s=", "properties": {"@spider": "usps_collection_boxes", "addr:city": "LAKE CITY", "addr:country": "US", "addr:full": "220 2ND ST", "addr:postcode": "37769", "addr:state": "TN", "brand": "USPS", "collection_times": "Mo-Fr 16:15; Sa 11:00", "name": "USPS COLLECTION BOX - BLUE BOX", "note": "ON 12/24 AND 12/31, THIS BOX MAY BE COLLECTED AS EARLY AS 12 NOON.", "ref": "3776900001"}, "type": "Feature"}
{"geometry": {"coordinates": [-84.154466, 36.220036], "type": "Point"}, "id": "1cFlG9DA1eRjc4ChO-JLs2p3IG8=", "properties": {"@spider": "usps_collection_boxes", "addr:city": "LAKE CITY", "addr:country": "US", "addr:full": "220 2ND ST", "addr:postcode": "37769", "addr:state": "TN", "brand": "USPS", "collection_times": "Mo-Fr 16:15; Sa 11:00", "name": "USPS COLLECTION BOX - PO LOBBY", "note": "ON 12/24 AND 12/31, THIS BOX MAY BE COLLECTED AS EARLY AS 12 NOON.", "ref": "3776900003"}, "type": "Feature"}
{"geometry": {"coordinates": [-84.653422, 36.122008], "type": "Point"}, "id": "_Yx6-_zYdx5P25fEMtpG6tPyU4A=", "properties": {"@spider": "usps_collection_boxes", "addr:city": "LANCING", "addr:country": "US", "addr:full": "1206 NASHVILLE HWY", "addr:postcode": "37770", "addr:state": "TN", "brand": "USPS", "collection_times": "Mo-Fr 15:00; Sa 08:30", "name": "USPS COLLECTION BOX - BLUE BOX", "note": "ON 12/24 AND 12/31, THIS BOX MAY BE COLLECTED AS EARLY AS 12 NOON.", "ref": "3777000001"}, "type": "Feature"}
{"geometry": {"coordinates": [-84.653477, 36.121977], "type": "Point"}, "id": "f5dNe1DTVC2MDSAD_zCWubmc_0Y=", "properties": {"@spider": "usps_collection_boxes", "addr:city": "LANCING", "addr:country": "US", "addr:full": "1206 NASHVILLE HWY", "addr:postcode": "37770", "addr:state": "TN", "brand": "USPS", "collection_times": "Mo-Fr 15:00; Sa 08:30", "name": "USPS COLLECTION BOX - PO LOBBY", "note": "ON 12/24 AND 12/31, THIS BOX MAY BE COLLECTED AS EARLY AS 12 NOON.", "ref": "3777000002"}, "type": "Feature"}
{"geometry": {"coordinates": [-84.263979371, 35.792316773], "type": "Point"}, "id": "gBLxvhuGBtsShUG8bkYrUkoXkbI=", "properties": {"@spider": "usps_collection_boxes", "addr:city": "LENOIR CITY", "addr:country": "US", "addr:full": "100 N HILL ST", "addr:postcode": "37771", "addr:state": "TN", "brand": "USPS", "collection_times": "Mo-Fr 17:00; Sa 12:00", "name": "USPS COLLECTION BOX - BLUE BOX", "note": "ON 12/24 AND 12/31, THIS BOX MAY BE COLLECTED AS EARLY AS 12 NOON.", "ref": "3777100008"}, "type": "Feature"}
{"geometry": {"coordinates": [-84.263979371, 35.792316773], "type": "Point"}, "id": "bjYxzAzvKyZqBchGoweD4-Ro7Pc=", "properties": {"@spider": "usps_collection_boxes", "addr:city": "LENOIR CITY", "addr:country": "US", "addr:full": "100 N HILL ST", "addr:postcode": "37771", "addr:state": "TN", "brand": "USPS", "collection_times": "Mo-Fr 17:00; Sa 12:00", "name": "USPS COLLECTION BOX - BLUE BOX", "note": "ON 12/24 AND 12/31, THIS BOX MAY BE COLLECTED AS EARLY AS 12 NOON.", "ref": "3777100010"}, "type": "Feature"}
{"geometry": {"coordinates": [-84.263982, 35.792376], "type": "Point"}, "id": "EH7b43HWknZtgqIEhdK5fQ6NtsA=", "properties": {"@spider": "usps_collection_boxes", "addr:city": "LENOIR CITY", "addr:country": "US", "addr:full": "100 N HILL ST", "addr:postcode": "37771", "addr:state": "TN", "brand": "USPS", "collection_times": "Mo-Fr 17:00; Sa 12:00", "name": "USPS COLLECTION BOX - PO LOBBY", "note": "ON 12/24 AND 12/31, THIS BOX MAY BE COLLECTED AS EARLY AS 12 NOON.", "ref": "3777100012"}, "type": "Feature"}
{"geometry": {"coordinates": [-84.263982, 35.792376], "type": "Point"}, "id": "nn27jEy3crhCjAJmLHSWkRfv4Yc=", "properties": {"@spider": "usps_collection_boxes", "addr:city": "LENOIR CITY", "addr:country": "US", "addr:full": "100 N HILL ST", "addr:postcode": "37771", "addr:state": "TN", "brand": "USPS", "collection_times": "Mo-Fr 17:00; Sa 12:00", "name": "USPS COLLECTION BOX - PO LOBBY", "note": "ON 12/24 AND 12/31, THIS BOX MAY BE COLLECTED AS EARLY AS 12 NOON.", "ref": "3777100013"}, "type": "Feature"}
{"geometry": {"coordinates": [-84.2657543, 35.822363], "type": "Point"}, "id": "hX4XuN-ByuuijNiZzkdne2haKIU=", "properties": {"@spider": "usps_collection_boxes", "addr:city": "LENOIR CITY", "addr:country": "US", "addr:full": "911 HIGHWAY 321 N", "addr:postcode": "37771", "addr:state": "TN", "brand": "USPS", "collection_times": "Mo-Sa 12:00", "name": "USPS COLLECTION BOX - BLUE BOX", "ref": "3777100014"}, "type": "Feature"}
{"geometry": {"coordinates": [-84.2701147, 35.824788], "type": "Point"}, "id": "0CLtyw9Lr1OsWD17LkjJZrL4aZc=", "properties": {"@spider": "usps_collection_boxes", "addr:city": "LENOIR CITY", "addr:country": "US", "addr:full": "550 MEDICAL PARK DR", "addr:postcode": "37771", "addr:state": "TN", "brand": "USPS", "collection_times": "Mo-Sa 12:00", "name": "USPS COLLECTION BOX - BLUE BOX", "ref": "3777100015"}, "type": "Feature"}
{"geometry": {"coordinates": [-84.28054, 35.823501], "type": "Point"}, "id": "5-k0RnLYLbfUrA93WpWhxbrdNWo=", "properties": {"@spider": "usps_collection_boxes", "addr:city": "LENOIR CITY", "addr:country": "US", "addr:full": "501 ADESSA PKWY", "addr:postcode": "37771", "addr:state": "TN", "brand": "USPS", "collection_times": "Mo-Sa 16:00", "name": "USPS COLLECTION BOX - BLUE BOX", "note": "ON 12/24 AND 12/31, THIS BOX MAY BE COLLECTED AS EARLY AS 12 NOON.", "ref": "3777100016"}, "type": "Feature"}
{"geometry": {"coordinates": [-84.3438966, 35.740213], "type": "Point"}, "id": "J6vRWBVZ7TO6Ks5305MYQ7TXS7c=", "properties": {"@spider": "usps_collection_boxes", "addr:city": "LOUDON", "addr:country": "US", "addr:full": "100 RIVER RD", "addr:postcode": "37774", "addr:state": "TN", "brand": "USPS", "collection_times": "Mo-Fr 12:30", "name": "USPS COLLECTION BOX - BLUE BOX", "note": "ON 12/24 AND 12/31, THIS BOX MAY BE COLLECTED AS EARLY AS 12 NOON.", "ref": "3777400003"}, "type": "Feature"}
{"geometry": {"coordinates": [-84.2607568, 35.694913], "type": "Point"}, "id": "hXgga1zjbfzXLjaVWgKxmmA-L20=", "properties": {"@spider": "usps_collection_boxes", "addr:city": "LOUDON", "addr:country": "US", "addr:full": "200 VILLAGE SQUARE DR", "addr:postcode": "37774", "addr:state": "TN", "brand": "USPS", "collection_times": "Mo-Sa 10:30", "name": "USPS COLLECTION BOX - BLUE BOX", "ref": "3777400008"}, "type": "Feature"}
{"geometry": {"coordinates": [-84.335677, 35.74372], "type": "Point"}, "id": "m1JQwBBPSmLvfEM9dLbT6je84zg=", "properties": {"@spider": "usps_collection_boxes", "addr:city": "LOUDON", "addr:country": "US", "addr:full": "100 GREEN ST", "addr:postcode": "37774", "addr:state": "TN", "brand": "USPS", "collection_times": "Mo-Fr 16:30; Sa 12:00", "name": "USPS COLLECTION BOX - PO LOBBY", "note": "ON 12/24 AND 12/31, THIS BOX MAY BE COLLECTED AS EARLY AS 12 NOON.", "ref": "3777400009"}, "type": "Feature"}
{"geometry": {"coordinates": [-84.335685, 35.743746], "type": "Point"}, "id": "pEWI3oWM2JOtZn3osjSUD0kSBTM=", "properties": {"@spider": "usps_collection_boxes", "addr:city": "LOUDON", "addr:country": "US", "addr:full": "100 GREEN ST", "addr:postcode": "37774", "addr:state": "TN", "brand": "USPS", "collection_times": "Mo-Fr 16:30; Sa 12:00", "name": "USPS COLLECTION BOX - PO LOBBY", "note": "ON 12/24 AND 12/31, THIS BOX MAY BE COLLECTED AS EARLY AS 12 NOON.", "ref": "3777400010"}, "type": "Feature"}
{"geometry": {"coordinates": [-84.335685, 35.743746], "type": "Point"}, "id": "nnaZhwhIJyxH2-qtVnqANUMZNf0=", "properties": {"@spider": "usps_collection_boxes", "addr:city": "LOUDON", "addr:country": "US", "addr:full": "100 GREEN ST", "addr:postcode": "37774", "addr:state": "TN", "brand": "USPS", "collection_times": "Mo-Fr 16:30; Sa 12:00", "name": "USPS COLLECTION BOX - BLUE BOX", "note": "ON 12/24 AND 12/31, THIS BOX MAY BE COLLECTED AS EARLY AS 12 NOON.", "ref": "3777400011"}, "type": "Feature"}
{"geometry": {"coordinates": [-84.335685, 35.743746], "type": "Point"}, "id": "rvIHgCM2bPDKPHg2_1lIq58_T6w=", "properties": {"@spider": "usps_collection_boxes", "addr:city": "LOUDON", "addr:country": "US", "addr:full": "100 GREEN ST", "addr:postcode": "37774", "addr:state": "TN", "brand": "USPS", "collection_times": "Mo-Fr 16:30; Sa 12:00", "name": "USPS COLLECTION BOX - BLUE BOX", "note": "ON 12/24 AND 12/31, THIS BOX MAY BE COLLECTED AS EARLY AS 12 NOON.", "ref": "3777400012"}, "type": "Feature"}
{"geometry": {"coordinates": [-84.3351276, 35.741665], "type": "Point"}, "id": "jO2zUUgelDePW2QTKnpmvTyrF3U=", "properties": {"@spider": "usps_collection_boxes", "addr:city": "LOUDON", "addr:country": "US", "addr:full": "101 MULBERRY ST", "addr:postcode": "37774", "addr:state": "TN", "brand": "USPS", "collection_times": "Mo-Fr 10:00", "name": "USPS COLLECTION BOX - BLUE BOX", "ref": "3777400013"}, "type": "Feature"}
{"geometry": {"coordinates": [-84.2860715, 35.660047], "type": "Point"}, "id": "jU3G_6nmhIUOPvBmBkQNWoPsq_E=", "properties": {"@spider": "usps_collection_boxes", "addr:city": "LOUDON", "addr:country": "US", "addr:full": "200 MIALAQUO RD", "addr:postcode": "37774", "addr:state": "TN", "brand": "USPS", "collection_times": "Mo-Sa 10:00", "name": "USPS COLLECTION BOX - BLUE BOX", "ref": "3777400014"}, "type": "Feature"}
{"geometry": {"coordinates": [-84.3640706, 35.719149], "type": "Point"}, "id": "dkP6SwwD9wUGiTZX81lCgpd8Z7c=", "properties": {"@spider": "usps_collection_boxes", "addr:city": "LOUDON", "addr:country": "US", "addr:full": "2111 HIGHWAY 72 N", "addr:postcode": "37774", "addr:state": "TN", "brand": "USPS", "collection_times": "Mo-Sa 10:00", "name": "USPS COLLECTION BOX - BLUE BOX", "ref": "3777400016"}, "type": "Feature"}
{"geometry": {"coordinates": [-84.02905, 35.817629], "type": "Point"}, "id": "WCkzbyqpsibzlllWb83_Nw-5eIA=", "properties": {"@spider": "usps_collection_boxes", "addr:city": "LOUISVILLE", "addr:country": "US", "addr:full": "2948 TOPSIDE RD", "addr:postcode": "37777", "addr:state": "TN", "brand": "USPS", "collection_times": "Mo-Fr 16:30; Sa 11:30", "name": "USPS COLLECTION BOX - BLUE BOX", "note": "ON 12/24 AND 12/31, THIS BOX MAY BE COLLECTED AS EARLY AS 12 NOON.", "ref": "3777700001"}, "type": "Feature"}
{"geometry": {"coordinates": [-84.029085, 35.817585], "type": "Point"}, "id": "rWWSGuDEhZ9PkZZL4-XvuV0dqtc=", "properties": {"@spider": "usps_collection_boxes", "addr:city": "LOUISVILLE", "addr:country": "US", "addr:full": "2948 TOPSIDE RD", "addr:postcode": "37777", "addr:state": "TN", "brand": "USPS", "collection_times": "Mo-Fr 16:30; Sa 11:30", "name": "USPS COLLECTION BOX - PO LOBBY", "note": "ON 12/24 AND 12/31, THIS BOX MAY BE COLLECTED AS EARLY AS 12 NOON.", "ref": "3777700004"}, "type": "Feature"}
{"geometry": {"coordinates": [-83.744245, 36.202856], "type": "Point"}, "id": "11L2zTWzpQLHgHLP_5sBl-d7KMo=", "properties": {"@spider": "usps_collection_boxes", "addr:city": "LUTTRELL", "addr:country": "US", "addr:full": "3333 HIGHWAY 61 E", "addr:postcode": "37779", "addr:state": "TN", "brand": "USPS", "collection_times": "Mo-Fr 14:00; Sa 08:15", "name": "USPS COLLECTION BOX - BLUE BOX", "note": "ON 12/24 AND 12/31, THIS BOX MAY BE COLLECTED AS EARLY AS 12 NOON.", "ref": "3777900001"}, "type": "Feature"}
{"geometry": {"coordinates": [-83.744286, 36.202938], "type": "Point"}, "id": "fCoO__LcL5oieTl0TASEWbUg3U8=", "properties": {"@spider": "usps_collection_boxes", "addr:city": "LUTTRELL", "addr:country": "US", "addr:full": "3333 HIGHWAY 61 E", "addr:postcode": "37779", "addr:state": "TN", "brand": "USPS", "collection_times": "Mo-Fr 14:00; Sa 08:15", "name": "USPS COLLECTION BOX - PO LOBBY", "note": "ON 12/24 AND 12/31, THIS BOX MAY BE COLLECTED AS EARLY AS 12 NOON.", "ref": "3777900002"}, "type": "Feature"}
