{"geometry": {"coordinates": [-83.402658247, 37.044211252], "type": "Point"}, "id": "s9qi3_oWlBfqPTJHZEQ9s4UK7_E=", "properties": {"@spider": "usps_collection_boxes", "addr:city": "ASHER", "addr:country": "US", "addr:full": "25 MIDDLEFORK RD", "addr:postcode": "40803", "addr:state": "KY", "brand": "USPS", "brand:wikidata": "Q668687", "collection_times": "Mo-Fr 12:45; Sa 11:30", "name": "USPS COLLECTION BOX - PO LOBBY", "note": "ON 12/24 AND 12/31, THIS BOX MAY BE COLLECTED AS EARLY AS 12 NOON.", "ref": "4080300000"}, "type": "Feature"}
{"geometry": {"coordinates": [-83.402658247, 37.044211252], "type": "Point"}, "id": "qZYTGiq1wWtqT_A3Kw01cjtwlNA=", "properties": {"@spider": "usps_collection_boxes", "addr:city": "ASHER", "addr:country": "US", "addr:full": "25 MIDDLEFORK RD", "addr:postcode": "40803", "addr:state": "KY", "brand": "USPS", "brand:wikidata": "Q668687", "collection_times": "Mo-Fr 12:45; Sa 11:30", "name": "USPS COLLECTION BOX - PO LOBBY", "note": "ON 12/24 AND 12/31, THIS BOX MAY BE COLLECTED AS EARLY AS 12 NOON.", "ref": "4080300002"}, "type": "Feature"}
{"geometry": {"coordinates": [-83.330521082, 36.858977532], "type": "Point"}, "id": "0v4vVl-qLa893PZ-UQ6-CgRP4KY=", "properties": {"@spider": "usps_collection_boxes", "addr:city": "BAXTER", "addr:country": "US", "addr:full": "295 S HIGHWAY 413", "addr:postcode": "40806", "addr:state": "KY", "brand": "USPS", "brand:wikidata": "Q668687", "collection_times": "Mo-Fr 15:00; Sa 10:30", "name": "USPS COLLECTION BOX - BLUE BOX", "note": "ON 12/24 AND 12/31, THIS BOX MAY BE COLLECTED AS EARLY AS 12 NOON.", "ref": "4080600000"}, "type": "Feature"}
{"geometry": {"coordinates": [-83.330521082, 36.858977532], "type": "Point"}, "id": "eI7kldCsqFg_-3bzO0Sd7lZ-9IE=", "properties": {"@spider": "usps_collection_boxes", "addr:city": "BAXTER", "addr:country": "US", "addr:full": "295 S HIGHWAY 413", "addr:postcode": "40806", "addr:state": "KY", "brand": "USPS", "brand:wikidata": "Q668687", "collection_times": "Mo-Fr 15:00; Sa 10:30", "name": "USPS COLLECTION BOX - PO LOBBY", "note": "ON 12/24 AND 12/31, THIS BOX MAY BE COLLECTED AS EARLY AS 12 NOON.", "ref": "4080600001"}, "type": "Feature"}
{"geometry": {"coordinates": [-83.330521082, 36.858977532], "type": "Point"}, "id": "mFQlTjT5rAAbORumJpZbejxeFvg=", "properties": {"@spider": "usps_collection_boxes", "addr:city": "BAXTER", "addr:country": "US", "addr:full": "295 S HIGHWAY 413", "addr:postcode": "40806", "addr:state": "KY", "brand": "USPS", "brand:wikidata": "Q668687", "collection_times": "Mo-Fr 15:00; Sa 11:00", "name": "USPS COLLECTION BOX - PO LOBBY", "note": "ON 12/24 AND 12/31, THIS BOX MAY BE COLLECTED AS EARLY AS 12 NOON.", "ref": "4080600003"}, "type": "Feature"}
{"geometry": {"coordinates": [-82.95043738, 36.964273517], "type": "Point"}, "id": "GW85QVHlro_MgY9_03EGR1_GlV8=", "properties": {"@spider": "usps_collection_boxes", "addr:city": "BENHAM", "addr:country": "US", "addr:full": "229 MAIN ST STE 1", "addr:postcode": "40807", "addr:state": "KY", "brand": "USPS", "brand:wikidata": "Q668687", "collection_times": "Mo-Fr 15:15; Sa 11:15", "name": "USPS COLLECTION BOX - BLUE BOX", "note": "ON 12/24 AND 12/31, THIS BOX MAY BE COLLECTED AS EARLY AS 12 NOON.", "ref": "4080700000"}, "type": "Feature"}
{"geometry": {"coordinates": [-82.95043738, 36.964273517], "type": "Point"}, "id": "lh78aX163EbdA-DjqwxTbhiRDHc=", "properties": {"@spider": "usps_collection_boxes", "addr:city": "BENHAM", "addr:country": "US", "addr:full": "229 MAIN ST STE 1", "addr:postcode": "40807", "addr:state": "KY", "brand": "USPS", "brand:wikidata": "Q668687", "collection_times": "Mo-Fr 15:15; Sa 11:15", "name": "USPS COLLECTION BOX - PO LOBBY", "note": "ON 12/24 AND 12/31, THIS BOX MAY BE COLLECTED AS EARLY AS 12 NOON.", "ref": "4080700001"}, "type": "Feature"}
{"geometry": {"coordinates": [-82.95043738, 36.964273517], "type": "Point"}, "id": "GZaJPxZSe18HeT_53n2f9SFAqKw=", "properties": {"@spider": "usps_collection_boxes", "addr:city": "BENHAM", "addr:country": "US", "addr:full": "229 MAIN ST STE 1", "addr:postcode": "40807", "addr:state": "KY", "brand": "USPS", "brand:wikidata": "Q668687", "collection_times": "Mo-Fr 15:30; Sa 11:30", "name": "USPS COLLECTION BOX - PO LOBBY", "note": "ON 12/24 AND 12/31, THIS BOX MAY BE COLLECTED AS EARLY AS 12 NOON.", "ref": "4080700003"}, "type": "Feature"}
{"geometry": {"coordinates": [-83.218639969, 36.977920005], "type": "Point"}, "id": "67yIF5kkv_1Qvnr60pC3OB5EIBM=", "properties": {"@spider": "usps_collection_boxes", "addr:city": "BIG LAUREL", "addr:country": "US", "addr:full": "12564 E HIGHWAY 221", "addr:postcode": "40808", "addr:state": "KY", "brand": "USPS", "brand:wikidata": "Q668687", "collection_times": "Mo-Sa 10:45", "name": "USPS COLLECTION BOX - BLUE BOX", "ref": "4080800000"}, "type": "Feature"}
{"geometry": {"coordinates": [-83.218639969, 36.977920005], "type": "Point"}, "id": "PbtrWMWzOPb79yd189GsRmH5YbI=", "properties": {"@spider": "usps_collection_boxes", "addr:city": "BIG LAUREL", "addr:country": "US", "addr:full": "12564 E HIGHWAY 221", "addr:postcode": "40808", "addr:state": "KY", "brand": "USPS", "brand:wikidata": "Q668687", "collection_times": "Mo-Sa 10:45", "name": "USPS COLLECTION BOX - PO LOBBY", "ref": "4080800001"}, "type": "Feature"}
{"geometry": {"coordinates": [-83.218639969, 36.977920005], "type": "Point"}, "id": "B16_H8mIYlDtoNNVTlQZ5yx2ceo=", "properties": {"@spider": "usps_collection_boxes", "addr:city": "BIG LAUREL", "addr:country": "US", "addr:full": "12564 E HIGHWAY 221", "addr:postcode": "40808", "addr:state": "KY", "brand": "USPS", "brand:wikidata": "Q668687", "collection_times": "Mo-Sa 10:45", "name": "USPS COLLECTION BOX - PO LOBBY", "ref": "4080800003"}, "type": "Feature"}
{"geometry": {"coordinates": [-83.345956397, 36.900544737], "type": "Point"}, "id": "xUt7JtWxvZwpfi_5UsA3VGVtzCY=", "properties": {"@spider": "usps_collection_boxes", "addr:city": "BLEDSOE", "addr:country": "US", "addr:full": "33 W HIGHWAY 221", "addr:postcode": "40810", "addr:state": "KY", "brand": "USPS", "brand:wikidata": "Q668687", "collection_times": "Mo-Fr 13:15; Sa 11:00", "name": "USPS COLLECTION BOX - BLUE BOX", "note": "ON 12/24 AND 12/31, THIS BOX MAY BE COLLECTED AS EARLY AS 12 NOON.", "ref": "4081000000"}, "type": "Feature"}
{"geometry": {"coordinates": [-83.345956397, 36.900544737], "type": "Point"}, "id": "u_6UvgPHTflWCHUWRFnv7b64tnU=", "properties": {"@spider": "usps_collection_boxes", "addr:city": "BLEDSOE", "addr:country": "US", "addr:full": "33 W HIGHWAY 221", "addr:postcode": "40810", "addr:state": "KY", "brand": "USPS", "brand:wikidata": "Q668687", "collection_times": "Mo-Fr 13:15; Sa 11:00", "name": "USPS COLLECTION BOX - PO LOBBY", "note": "ON 12/24 AND 12/31, THIS BOX MAY BE COLLECTED AS EARLY AS 12 NOON.", "ref": "4081000001"}, "type": "Feature"}
{"geometry": {"coordinates": [-83.345956397, 36.900544737], "type": "Point"}, "id": "5btb22Pf3bh47Na1HA5ykqQHpG0=", "properties": {"@spider": "usps_collection_boxes", "addr:city": "BLEDSOE", "addr:country": "US", "addr:full": "33 W HIGHWAY 221", "addr:postcode": "40810", "addr:state": "KY", "brand": "USPS", "brand:wikidata": "Q668687", "collection_times": "Mo-Fr 13:15; Sa 11:00", "name": "USPS COLLECTION BOX - PO LOBBY", "note": "ON 12/24 AND 12/31, THIS BOX MAY BE COLLECTED AS EARLY AS 12 NOON.", "ref": "4081000003"}, "type": "Feature"}
{"geometry": {"coordinates": [-83.604323584, 36.736921516], "type": "Point"}, "id": "inkCAvbwpb90AnW-0d0_m2ymyyo=", "properties": {"@spider": "usps_collection_boxes", "addr:city": "CALVIN", "addr:country": "US", "addr:full": "5501 US HIGHWAY 119", "addr:postcode": "40813", "addr:state": "KY", "brand": "USPS", "brand:wikidata": "Q668687", "collection_times": "Mo-Fr 12:00; Sa 10:30", "name": "USPS COLLECTION BOX - BLUE BOX", "ref": "4081300000"}, "type": "Feature"}
{"geometry": {"coordinates": [-83.604323584, 36.736921516], "type": "Point"}, "id": "DJhJqbpdDDjcSpMMKDkiWJN-kfE=", "properties": {"@spider": "usps_collection_boxes", "addr:city": "CALVIN", "addr:country": "US", "addr:full": "5501 US HIGHWAY 119", "addr:postcode": "40813", "addr:state": "KY", "brand": "USPS", "brand:wikidata": "Q668687", "collection_times": "Mo-Fr 12:00; Sa 10:30", "name": "USPS COLLECTION BOX - PO LOBBY", "ref": "4081300001"}, "type": "Feature"}
{"geometry": {"coordinates": [-83.604323584, 36.736921516], "type": "Point"}, "id": "Wo9WRSt4UAdKEqvb8yfixwaWh5g=", "properties": {"@spider": "usps_collection_boxes", "addr:city": "CALVIN", "addr:country": "US", "addr:full": "5501 US HIGHWAY 119", "addr:postcode": "40813", "addr:state": "KY", "brand": "USPS", "brand:wikidata": "Q668687", "collection_times": "Mo-Fr 12:00; Sa 10:30", "name": "USPS COLLECTION BOX - PO LOBBY", "ref": "4081300003"}, "type": "Feature"}
{"geometry": {"coordinates": [-83.229827612, 36.781949456], "type": "Point"}, "id": "QnSBKK8RY1twfIQcCVbqRioVCjo=", "properties": {"@spider": "usps_collection_boxes", "addr:city": "CAWOOD", "addr:country": "US", "addr:full": "3679 S HIGHWAY 3001", "addr:postcode": "40815", "addr:state": "KY", "brand": "USPS", "brand:wikidata": "Q668687", "collection_times": "Mo-Fr 12:15; Sa 11:00", "name": "USPS COLLECTION BOX - BLUE BOX", "note": "ON 12/24 AND 12/31, THIS BOX MAY BE COLLECTED AS EARLY AS 12 NOON.", "ref": "4081500000"}, "type": "Feature"}
{"geometry": {"coordinates": [-83.229827612, 36.781949456], "type": "Point"}, "id": "mihWBzRCWJTfw1Cv6BW0-YezmtU=", "properties": {"@spider": "usps_collection_boxes", "addr:city": "CAWOOD", "addr:country": "US", "addr:full": "3679 S HIGHWAY 3001", "addr:postcode": "40815", "addr:state": "KY", "brand": "USPS", "brand:wikidata": "Q668687", "collection_times": "Mo-Fr 12:15; Sa 11:00", "name": "USPS COLLECTION BOX - PO LOBBY", "note": "ON 12/24 AND 12/31, THIS BOX MAY BE COLLECTED AS EARLY AS 12 NOON.", "ref": "4081500001"}, "type": "Feature"}
{"geometry": {"coordinates": [-83.229827612, 36.781949456], "type": "Point"}, "id": "nkNTUkI5BOYmm6jgWySYB93xMuk=", "properties": {"@spider": "usps_collection_boxes", "addr:city": "CAWOOD", "addr:country": "US", "addr:full": "3679 S HIGHWAY 3001", "addr:postcode": "40815", "addr:state": "KY", "brand": "USPS", "brand:wikidata": "Q668687", "collection_times": "Mo-Fr 12:15; Sa 11:00", "name": "USPS COLLECTION BOX - PO LOBBY", "note": "ON 12/24 AND 12/31, THIS BOX MAY BE COLLECTED AS EARLY AS 12 NOON.", "ref": "4081500003"}, "type": "Feature"}
{"geometry": {"coordinates": [-83.452305176, 36.825795167], "type": "Point"}, "id": "JMyQWJEM_XoLZwR3DKVRA2LL7uQ=", "properties": {"@spider": "usps_collection_boxes", "addr:city": "COLDIRON", "addr:country": "US", "addr:full": "329 HIGHWAY 2007", "addr:postcode": "40819", "addr:state": "KY", "brand": "USPS", "brand:wikidata": "Q668687", "collection_times": "Mo-Fr 15:00; Sa 12:00", "name": "USPS COLLECTION BOX - BLUE BOX", "note": "ON 12/24 AND 12/31, THIS BOX MAY BE COLLECTED AS EARLY AS 12 NOON.", "ref": "4081900000"}, "type": "Feature"}
{"geometry": {"coordinates": [-83.452305176, 36.825795167], "type": "Point"}, "id": "A70u9hFjcjS2MfP-lBQY2YR4EaY=", "properties": {"@spider": "usps_collection_boxes", "addr:city": "COLDIRON", "addr:country": "US", "addr:full": "329 HIGHWAY 2007", "addr:postcode": "40819", "addr:state": "KY", "brand": "USPS", "brand:wikidata": "Q668687", "collection_times": "Mo-Fr 15:00; Sa 12:00", "name": "USPS COLLECTION BOX - PO LOBBY", "note": "ON 12/24 AND 12/31, THIS BOX MAY BE COLLECTED AS EARLY AS 12 NOON.", "ref": "4081900001"}, "type": "Feature"}
{"geometry": {"coordinates": [-83.452305176, 36.825795167], "type": "Point"}, "id": "Ld8redAS4sYStZj2lYDfIJ2tjPc=", "properties": {"@spider": "usps_collection_boxes", "addr:city": "COLDIRON", "addr:country": "US", "addr:full": "329 HIGHWAY 2007", "addr:postcode": "40819", "addr:state": "KY", "brand": "USPS", "brand:wikidata": "Q668687", "collection_times": "Mo-Fr 15:00; Sa 12:00", "name": "USPS COLLECTION BOX - PO LOBBY", "note": "ON 12/24 AND 12/31, THIS BOX MAY BE COLLECTED AS EARLY AS 12 NOON.", "ref": "4081900004"}, "type": "Feature"}
{"geometry": {"coordinates": [-83.176117348, 36.764313771], "type": "Point"}, "id": "JkIEU1greF8OmYYRbV0PWR0MwFk=", "properties": {"@spider": "usps_collection_boxes", "addr:city": "CRANKS", "addr:country": "US", "addr:full": "14869 S US HIGHWAY 421", "addr:postcode": "40820", "addr:state": "KY", "brand": "USPS", "brand:wikidata": "Q668687", "collection_times": "Mo-Sa 10:00", "name": "USPS COLLECTION BOX - BLUE BOX", "ref": "4082000000"}, "type": "Feature"}
{"geometry": {"coordinates": [-83.176117348, 36.764313771], "type": "Point"}, "id": "-mpsc139wxI-OU-17H_B3HA7J0A=", "properties": {"@spider": "usps_collection_boxes", "addr:city": "CRANKS", "addr:country": "US", "addr:full": "14869 S US HIGHWAY 421", "addr:postcode": "40820", "addr:state": "KY", "brand": "USPS", "brand:wikidata": "Q668687", "collection_times": "Mo-Sa 10:00", "name": "USPS COLLECTION BOX - PO LOBBY", "ref": "4082000001"}, "type": "Feature"}
{"geometry": {"coordinates": [-83.176117348, 36.764313771], "type": "Point"}, "id": "yIyF12FkxKPNRzTMCbAAw-iExw8=", "properties": {"@spider": "usps_collection_boxes", "addr:city": "CRANKS", "addr:country": "US", "addr:full": "14869 S US HIGHWAY 421", "addr:postcode": "40820", "addr:state": "KY", "brand": "USPS", "brand:wikidata": "Q668687", "collection_times": "Mo-Sa 10:00", "name": "USPS COLLECTION BOX - PO LOBBY", "ref": "4082000003"}, "type": "Feature"}
{"geometry": {"coordinates": [-82.984326783, 36.975919989], "type": "Point"}, "id": "plmJ0CYHf1g1JFvE5sq9tooT4G0=", "properties": {"@spider": "usps_collection_boxes", "addr:city": "CUMBERLAND", "addr:country": "US", "addr:full": "1312 E MAIN ST", "addr:postcode": "40823", "addr:state": "KY", "brand": "USPS", "brand:wikidata": "Q668687", "collection_times": "Mo-Sa 16:00", "name": "USPS COLLECTION BOX - BLUE BOX", "note": "ON 12/24 AND 12/31, THIS BOX MAY BE COLLECTED AS EARLY AS 12 NOON.", "ref": "4082300000"}, "type": "Feature"}
{"geometry": {"coordinates": [-82.984326783, 36.975919989], "type": "Point"}, "id": "LfGm0V1EngdbcuTMRRibjl5Fgx8=", "properties": {"@spider": "usps_collection_boxes", "addr:city": "CUMBERLAND", "addr:country": "US", "addr:full": "1312 E MAIN ST", "addr:postcode": "40823", "addr:state": "KY", "brand": "USPS", "brand:wikidata": "Q668687", "collection_times": "Mo-Sa 16:00", "name": "USPS COLLECTION BOX - PO LOBBY", "note": "ON 12/24 AND 12/31, THIS BOX MAY BE COLLECTED AS EARLY AS 12 NOON.", "ref": "4082300011"}, "type": "Feature"}
{"geometry": {"coordinates": [-82.984326783, 36.975919989], "type": "Point"}, "id": "hw7TOWQMbo04eHjgd3yDyLncJ4U=", "properties": {"@spider": "usps_collection_boxes", "addr:city": "CUMBERLAND", "addr:country": "US", "addr:full": "1312 E MAIN ST", "addr:postcode": "40823", "addr:state": "KY", "brand": "USPS", "brand:wikidata": "Q668687", "collection_times": "Mo-Fr 16:00; Sa 11:00", "name": "USPS COLLECTION BOX - PO LOBBY", "note": "ON 12/24 AND 12/31, THIS BOX MAY BE COLLECTED AS EARLY AS 12 NOON.", "ref": "4082300013"}, "type": "Feature"}
{"geometry": {"coordinates": [-82.793436627, 37.048888298], "type": "Point"}, "id": "Tt-VoaJuPQ7QJO5U5U0F5wql0K8=", "properties": {"@spider": "usps_collection_boxes", "addr:city": "EOLIA", "addr:country": "US", "addr:full": "1364 HIGHWAY 806", "addr:postcode": "40826", "addr:state": "KY", "brand": "USPS", "brand:wikidata": "Q668687", "collection_times": "Mo-Fr 10:30; Sa 11:30", "name": "USPS COLLECTION BOX - BLUE BOX", "ref": "4082600000"}, "type": "Feature"}
{"geometry": {"coordinates": [-82.793436627, 37.048888298], "type": "Point"}, "id": "H86GJ3aN7kU_AVueG_GbQFL4Rzc=", "properties": {"@spider": "usps_collection_boxes", "addr:city": "EOLIA", "addr:country": "US", "addr:full": "1364 HIGHWAY 806", "addr:postcode": "40826", "addr:state": "KY", "brand": "USPS", "brand:wikidata": "Q668687", "collection_times": "Mo-Fr 10:30; Sa 11:30", "name": "USPS COLLECTION BOX - PO LOBBY", "ref": "4082600001"}, "type": "Feature"}
{"geometry": {"coordinates": [-82.793436627, 37.048888298], "type": "Point"}, "id": "665BxwqRi8BwJOjIr7-jDC-uEQA=", "properties": {"@spider": "usps_collection_boxes", "addr:city": "EOLIA", "addr:country": "US", "addr:full": "1364 HIGHWAY 806", "addr:postcode": "40826", "addr:state": "KY", "brand": "USPS", "brand:wikidata": "Q668687", "collection_times": "Mo-Fr 10:30; Sa 11:30", "name": "USPS COLLECTION BOX - PO LOBBY", "ref": "4082600003"}, "type": "Feature"}
{"geometry": {"coordinates": [-83.454440005, 37.06182998], "type": "Point"}, "id": "di4dWoN-Ve7FhyfqsJCkzSlTh-Q=", "properties": {"@spider": "usps_collection_boxes", "addr:city": "ESSIE", "addr:country": "US", "addr:full": "5425 HIGHWAY 406", "addr:postcode": "40827", "addr:state": "KY", "brand": "USPS", "brand:wikidata": "Q668687", "collection_times": "Mo-Fr 11:00; Sa 10:00", "name": "USPS COLLECTION BOX - BLUE BOX", "ref": "4082700000"}, "type": "Feature"}
{"geometry": {"coordinates": [-83.454440005, 37.06182998], "type": "Point"}, "id": "-0_9kQHyrAeRBmkaDAoLBriCZQw=", "properties": {"@spider": "usps_collection_boxes", "addr:city": "ESSIE", "addr:country": "US", "addr:full": "5425 HIGHWAY 406", "addr:postcode": "40827", "addr:state": "KY", "brand": "USPS", "brand:wikidata": "Q668687", "collection_times": "Mo-Fr 11:00; Sa 10:00", "name": "USPS COLLECTION BOX - PO LOBBY", "ref": "4082700002"}, "type": "Feature"}
{"geometry": {"coordinates": [-83.188533, 36.862453], "type": "Point"}, "id": "p9ogAoolTl8RVJLmMihJWsnC6TM=", "properties": {"@spider": "usps_collection_boxes", "addr:city": "EVARTS", "addr:country": "US", "addr:full": "138 S MAIN ST", "addr:postcode": "40828", "addr:state": "KY", "brand": "USPS", "brand:wikidata": "Q668687", "collection_times": "Mo-Fr 16:00; Sa 14:00", "name": "USPS COLLECTION BOX - BLUE BOX", "note": "ON 12/24 AND 12/31, THIS BOX MAY BE COLLECTED AS EARLY AS 12 NOON.", "ref": "4082800000"}, "type": "Feature"}
{"geometry": {"coordinates": [-83.188533, 36.862453], "type": "Point"}, "id": "FD4_7GgpMcRWXefMmDK8tcJolfU=", "properties": {"@spider": "usps_collection_boxes", "addr:city": "EVARTS", "addr:country": "US", "addr:full": "138 S MAIN ST", "addr:postcode": "40828", "addr:state": "KY", "brand": "USPS", "brand:wikidata": "Q668687", "collection_times": "Mo-Fr 16:00; Sa 14:00", "name": "USPS COLLECTION BOX - PO LOBBY", "note": "ON 12/24 AND 12/31, THIS BOX MAY BE COLLECTED AS EARLY AS 12 NOON.", "ref": "4082800001"}, "type": "Feature"}
{"geometry": {"coordinates": [-83.18975574, 36.862615318], "type": "Point"}, "id": "_PqhlsA9fYxOwy2rRE2u2P0682M=", "properties": {"@spider": "usps_collection_boxes", "addr:city": "EVARTS", "addr:country": "US", "addr:full": "138 MAIN ST", "addr:postcode": "40828", "addr:state": "KY", "brand": "USPS", "brand:wikidata": "Q668687", "collection_times": "Mo-Fr 16:00; Sa 11:30", "name": "USPS COLLECTION BOX - PO LOBBY", "note": "ON 12/24 AND 12/31, THIS BOX MAY BE COLLECTED AS EARLY AS 12 NOON.", "ref": "4082800003"}, "type": "Feature"}
{"geometry": {"coordinates": [-83.311244, 36.810566], "type": "Point"}, "id": "e2OBZePhjDed6MvHGdQTgSyHW_g=", "properties": {"@spider": "usps_collection_boxes", "addr:city": "GRAYS KNOB", "addr:country": "US", "addr:full": "63 JUDY DR", "addr:postcode": "40829", "addr:state": "KY", "brand": "USPS", "brand:wikidata": "Q668687", "collection_times": "Mo-Fr 12:30; Sa 11:30", "name": "USPS COLLECTION BOX - BLUE BOX", "note": "ON 12/24 AND 12/31, THIS BOX MAY BE COLLECTED AS EARLY AS 12 NOON.", "ref": "4082900000"}, "type": "Feature"}
{"geometry": {"coordinates": [-83.311244, 36.810566], "type": "Point"}, "id": "Pl0-go9zLJlCeDbZpjNPN8MEJRo=", "properties": {"@spider": "usps_collection_boxes", "addr:city": "GRAYS KNOB", "addr:country": "US", "addr:full": "63 JUDY DR", "addr:postcode": "40829", "addr:state": "KY", "brand": "USPS", "brand:wikidata": "Q668687", "collection_times": "Mo-Fr 12:30; Sa 11:30", "name": "USPS COLLECTION BOX - PO LOBBY", "note": "ON 12/24 AND 12/31, THIS BOX MAY BE COLLECTED AS EARLY AS 12 NOON.", "ref": "4082900001"}, "type": "Feature"}
{"geometry": {"coordinates": [-83.311576158, 36.810402398], "type": "Point"}, "id": "M2XypEm_UdZSjsogNvl-G-5NDog=", "properties": {"@spider": "usps_collection_boxes", "addr:city": "GRAYS KNOB", "addr:country": "US", "addr:full": "63 JUDY DR", "addr:postcode": "40829", "addr:state": "KY", "brand": "USPS", "brand:wikidata": "Q668687", "collection_times": "Mo-Fr 12:30; Sa 11:30", "name": "USPS COLLECTION BOX - PO LOBBY", "note": "ON 12/24 AND 12/31, THIS BOX MAY BE COLLECTED AS EARLY AS 12 NOON.", "ref": "4082900003"}, "type": "Feature"}
{"geometry": {"coordinates": [-83.321816136, 36.8475102], "type": "Point"}, "id": "8bEQHUeB0qZRlyQx211lFICuk5E=", "properties": {"@spider": "usps_collection_boxes", "addr:city": "HARLAN", "addr:country": "US", "addr:full": "111 N 1ST ST", "addr:postcode": "40831", "addr:state": "KY", "brand": "USPS", "brand:wikidata": "Q668687", "collection_times": "Mo-Fr 16:00; Sa 11:00", "name": "USPS COLLECTION BOX - BLUE BOX", "note": "ON 12/24 AND 12/31, THIS BOX MAY BE COLLECTED AS EARLY AS 12 NOON.", "ref": "4083100000"}, "type": "Feature"}
{"geometry": {"coordinates": [-83.3238004, 36.846394], "type": "Point"}, "id": "74wU4tWTpo60UcpVmVYD4rt8ct8=", "properties": {"@spider": "usps_collection_boxes", "addr:city": "HARLAN", "addr:country": "US", "addr:full": "115 S CUMBERLAND AVE", "addr:postcode": "40831", "addr:state": "KY", "brand": "USPS", "brand:wikidata": "Q668687", "collection_times": "Mo-Sa 09:30", "name": "USPS COLLECTION BOX - BLUE BOX", "ref": "4083100004"}, "type": "Feature"}
{"geometry": {"coordinates": [-83.3168496, 36.814405], "type": "Point"}, "id": "nvzjbFJGO_zsabAR8hP2GfGA6o0=", "properties": {"@spider": "usps_collection_boxes", "addr:city": "HARLAN", "addr:country": "US", "addr:full": "168 VILLAGE CENTER RD", "addr:postcode": "40831", "addr:state": "KY", "brand": "USPS", "brand:wikidata": "Q668687", "collection_times": "Mo-Sa 09:15", "name": "USPS COLLECTION BOX - BLUE BOX", "ref": "4083100017"}, "type": "Feature"}
{"geometry": {"coordinates": [-83.3227745, 36.826383], "type": "Point"}, "id": "mdGnVLDQs4z1s2bD9wKVQy_F-tU=", "properties": {"@spider": "usps_collection_boxes", "addr:city": "HARLAN", "addr:country": "US", "addr:full": "2478 S US HIGHWAY 421", "addr:postcode": "40831", "addr:state": "KY", "brand": "USPS", "brand:wikidata": "Q668687", "collection_times": "Mo-Sa 09:00", "name": "USPS COLLECTION BOX - BLUE BOX", "ref": "4083100019"}, "type": "Feature"}
{"geometry": {"coordinates": [-83.321816136, 36.8475102], "type": "Point"}, "id": "NzR7JSuF0XYcSBUPXBRFIv3HCrY=", "properties": {"@spider": "usps_collection_boxes", "addr:city": "HARLAN", "addr:country": "US", "addr:full": "111 N 1ST ST", "addr:postcode": "40831", "addr:state": "KY", "brand": "USPS", "brand:wikidata": "Q668687", "collection_times": "Mo-Fr 16:00; Sa 11:00", "name": "USPS COLLECTION BOX - PO LOBBY", "note": "ON 12/24 AND 12/31, THIS BOX MAY BE COLLECTED AS EARLY AS 12 NOON.", "ref": "4083100020"}, "type": "Feature"}
{"geometry": {"coordinates": [-83.321816136, 36.8475102], "type": "Point"}, "id": "T17AH-so8Bg5tSlpVK21XXwgx-w=", "properties": {"@spider": "usps_collection_boxes", "addr:city": "HARLAN", "addr:country": "US", "addr:full": "111 N 1ST ST", "addr:postcode": "40831", "addr:state": "KY", "brand": "USPS", "brand:wikidata": "Q668687", "collection_times": "Mo-Fr 16:00; Sa 11:00", "name": "USPS COLLECTION BOX - BLUE BOX", "note": "ON 12/24 AND 12/31, THIS BOX MAY BE COLLECTED AS EARLY AS 12 NOON.", "ref": "4083100021"}, "type": "Feature"}
{"geometry": {"coordinates": [-83.3183499, 36.819246], "type": "Point"}, "id": "SlRIpmZf6YB8wIKTMgqZoyIoPtw=", "properties": {"@spider": "usps_collection_boxes", "addr:city": "HARLAN", "addr:country": "US", "addr:full": "200 WALDON DR", "addr:postcode": "40831", "addr:state": "KY", "brand": "USPS", "brand:wikidata": "Q668687", "collection_times": "Mo-Sa 09:00", "name": "USPS COLLECTION BOX - BLUE BOX", "ref": "4083100022"}, "type": "Feature"}
{"geometry": {"coordinates": [-83.321816136, 36.8475102], "type": "Point"}, "id": "C_Fo32D7pc0vBb-3qr-2dIWVDxo=", "properties": {"@spider": "usps_collection_boxes", "addr:city": "HARLAN", "addr:country": "US", "addr:full": "111 N 1ST ST", "addr:postcode": "40831", "addr:state": "KY", "brand": "USPS", "brand:wikidata": "Q668687", "collection_times": "Mo-Fr 16:00; Sa 11:00", "name": "USPS COLLECTION BOX - PO LOBBY", "note": "ON 12/24 AND 12/31, THIS BOX MAY BE COLLECTED AS EARLY AS 12 NOON.", "ref": "4083100025"}, "type": "Feature"}
{"geometry": {"coordinates": [-83.403241742, 37.071259309], "type": "Point"}, "id": "ScP64QTgi4_uMayZsLWONfmVuqY=", "properties": {"@spider": "usps_collection_boxes", "addr:city": "HOSKINSTON", "addr:country": "US", "addr:full": "13464 HIGHWAY 421", "addr:postcode": "40844", "addr:state": "KY", "brand": "USPS", "brand:wikidata": "Q668687", "collection_times": "Mo-Fr 11:30; Sa 10:15", "name": "USPS COLLECTION BOX - BLUE BOX", "ref": "4084400000"}, "type": "Feature"}
{"geometry": {"coordinates": [-83.403241742, 37.071259309], "type": "Point"}, "id": "5xXc_ZS5BDjJcjSsPBa7WiFusv4=", "properties": {"@spider": "usps_collection_boxes", "addr:city": "HOSKINSTON", "addr:country": "US", "addr:full": "13464 HIGHWAY 421", "addr:postcode": "40844", "addr:state": "KY", "brand": "USPS", "brand:wikidata": "Q668687", "collection_times": "Mo-Fr 11:30; Sa 10:15", "name": "USPS COLLECTION BOX - PO LOBBY", "ref": "4084400001"}, "type": "Feature"}
{"geometry": {"coordinates": [-83.393666903, 37.0785089331], "type": "Point"}, "id": "UquyMNCoEpouVp1cglt5yf1iM6Y=", "properties": {"@spider": "usps_collection_boxes", "addr:city": "HOSKINSTON", "addr:country": "US", "addr:full": "14304 HIGHWAY 421", "addr:postcode": "40844", "addr:state": "KY", "brand": "USPS", "brand:wikidata": "Q668687", "collection_times": "Mo-Sa 08:00", "name": "USPS COLLECTION BOX - BLUE BOX", "ref": "4084400002"}, "type": "Feature"}
{"geometry": {"coordinates": [-83.403241742, 37.071259309], "type": "Point"}, "id": "BqwoNHbjldT_gAiKnbqrhfVRLSE=", "properties": {"@spider": "usps_collection_boxes", "addr:city": "HOSKINSTON", "addr:country": "US", "addr:full": "13464 HIGHWAY 421", "addr:postcode": "40844", "addr:state": "KY", "brand": "USPS", "brand:wikidata": "Q668687", "collection_times": "Mo-Fr 11:30; Sa 10:15", "name": "USPS COLLECTION BOX - PO LOBBY", "ref": "4084400004"}, "type": "Feature"}
{"geometry": {"coordinates": [-83.1576330958, 36.8526245484], "type": "Point"}, "id": "wJ44rbcfrmQABWYbTr9Pqyyvqbc=", "properties": {"@spider": "usps_collection_boxes", "addr:city": "KENVIR", "addr:country": "US", "addr:full": "139 POST OFFICE DR", "addr:postcode": "40847", "addr:state": "KY", "brand": "USPS", "brand:wikidata": "Q668687", "collection_times": "Mo-Fr 12:00; Sa 10:30", "name": "USPS COLLECTION BOX - BLUE BOX", "ref": "4084700000"}, "type": "Feature"}
{"geometry": {"coordinates": [-83.157637986, 36.85262985], "type": "Point"}, "id": "qcjlvsPGjTZKXajX0g8vpLtGYmU=", "properties": {"@spider": "usps_collection_boxes", "addr:city": "KENVIR", "addr:country": "US", "addr:full": "139 POST OFFICE DR", "addr:postcode": "40847", "addr:state": "KY", "brand": "USPS", "brand:wikidata": "Q668687", "collection_times": "Mo-Fr 12:00; Sa 10:30", "name": "USPS COLLECTION BOX - PO LOBBY", "ref": "4084700001"}, "type": "Feature"}
{"geometry": {"coordinates": [-83.157637986, 36.85262985], "type": "Point"}, "id": "HmXjqevI11j5TDzhXhvHx_29VUA=", "properties": {"@spider": "usps_collection_boxes", "addr:city": "KENVIR", "addr:country": "US", "addr:full": "139 POST OFFICE DR", "addr:postcode": "40847", "addr:state": "KY", "brand": "USPS", "brand:wikidata": "Q668687", "collection_times": "Mo-Fr 12:00; Sa 10:30", "name": "USPS COLLECTION BOX - PO LOBBY", "ref": "4084700003"}, "type": "Feature"}
{"geometry": {"coordinates": [-83.135993218, 36.899502638], "type": "Point"}, "id": "4x1kMNn4euAd-C2LDilq3eA1JYw=", "properties": {"@spider": "usps_collection_boxes", "addr:city": "LEJUNIOR", "addr:country": "US", "addr:full": "13161 HIGHWAY 38", "addr:postcode": "40849", "addr:state": "KY", "brand": "USPS", "brand:wikidata": "Q668687", "collection_times": "Mo-Sa 11:30", "name": "USPS COLLECTION BOX - BLUE BOX", "ref": "4084900000"}, "type": "Feature"}
{"geometry": {"coordinates": [-83.135993218, 36.899502638], "type": "Point"}, "id": "_orGmaR1YMLagxfPca3qM7H0l_8=", "properties": {"@spider": "usps_collection_boxes", "addr:city": "LEJUNIOR", "addr:country": "US", "addr:full": "13161 HIGHWAY 38", "addr:postcode": "40849", "addr:state": "KY", "brand": "USPS", "brand:wikidata": "Q668687", "collection_times": "Mo-Sa 11:30", "name": "USPS COLLECTION BOX - PO LOBBY", "ref": "4084900003"}, "type": "Feature"}
{"geometry": {"coordinates": [-83.353091593, 36.852458857], "type": "Point"}, "id": "9PYlsbF9Hiu12-ITV8akpX2YX_Q=", "properties": {"@spider": "usps_collection_boxes", "addr:city": "LOYALL", "addr:country": "US", "addr:full": "106 BAILEY ST", "addr:postcode": "40854", "addr:state": "KY", "brand": "USPS", "brand:wikidata": "Q668687", "collection_times": "Mo-Fr 15:30; Sa 11:15", "name": "USPS COLLECTION BOX - BLUE BOX", "note": "ON 12/24 AND 12/31, THIS BOX MAY BE COLLECTED AS EARLY AS 12 NOON.", "ref": "4085400000"}, "type": "Feature"}
{"geometry": {"coordinates": [-83.353091593, 36.852458857], "type": "Point"}, "id": "3hw-p4_GuJsYHXu5TK8dRNGGyUc=", "properties": {"@spider": "usps_collection_boxes", "addr:city": "LOYALL", "addr:country": "US", "addr:full": "106 BAILEY ST", "addr:postcode": "40854", "addr:state": "KY", "brand": "USPS", "brand:wikidata": "Q668687", "collection_times": "Mo-Fr 15:30; Sa 11:15", "name": "USPS COLLECTION BOX - PO LOBBY", "note": "ON 12/24 AND 12/31, THIS BOX MAY BE COLLECTED AS EARLY AS 12 NOON.", "ref": "4085400001"}, "type": "Feature"}
{"geometry": {"coordinates": [-83.353091593, 36.852458857], "type": "Point"}, "id": "EzWjN1abLCDjKv768Al4pSivapM=", "properties": {"@spider": "usps_collection_boxes", "addr:city": "LOYALL", "addr:country": "US", "addr:full": "106 BAILEY ST", "addr:postcode": "40854", "addr:state": "KY", "brand": "USPS", "brand:wikidata": "Q668687", "collection_times": "Mo-Fr 15:30; Sa 11:15", "name": "USPS COLLECTION BOX - PO LOBBY", "note": "ON 12/24 AND 12/31, THIS BOX MAY BE COLLECTED AS EARLY AS 12 NOON.", "ref": "4085400002"}, "type": "Feature"}
{"geometry": {"coordinates": [-83.353091593, 36.852458857], "type": "Point"}, "id": "QpMM65BzY7Z_F-l2cLuT5CAHXrY=", "properties": {"@spider": "usps_collection_boxes", "addr:city": "LOYALL", "addr:country": "US", "addr:full": "106 BAILEY ST", "addr:postcode": "40854", "addr:state": "KY", "brand": "USPS", "brand:wikidata": "Q668687", "collection_times": "Mo-Fr 15:30; Sa 11:00", "name": "USPS COLLECTION BOX - PO LOBBY", "note": "ON 12/24 AND 12/31, THIS BOX MAY BE COLLECTED AS EARLY AS 12 NOON.", "ref": "4085400004"}, "type": "Feature"}
{"geometry": {"coordinates": [-82.913782127, 36.964576748], "type": "Point"}, "id": "3f9-Xuj14NHRYj3jDXAhwFmVecI=", "properties": {"@spider": "usps_collection_boxes", "addr:city": "LYNCH", "addr:country": "US", "addr:full": "10 E MAIN ST", "addr:postcode": "40855", "addr:state": "KY", "brand": "USPS", "brand:wikidata": "Q668687", "collection_times": "Mo-Fr 13:00; Sa 11:00", "name": "USPS COLLECTION BOX - BLUE BOX", "note": "ON 12/24 AND 12/31, THIS BOX MAY BE COLLECTED AS EARLY AS 12 NOON.", "ref": "4085500000"}, "type": "Feature"}
{"geometry": {"coordinates": [-82.913782127, 36.964576748], "type": "Point"}, "id": "TFM5kUeIc18VMuRfKLxB05cOIHA=", "properties": {"@spider": "usps_collection_boxes", "addr:city": "LYNCH", "addr:country": "US", "addr:full": "10 E MAIN ST", "addr:postcode": "40855", "addr:state": "KY", "brand": "USPS", "brand:wikidata": "Q668687", "collection_times": "Mo-Fr 13:00; Sa 11:00", "name": "USPS COLLECTION BOX - PO LOBBY", "note": "ON 12/24 AND 12/31, THIS BOX MAY BE COLLECTED AS EARLY AS 12 NOON.", "ref": "4085500001"}, "type": "Feature"}
{"geometry": {"coordinates": [-82.913782127, 36.964576748], "type": "Point"}, "id": "GvXXEC0jZY1CFcW9QICKN1mzeXA=", "properties": {"@spider": "usps_collection_boxes", "addr:city": "LYNCH", "addr:country": "US", "addr:full": "10 E MAIN ST", "addr:postcode": "40855", "addr:state": "KY", "brand": "USPS", "brand:wikidata": "Q668687", "collection_times": "Mo-Fr 12:45; Sa 11:00", "name": "USPS COLLECTION BOX - PO LOBBY", "note": "ON 12/24 AND 12/31, THIS BOX MAY BE COLLECTED AS EARLY AS 12 NOON.", "ref": "4085500003"}, "type": "Feature"}
{"geometry": {"coordinates": [-83.551817851, 36.705285], "type": "Point"}, "id": "Ak-VL_gAAnjdFeOUr715F35Ne7I=", "properties": {"@spider": "usps_collection_boxes", "addr:city": "MIRACLE", "addr:country": "US", "addr:full": "10845 HIGHWAY 987 BROWNIES CRK", "addr:postcode": "40856", "addr:state": "KY", "brand": "USPS", "brand:wikidata": "Q668687", "collection_times": "Mo-Sa 09:30", "name": "USPS COLLECTION BOX - BLUE BOX", "ref": "4085600000"}, "type": "Feature"}
{"geometry": {"coordinates": [-83.551817851, 36.705285], "type": "Point"}, "id": "24QjxGpysrsOBA_Os06NfIajJxA=", "properties": {"@spider": "usps_collection_boxes", "addr:city": "MIRACLE", "addr:country": "US", "addr:full": "10845 HIGHWAY 987 BROWNIES CRK", "addr:postcode": "40856", "addr:state": "KY", "brand": "USPS", "brand:wikidata": "Q668687", "collection_times": "Mo-Sa 09:30", "name": "USPS COLLECTION BOX - PO LOBBY", "ref": "4085600001"}, "type": "Feature"}
{"geometry": {"coordinates": [-83.551817851, 36.705285], "type": "Point"}, "id": "ikzl5Ymq-OuvAXef7AaAGSTM_vU=", "properties": {"@spider": "usps_collection_boxes", "addr:city": "MIRACLE", "addr:country": "US", "addr:full": "10845 HIGHWAY 987 BROWNIES CRK", "addr:postcode": "40856", "addr:state": "KY", "brand": "USPS", "brand:wikidata": "Q668687", "collection_times": "Mo-Sa 09:30", "name": "USPS COLLECTION BOX - PO LOBBY", "ref": "4085600003"}, "type": "Feature"}
{"geometry": {"coordinates": [-82.899782242, 37.006742618], "type": "Point"}, "id": "kdOIvSsC-UH6FXpnGbvZNlYj-pc=", "properties": {"@spider": "usps_collection_boxes", "addr:city": "PARTRIDGE", "addr:country": "US", "addr:full": "469 HIGHWAY 3073", "addr:postcode": "40862", "addr:state": "KY", "brand": "USPS", "brand:wikidata": "Q668687", "collection_times": "Mo-Fr 11:15; Sa 10:00", "name": "USPS COLLECTION BOX - BLUE BOX", "ref": "4086200000"}, "type": "Feature"}
{"geometry": {"coordinates": [-82.899782242, 37.006742618], "type": "Point"}, "id": "4sJf00AA5sUN5_U9CXkMzZP489M=", "properties": {"@spider": "usps_collection_boxes", "addr:city": "PARTRIDGE", "addr:country": "US", "addr:full": "469 HIGHWAY 3073", "addr:postcode": "40862", "addr:state": "KY", "brand": "USPS", "brand:wikidata": "Q668687", "collection_times": "Mo-Fr 11:15; Sa 10:00", "name": "USPS COLLECTION BOX - PO LOBBY", "ref": "4086200001"}, "type": "Feature"}
{"geometry": {"coordinates": [-82.899782242, 37.006742618], "type": "Point"}, "id": "uPSwApbNX6y7YSg4R7RMGHwAV78=", "properties": {"@spider": "usps_collection_boxes", "addr:city": "PARTRIDGE", "addr:country": "US", "addr:full": "469 HIGHWAY 3073", "addr:postcode": "40862", "addr:state": "KY", "brand": "USPS", "brand:wikidata": "Q668687", "collection_times": "Mo-Fr 11:15; Sa 10:00", "name": "USPS COLLECTION BOX - PO LOBBY", "ref": "4086200003"}, "type": "Feature"}
{"geometry": {"coordinates": [-83.463356891, 36.755375468], "type": "Point"}, "id": "bpSye7B10RB7d4NdHW9qDcqdoiY=", "properties": {"@spider": "usps_collection_boxes", "addr:city": "PATHFORK", "addr:country": "US", "addr:full": "63 BUNCH ST", "addr:postcode": "40863", "addr:state": "KY", "brand": "USPS", "brand:wikidata": "Q668687", "collection_times": "Mo-Sa 11:30", "name": "USPS COLLECTION BOX - PO LOBBY", "ref": "4086300001"}, "type": "Feature"}
{"geometry": {"coordinates": [-83.463356891, 36.755375468], "type": "Point"}, "id": "F0bkLUntVRSe41kMjrU-po1CrkY=", "properties": {"@spider": "usps_collection_boxes", "addr:city": "PATHFORK", "addr:country": "US", "addr:full": "63 BUNCH ST", "addr:postcode": "40863", "addr:state": "KY", "brand": "USPS", "brand:wikidata": "Q668687", "collection_times": "Mo-Sa 11:30", "name": "USPS COLLECTION BOX - PO LOBBY", "ref": "4086300003"}, "type": "Feature"}
{"geometry": {"coordinates": [-83.223740222, 36.908507673], "type": "Point"}, "id": "QdKXHS6HaYPHDxB2_fibsyb00DA=", "properties": {"@spider": "usps_collection_boxes", "addr:city": "PUTNEY", "addr:country": "US", "addr:full": "4416 HIGHWAY 522", "addr:postcode": "40865", "addr:state": "KY", "brand": "USPS", "brand:wikidata": "Q668687", "collection_times": "Mo-Sa 11:00", "name": "USPS COLLECTION BOX - BLUE BOX", "ref": "4086500000"}, "type": "Feature"}
{"geometry": {"coordinates": [-83.223740222, 36.908507673], "type": "Point"}, "id": "oKAb09sblYxlF-Pi6XAqdqoE1UA=", "properties": {"@spider": "usps_collection_boxes", "addr:city": "PUTNEY", "addr:country": "US", "addr:full": "4416 HIGHWAY 522", "addr:postcode": "40865", "addr:state": "KY", "brand": "USPS", "brand:wikidata": "Q668687", "collection_times": "Mo-Sa 11:00", "name": "USPS COLLECTION BOX - PO LOBBY", "ref": "4086500001"}, "type": "Feature"}
{"geometry": {"coordinates": [-83.223740222, 36.908507673], "type": "Point"}, "id": "jhmVOsyNMofZSXx-rUZo3tNTyds=", "properties": {"@spider": "usps_collection_boxes", "addr:city": "PUTNEY", "addr:country": "US", "addr:full": "4416 HIGHWAY 522", "addr:postcode": "40865", "addr:state": "KY", "brand": "USPS", "brand:wikidata": "Q668687", "collection_times": "Mo-Sa 11:00", "name": "USPS COLLECTION BOX - PO LOBBY", "ref": "4086500003"}, "type": "Feature"}
{"geometry": {"coordinates": [-83.396400019, 37.09087998], "type": "Point"}, "id": "txwFYwdOc8e0scZlGDoV91prqnQ=", "properties": {"@spider": "usps_collection_boxes", "addr:city": "STINNETT", "addr:country": "US", "addr:full": "25 HIGHWAY 406", "addr:postcode": "40868", "addr:state": "KY", "brand": "USPS", "brand:wikidata": "Q668687", "collection_times": "Mo-Sa 11:30", "name": "USPS COLLECTION BOX - BLUE BOX", "ref": "4086800000"}, "type": "Feature"}
{"geometry": {"coordinates": [-83.396400019, 37.09087998], "type": "Point"}, "id": "kL_LuTu_P3VjdUa0DE0QTjeDaPY=", "properties": {"@spider": "usps_collection_boxes", "addr:city": "STINNETT", "addr:country": "US", "addr:full": "25 HIGHWAY 406", "addr:postcode": "40868", "addr:state": "KY", "brand": "USPS", "brand:wikidata": "Q668687", "collection_times": "Mo-Sa 11:30", "name": "USPS COLLECTION BOX - PO LOBBY", "ref": "4086800001"}, "type": "Feature"}
{"geometry": {"coordinates": [-83.433839969, 37.080979988], "type": "Point"}, "id": "hHBf3cDmBq9vnCL1ybFIYTdni3o=", "properties": {"@spider": "usps_collection_boxes", "addr:city": "STINNETT", "addr:country": "US", "addr:full": "2645 HIGHWAY 406", "addr:postcode": "40868", "addr:state": "KY", "brand": "USPS", "brand:wikidata": "Q668687", "collection_times": "Mo-Sa 08:45", "name": "USPS COLLECTION BOX - BLUE BOX", "ref": "4086800002"}, "type": "Feature"}
{"geometry": {"coordinates": [-83.396400019, 37.09087998], "type": "Point"}, "id": "cwcGPhMphPBbab4YfPC3tme07hM=", "properties": {"@spider": "usps_collection_boxes", "addr:city": "STINNETT", "addr:country": "US", "addr:full": "25 HIGHWAY 406", "addr:postcode": "40868", "addr:state": "KY", "brand": "USPS", "brand:wikidata": "Q668687", "collection_times": "Mo-Sa 11:30", "name": "USPS COLLECTION BOX - PO LOBBY", "ref": "4086800004"}, "type": "Feature"}
{"geometry": {"coordinates": [-83.117535858, 36.944744683], "type": "Point"}, "id": "430Iw3RbMPLrnryOcJ90GCirI-0=", "properties": {"@spider": "usps_collection_boxes", "addr:city": "TOTZ", "addr:country": "US", "addr:full": "11036 HIGHWAY 522", "addr:postcode": "40870", "addr:state": "KY", "brand": "USPS", "brand:wikidata": "Q668687", "collection_times": "Mo-Sa 11:00", "name": "USPS COLLECTION BOX - BLUE BOX", "ref": "4087000000"}, "type": "Feature"}
{"geometry": {"coordinates": [-83.117535858, 36.944744683], "type": "Point"}, "id": "am1L14BhOF6Daib4OwN3oN1zjy4=", "properties": {"@spider": "usps_collection_boxes", "addr:city": "TOTZ", "addr:country": "US", "addr:full": "11036 HIGHWAY 522", "addr:postcode": "40870", "addr:state": "KY", "brand": "USPS", "brand:wikidata": "Q668687", "collection_times": "Mo-Fr 15:30; Sa 13:45", "name": "USPS COLLECTION BOX - PO LOBBY", "note": "ON 12/24 AND 12/31, THIS BOX MAY BE COLLECTED AS EARLY AS 12 NOON.", "ref": "4087000002"}, "type": "Feature"}
{"geometry": {"coordinates": [-83.413045863, 36.824163339], "type": "Point"}, "id": "bUxAlKOUzrZoxu-_dcEaOAs6LR0=", "properties": {"@spider": "usps_collection_boxes", "addr:city": "WALLINS CREEK", "addr:country": "US", "addr:full": "854 HIGHWAY 219", "addr:postcode": "40873", "addr:state": "KY", "brand": "USPS", "brand:wikidata": "Q668687", "collection_times": "Mo-Fr 15:15; Sa 11:15", "name": "USPS COLLECTION BOX - BLUE BOX", "note": "ON 12/24 AND 12/31, THIS BOX MAY BE COLLECTED AS EARLY AS 12 NOON.", "ref": "4087300000"}, "type": "Feature"}
{"geometry": {"coordinates": [-83.413045863, 36.824163339], "type": "Point"}, "id": "2O3Ny5EdYH-sxsRHLbwziYHCO_k=", "properties": {"@spider": "usps_collection_boxes", "addr:city": "WALLINS CREEK", "addr:country": "US", "addr:full": "854 HIGHWAY 219", "addr:postcode": "40873", "addr:state": "KY", "brand": "USPS", "brand:wikidata": "Q668687", "collection_times": "Mo-Fr 15:15; Sa 11:15", "name": "USPS COLLECTION BOX - PO LOBBY", "note": "ON 12/24 AND 12/31, THIS BOX MAY BE COLLECTED AS EARLY AS 12 NOON.", "ref": "4087300001"}, "type": "Feature"}
{"geometry": {"coordinates": [-83.413045863, 36.824163339], "type": "Point"}, "id": "XOmc3I8QJ-_jOkBprTU8-lEQEzQ=", "properties": {"@spider": "usps_collection_boxes", "addr:city": "WALLINS CREEK", "addr:country": "US", "addr:full": "854 HIGHWAY 219", "addr:postcode": "40873", "addr:state": "KY", "brand": "USPS", "brand:wikidata": "Q668687", "collection_times": "Mo-Fr 15:30; Sa 11:15", "name": "USPS COLLECTION BOX - PO LOBBY", "note": "ON 12/24 AND 12/31, THIS BOX MAY BE COLLECTED AS EARLY AS 12 NOON.", "ref": "4087300003"}, "type": "Feature"}
{"geometry": {"coordinates": [-83.4088371, 37.044456], "type": "Point"}, "id": "P9yvA2WoO3Tt9a_wDhZSRA-tsAY=", "properties": {"@spider": "usps_collection_boxes", "addr:city": "WARBRANCH", "addr:country": "US", "addr:full": "420 MIDDLE FORK RD", "addr:postcode": "40874", "addr:state": "KY", "brand": "USPS", "brand:wikidata": "Q668687", "collection_times": "Mo-Sa 08:15", "name": "USPS COLLECTION BOX - BLUE BOX", "ref": "4087400002"}, "type": "Feature"}
