{"geometry": {"coordinates": [-85.347959, 40.178241], "type": "Point"}, "id": "v8-m0zgQ6L1-fJjvRt4Fre_b6Kw=", "properties": {"@spider": "usps_collection_boxes", "addr:city": "MUNCIE", "addr:country": "US", "addr:full": "3303 E MEMORIAL DR", "addr:postcode": "47302", "addr:state": "IN", "brand": "USPS", "collection_times": "Mo-Sa 09:15", "name": "USPS COLLECTION BOX - BLUE BOX", "ref": "4730200005"}, "type": "Feature"}
{"geometry": {"coordinates": [-85.403656, 40.153682], "type": "Point"}, "id": "ry1SUtvsgtoPUtaTqTSHN-7-YQg=", "properties": {"@spider": "usps_collection_boxes", "addr:city": "MUNCIE", "addr:country": "US", "addr:full": "4300 S COWAN RD", "addr:postcode": "47302", "addr:state": "IN", "brand": "USPS", "collection_times": "Mo-Fr 18:30; Sa 18:00", "name": "USPS COLLECTION BOX - BLUE BOX", "note": "ON 12/24 AND 12/31, THIS BOX MAY BE COLLECTED AS EARLY AS 12 NOON.", "ref": "4730200091"}, "type": "Feature"}
{"geometry": {"coordinates": [-85.391802, 40.178287505], "type": "Point"}, "id": "l97kvVayxaMwr3896bPCM54mbhE=", "properties": {"@spider": "usps_collection_boxes", "addr:city": "MUNCIE", "addr:country": "US", "addr:full": "501 W MEMORIAL DR", "addr:postcode": "47302", "addr:state": "IN", "brand": "USPS", "collection_times": "Mo-Fr 17:15; Sa 15:45", "name": "USPS COLLECTION BOX - BLUE BOX", "note": "ON 12/24 AND 12/31, THIS BOX MAY BE COLLECTED AS EARLY AS 12 NOON.", "ref": "4730200102"}, "type": "Feature"}
{"geometry": {"coordinates": [-85.391802, 40.178287505], "type": "Point"}, "id": "LVUtKST9odVeAMvnYP6dv2y7mIE=", "properties": {"@spider": "usps_collection_boxes", "addr:city": "MUNCIE", "addr:country": "US", "addr:full": "501 W MEMORIAL DR", "addr:postcode": "47302", "addr:state": "IN", "brand": "USPS", "collection_times": "Mo-Fr 17:15; Sa 15:45", "name": "USPS COLLECTION BOX - BLUE BOX", "note": "ON 12/24 AND 12/31, THIS BOX MAY BE COLLECTED AS EARLY AS 12 NOON.", "ref": "4730200133"}, "type": "Feature"}
{"geometry": {"coordinates": [-85.391802, 40.178287505], "type": "Point"}, "id": "D2e9rGJax-kOa1jinGVqJLH57b0=", "properties": {"@spider": "usps_collection_boxes", "addr:city": "MUNCIE", "addr:country": "US", "addr:full": "501 W MEMORIAL DR", "addr:postcode": "47302", "addr:state": "IN", "brand": "USPS", "collection_times": "Mo-Fr 17:15; Sa 15:45", "name": "USPS COLLECTION BOX - BLUE BOX", "note": "ON 12/24 AND 12/31, THIS BOX MAY BE COLLECTED AS EARLY AS 12 NOON.", "ref": "4730200134"}, "type": "Feature"}
{"geometry": {"coordinates": [-85.391802, 40.178287505], "type": "Point"}, "id": "qObyUL2_WYN0Jx2di7AOCpvUVAE=", "properties": {"@spider": "usps_collection_boxes", "addr:city": "MUNCIE", "addr:country": "US", "addr:full": "501 W MEMORIAL DR", "addr:postcode": "47302", "addr:state": "IN", "brand": "USPS", "collection_times": "Mo-Fr 17:30; Sa 12:00", "name": "USPS COLLECTION BOX - PO LOBBY", "note": "ON 12/24 AND 12/31, THIS BOX MAY BE COLLECTED AS EARLY AS 12 NOON.", "ref": "4730200145"}, "type": "Feature"}
{"geometry": {"coordinates": [-85.4039452, 40.197716], "type": "Point"}, "id": "FKjtB7ssgMlaO_RWk3-8sjPT-6c=", "properties": {"@spider": "usps_collection_boxes", "addr:city": "MUNCIE", "addr:country": "US", "addr:full": "1524 W UNIVERSITY AVE", "addr:postcode": "47303", "addr:state": "IN", "brand": "USPS", "collection_times": "Mo-Sa 13:00", "name": "USPS COLLECTION BOX - BLUE BOX", "note": "ON 12/24 AND 12/31, THIS BOX MAY BE COLLECTED AS EARLY AS 12 NOON.", "ref": "4730300001"}, "type": "Feature"}
{"geometry": {"coordinates": [-85.4155895, 40.196876], "type": "Point"}, "id": "_nfJRIqq7S7D4qwcGFANMjcZOXA=", "properties": {"@spider": "usps_collection_boxes", "addr:city": "MUNCIE", "addr:country": "US", "addr:full": "2401 W UNIVERSITY AVE", "addr:postcode": "47303", "addr:state": "IN", "brand": "USPS", "collection_times": "Mo-Sa 09:15", "name": "USPS COLLECTION BOX - BLUE BOX", "ref": "4730300002"}, "type": "Feature"}
{"geometry": {"coordinates": [-85.3477471, 40.19324], "type": "Point"}, "id": "4XkZP9AhdlzOMcAdWws6hCc4kZM=", "properties": {"@spider": "usps_collection_boxes", "addr:city": "MUNCIE", "addr:country": "US", "addr:full": "3310 E JACKSON ST", "addr:postcode": "47303", "addr:state": "IN", "brand": "USPS", "collection_times": "Mo-Sa 14:00", "name": "USPS COLLECTION BOX - BLUE BOX", "note": "ON 12/24 AND 12/31, THIS BOX MAY BE COLLECTED AS EARLY AS 12 NOON.", "ref": "4730300003"}, "type": "Feature"}
{"geometry": {"coordinates": [-85.3719494, 40.218244], "type": "Point"}, "id": "b31g7AWaHa1qn85p_TMm_9iTPH8=", "properties": {"@spider": "usps_collection_boxes", "addr:city": "MUNCIE", "addr:country": "US", "addr:full": "1301 E MCGALLIARD RD", "addr:postcode": "47303", "addr:state": "IN", "brand": "USPS", "collection_times": "Mo-Sa 13:00", "name": "USPS COLLECTION BOX - BLUE BOX", "note": "ON 12/24 AND 12/31, THIS BOX MAY BE COLLECTED AS EARLY AS 12 NOON.", "ref": "4730300004"}, "type": "Feature"}
{"geometry": {"coordinates": [-85.373250242, 40.220588891], "type": "Point"}, "id": "46r54yJZ6hQMGOXUw8I-N7emZiA=", "properties": {"@spider": "usps_collection_boxes", "addr:city": "MUNCIE", "addr:country": "US", "addr:full": "3501 N GRANVILLE AVE", "addr:postcode": "47303", "addr:state": "IN", "brand": "USPS", "collection_times": "Mo-Sa 13:00", "name": "USPS COLLECTION BOX - BLUE BOX", "note": "ON 12/24 AND 12/31, THIS BOX MAY BE COLLECTED AS EARLY AS 12 NOON.", "ref": "4730300007"}, "type": "Feature"}
{"geometry": {"coordinates": [-85.388837975, 40.2196321676], "type": "Point"}, "id": "I-JtrTzQjgCPzdZaTnAVX4o7mXw=", "properties": {"@spider": "usps_collection_boxes", "addr:city": "MUNCIE", "addr:country": "US", "addr:full": "3320 N FRANKLIN ST", "addr:postcode": "47303", "addr:state": "IN", "brand": "USPS", "collection_times": "Mo-Sa 14:00", "name": "USPS COLLECTION BOX - BLUE BOX", "note": "ON 12/24 AND 12/31, THIS BOX MAY BE COLLECTED AS EARLY AS 12 NOON.", "ref": "4730300008"}, "type": "Feature"}
{"geometry": {"coordinates": [-85.3864347, 40.209972], "type": "Point"}, "id": "-e_fymutEumP1r9yBey5x-CqNvk=", "properties": {"@spider": "usps_collection_boxes", "addr:city": "MUNCIE", "addr:country": "US", "addr:full": "1900 N WALNUT ST", "addr:postcode": "47303", "addr:state": "IN", "brand": "USPS", "collection_times": "Mo-Sa 09:00", "name": "USPS COLLECTION BOX - BLUE BOX", "ref": "4730300009"}, "type": "Feature"}
{"geometry": {"coordinates": [-85.4211291, 40.187254], "type": "Point"}, "id": "3Zfbk-ji_YrES9iijqgYn27l_lI=", "properties": {"@spider": "usps_collection_boxes", "addr:city": "MUNCIE", "addr:country": "US", "addr:full": "715 S TILLOTSON AVE", "addr:postcode": "47304", "addr:state": "IN", "brand": "USPS", "collection_times": "Mo-Sa 11:00", "name": "USPS COLLECTION BOX - BLUE BOX", "ref": "4730400001"}, "type": "Feature"}
{"geometry": {"coordinates": [-85.4373435, 40.217836], "type": "Point"}, "id": "2Yb5o66Aid3EB8FkLXQjtrSbQ8M=", "properties": {"@spider": "usps_collection_boxes", "addr:city": "MUNCIE", "addr:country": "US", "addr:full": "4319 W CLARA LN", "addr:postcode": "47304", "addr:state": "IN", "brand": "USPS", "collection_times": "Mo-Fr 16:30; Sa 14:00", "name": "USPS COLLECTION BOX - BLUE BOX", "note": "ON 12/24 AND 12/31, THIS BOX MAY BE COLLECTED AS EARLY AS 12 NOON.", "ref": "4730400002"}, "type": "Feature"}
{"geometry": {"coordinates": [-85.4326888, 40.223707], "type": "Point"}, "id": "Kdp_ulh68rDqLIcNQkW93wo0yMo=", "properties": {"@spider": "usps_collection_boxes", "addr:city": "MUNCIE", "addr:country": "US", "addr:full": "3701 N CHADAM LN", "addr:postcode": "47304", "addr:state": "IN", "brand": "USPS", "collection_times": "Mo-Sa 09:00", "name": "USPS COLLECTION BOX - BLUE BOX", "ref": "4730400003"}, "type": "Feature"}
{"geometry": {"coordinates": [-85.4108786, 40.232637], "type": "Point"}, "id": "2VQVegiNopdi8B_IeInq-Sodw3Q=", "properties": {"@spider": "usps_collection_boxes", "addr:city": "MUNCIE", "addr:country": "US", "addr:full": "4801 N WHEELING AVE", "addr:postcode": "47304", "addr:state": "IN", "brand": "USPS", "collection_times": "Mo-Fr 17:00; Sa 14:45", "name": "USPS COLLECTION BOX - BLUE BOX", "note": "ON 12/24 AND 12/31, THIS BOX MAY BE COLLECTED AS EARLY AS 12 NOON.", "ref": "4730400004"}, "type": "Feature"}
{"geometry": {"coordinates": [-85.4040885, 40.217788], "type": "Point"}, "id": "VXyOcQozj6NVwAnsSxDLqknxP5Y=", "properties": {"@spider": "usps_collection_boxes", "addr:city": "MUNCIE", "addr:country": "US", "addr:full": "1515 W MCGALLIARD RD", "addr:postcode": "47304", "addr:state": "IN", "brand": "USPS", "collection_times": "Mo-Sa 13:00", "name": "USPS COLLECTION BOX - BLUE BOX", "note": "ON 12/24 AND 12/31, THIS BOX MAY BE COLLECTED AS EARLY AS 12 NOON.", "ref": "4730400005"}, "type": "Feature"}
{"geometry": {"coordinates": [-85.4211039, 40.192874], "type": "Point"}, "id": "60h4xKIfs47WNlSDlTy_fw6Pzs4=", "properties": {"@spider": "usps_collection_boxes", "addr:city": "MUNCIE", "addr:country": "US", "addr:full": "2903 W JACKSON ST", "addr:postcode": "47304", "addr:state": "IN", "brand": "USPS", "collection_times": "Mo-Fr 16:00; Sa 12:30", "name": "USPS COLLECTION BOX - BLUE BOX", "note": "ON 12/24 AND 12/31, THIS BOX MAY BE COLLECTED AS EARLY AS 12 NOON.", "ref": "4730400008"}, "type": "Feature"}
{"geometry": {"coordinates": [-85.419136497, 40.194179832], "type": "Point"}, "id": "b6LUoPWsQ79AwRJHApiXWAop3C0=", "properties": {"@spider": "usps_collection_boxes", "addr:city": "MUNCIE", "addr:country": "US", "addr:full": "100 N TILLOTSON AVE", "addr:postcode": "47304", "addr:state": "IN", "brand": "USPS", "collection_times": "Mo-Fr 16:00; Sa 12:30", "name": "USPS COLLECTION BOX - BLUE BOX", "note": "ON 12/24 AND 12/31, THIS BOX MAY BE COLLECTED AS EARLY AS 12 NOON.", "ref": "4730400009"}, "type": "Feature"}
{"geometry": {"coordinates": [-85.4326908, 40.221408], "type": "Point"}, "id": "hObHWs0yidojDmxtjazQ_itHmVI=", "properties": {"@spider": "usps_collection_boxes", "addr:city": "MUNCIE", "addr:country": "US", "addr:full": "3910 W BETHEL AVE", "addr:postcode": "47304", "addr:state": "IN", "brand": "USPS", "collection_times": "Mo-Fr 16:00; Sa 13:15", "name": "USPS COLLECTION BOX - BLUE BOX", "note": "ON 12/24 AND 12/31, THIS BOX MAY BE COLLECTED AS EARLY AS 12 NOON.", "ref": "4730400011"}, "type": "Feature"}
{"geometry": {"coordinates": [-85.408408, 40.225969], "type": "Point"}, "id": "KZBxbbr-9HmkUv8nIuQiD51uFI0=", "properties": {"@spider": "usps_collection_boxes", "addr:city": "MUNCIE", "addr:country": "US", "addr:full": "1807 W PURDUE AVE", "addr:postcode": "47304", "addr:state": "IN", "brand": "USPS", "collection_times": "Mo-Fr 17:00; Sa 14:45", "name": "USPS COLLECTION BOX - BLUE BOX", "note": "ON 12/24 AND 12/31, THIS BOX MAY BE COLLECTED AS EARLY AS 12 NOON.", "ref": "4730400012"}, "type": "Feature"}
{"geometry": {"coordinates": [-85.4042361, 40.220118], "type": "Point"}, "id": "pHqjOwYFnWwE9QoXnN5FwSdTKZM=", "properties": {"@spider": "usps_collection_boxes", "addr:city": "MUNCIE", "addr:country": "US", "addr:full": "1500 W MCGALLIARD RD", "addr:postcode": "47304", "addr:state": "IN", "brand": "USPS", "collection_times": "Mo-Sa 09:30", "name": "USPS COLLECTION BOX - BLUE BOX", "ref": "4730400013"}, "type": "Feature"}
{"geometry": {"coordinates": [-85.4595999, 40.22073], "type": "Point"}, "id": "Q7UW2Ff2yOxxgtG6EzvF-C4hKco=", "properties": {"@spider": "usps_collection_boxes", "addr:city": "MUNCIE", "addr:country": "US", "addr:full": "6260 W MCGALLIARD RD", "addr:postcode": "47304", "addr:state": "IN", "brand": "USPS", "collection_times": "Mo-Fr 16:30; Sa 14:00", "name": "USPS COLLECTION BOX - BLUE BOX", "note": "ON 12/24 AND 12/31, THIS BOX MAY BE COLLECTED AS EARLY AS 12 NOON.", "ref": "4730400014"}, "type": "Feature"}
{"geometry": {"coordinates": [-85.4286114, 40.22018], "type": "Point"}, "id": "IBarqaHPdFNeyo5eqBl-D1sFFNM=", "properties": {"@spider": "usps_collection_boxes", "addr:city": "MUNCIE", "addr:country": "US", "addr:full": "3600 W FOX RIDGE LN", "addr:postcode": "47304", "addr:state": "IN", "brand": "USPS", "collection_times": "Mo-Fr 16:00; Sa 13:15", "name": "USPS COLLECTION BOX - BLUE BOX", "note": "ON 12/24 AND 12/31, THIS BOX MAY BE COLLECTED AS EARLY AS 12 NOON.", "ref": "4730400015"}, "type": "Feature"}
{"geometry": {"coordinates": [-85.4092137, 40.216093], "type": "Point"}, "id": "W_gE-5FYTEYNipzOmJLgXrHYRL0=", "properties": {"@spider": "usps_collection_boxes", "addr:city": "MUNCIE", "addr:country": "US", "addr:full": "1926 W ROYALE DR", "addr:postcode": "47304", "addr:state": "IN", "brand": "USPS", "collection_times": "Mo-Fr 15:30; Sa 14:00", "name": "USPS COLLECTION BOX - BLUE BOX", "note": "ON 12/24 AND 12/31, THIS BOX MAY BE COLLECTED AS EARLY AS 12 NOON.", "ref": "4730400016"}, "type": "Feature"}
{"geometry": {"coordinates": [-85.3873659695, 40.1902750089], "type": "Point"}, "id": "a0snlvmqVSVIoHgNE8VeBTrovyE=", "properties": {"@spider": "usps_collection_boxes", "addr:city": "MUNCIE", "addr:country": "US", "addr:full": "420 S HIGH ST", "addr:postcode": "47305", "addr:state": "IN", "brand": "USPS", "collection_times": "Mo-Sa 09:00", "name": "USPS COLLECTION BOX - BLUE BOX", "ref": "4730500001"}, "type": "Feature"}
{"geometry": {"coordinates": [-85.3894572, 40.193677], "type": "Point"}, "id": "nNBNfR_MUvjTS-1bXL-E0CQHKW8=", "properties": {"@spider": "usps_collection_boxes", "addr:city": "MUNCIE", "addr:country": "US", "addr:full": "313 W MAIN ST", "addr:postcode": "47305", "addr:state": "IN", "brand": "USPS", "collection_times": "Mo-Fr 17:15; Sa 15:30", "name": "USPS COLLECTION BOX - BLUE BOX", "note": "ON 12/24 AND 12/31, THIS BOX MAY BE COLLECTED AS EARLY AS 12 NOON.", "ref": "4730500002"}, "type": "Feature"}
{"geometry": {"coordinates": [-85.388848506, 40.193082419], "type": "Point"}, "id": "yilIRxc18rElGRD2KddYUGpmQ7c=", "properties": {"@spider": "usps_collection_boxes", "addr:city": "MUNCIE", "addr:country": "US", "addr:full": "125 S FRANKLIN ST", "addr:postcode": "47305", "addr:state": "IN", "brand": "USPS", "collection_times": "Mo-Fr 17:15; Sa 15:30", "name": "USPS COLLECTION BOX - BLUE BOX", "note": "ON 12/24 AND 12/31, THIS BOX MAY BE COLLECTED AS EARLY AS 12 NOON.", "ref": "4730500003"}, "type": "Feature"}
{"geometry": {"coordinates": [-85.3869149, 40.194269], "type": "Point"}, "id": "dGZHTUHiBc4CM3LGbcz9QD-if7g=", "properties": {"@spider": "usps_collection_boxes", "addr:city": "MUNCIE", "addr:country": "US", "addr:full": "100 W MAIN ST", "addr:postcode": "47305", "addr:state": "IN", "brand": "USPS", "collection_times": "Mo-Sa 09:00", "name": "USPS COLLECTION BOX - BLUE BOX", "ref": "4730500005"}, "type": "Feature"}
{"geometry": {"coordinates": [-85.386747, 40.195517], "type": "Point"}, "id": "Z_SJuEVeHO30vReaDmXIgFRA_8E=", "properties": {"@spider": "usps_collection_boxes", "addr:city": "MUNCIE", "addr:country": "US", "addr:full": "125 W GILBERT ST", "addr:postcode": "47305", "addr:state": "IN", "brand": "USPS", "collection_times": "Mo-Sa 09:00", "name": "USPS COLLECTION BOX - BLUE BOX", "ref": "4730500006"}, "type": "Feature"}
{"geometry": {"coordinates": [-85.3894276, 40.19367], "type": "Point"}, "id": "xi9dgw39F9gmA7DyphSzHbPFNf0=", "properties": {"@spider": "usps_collection_boxes", "addr:city": "MUNCIE", "addr:country": "US", "addr:full": "313 W MAIN ST", "addr:postcode": "47305", "addr:state": "IN", "brand": "USPS", "collection_times": "Mo-Fr 17:15; Sa 15:30", "name": "USPS COLLECTION BOX - BLUE BOX", "note": "ON 12/24 AND 12/31, THIS BOX MAY BE COLLECTED AS EARLY AS 12 NOON.", "ref": "4730500007"}, "type": "Feature"}
{"geometry": {"coordinates": [-85.3841665, 40.193581], "type": "Point"}, "id": "Vq2Rx8IWYbPkcHGlDnbIxgDxEcY=", "properties": {"@spider": "usps_collection_boxes", "addr:city": "MUNCIE", "addr:country": "US", "addr:full": "221 E MAIN ST", "addr:postcode": "47305", "addr:state": "IN", "brand": "USPS", "collection_times": "Mo-Fr 17:00; Sa 15:15", "name": "USPS COLLECTION BOX - BLUE BOX", "note": "ON 12/24 AND 12/31, THIS BOX MAY BE COLLECTED AS EARLY AS 12 NOON.", "ref": "4730500008"}, "type": "Feature"}
{"geometry": {"coordinates": [-85.388848506, 40.193082419], "type": "Point"}, "id": "JDdPgRryeAdVucVZPuHf_Uw4zNU=", "properties": {"@spider": "usps_collection_boxes", "addr:city": "MUNCIE", "addr:country": "US", "addr:full": "125 S FRANKLIN ST", "addr:postcode": "47305", "addr:state": "IN", "brand": "USPS", "collection_times": "Mo-Fr 17:00", "name": "USPS COLLECTION BOX - PO LOBBY", "note": "ON 12/24 AND 12/31, THIS BOX MAY BE COLLECTED AS EARLY AS 12 NOON.", "ref": "4730500009"}, "type": "Feature"}
{"geometry": {"coordinates": [-85.4081964, 40.19701], "type": "Point"}, "id": "S4UD9sTQaXZ6JCHkPJ60VSwEfqg=", "properties": {"@spider": "usps_collection_boxes", "addr:city": "MUNCIE", "addr:country": "US", "addr:full": "2001 W UNIVERSITY AVE", "addr:postcode": "47306", "addr:state": "IN", "brand": "USPS", "collection_times": "Mo-Sa 09:00", "name": "USPS COLLECTION BOX - BLUE BOX", "ref": "4730600001"}, "type": "Feature"}
{"geometry": {"coordinates": [-85.235323112, 40.29982446], "type": "Point"}, "id": "zQb57OEYvvpIO9y1Gj1cWHvA0Co=", "properties": {"@spider": "usps_collection_boxes", "addr:city": "ALBANY", "addr:country": "US", "addr:full": "230 E STATE ST", "addr:postcode": "47320", "addr:state": "IN", "brand": "USPS", "collection_times": "Mo-Fr 16:00; Sa 11:00", "name": "USPS COLLECTION BOX - BLUE BOX", "note": "ON 12/24 AND 12/31, THIS BOX MAY BE COLLECTED AS EARLY AS 12 NOON.", "ref": "4732000000"}, "type": "Feature"}
{"geometry": {"coordinates": [-85.246841, 40.299638], "type": "Point"}, "id": "VJ_RslWlyGTMDuFPvPYVsjY21WM=", "properties": {"@spider": "usps_collection_boxes", "addr:city": "ALBANY", "addr:country": "US", "addr:full": "913 W STATE ST", "addr:postcode": "47320", "addr:state": "IN", "brand": "USPS", "collection_times": "Mo-Fr 08:00", "name": "USPS COLLECTION BOX - BLUE BOX", "ref": "4732000002"}, "type": "Feature"}
{"geometry": {"coordinates": [-85.235323112, 40.29982446], "type": "Point"}, "id": "Z4ldEg4EBMxVjX52aJEi9pDHmIs=", "properties": {"@spider": "usps_collection_boxes", "addr:city": "ALBANY", "addr:country": "US", "addr:full": "230 E STATE ST", "addr:postcode": "47320", "addr:state": "IN", "brand": "USPS", "collection_times": "Mo-Fr 16:00; Sa 11:00", "name": "USPS COLLECTION BOX - PO LOBBY", "note": "ON 12/24 AND 12/31, THIS BOX MAY BE COLLECTED AS EARLY AS 12 NOON.", "ref": "4732000007"}, "type": "Feature"}
{"geometry": {"coordinates": [-85.235323112, 40.29982446], "type": "Point"}, "id": "ULzWzWkp2GqzybbdxI5h3_B9vSM=", "properties": {"@spider": "usps_collection_boxes", "addr:city": "ALBANY", "addr:country": "US", "addr:full": "230 E STATE ST", "addr:postcode": "47320", "addr:state": "IN", "brand": "USPS", "collection_times": "Mo-Fr 16:00; Sa 10:30", "name": "USPS COLLECTION BOX - PO LOBBY", "note": "ON 12/24 AND 12/31, THIS BOX MAY BE COLLECTED AS EARLY AS 12 NOON.", "ref": "4732000012"}, "type": "Feature"}
{"geometry": {"coordinates": [-85.243473305, 39.745249064], "type": "Point"}, "id": "gHdJ5z8n8774nBD6JeHGPTCLtgo=", "properties": {"@spider": "usps_collection_boxes", "addr:city": "BENTONVILLE", "addr:country": "US", "addr:full": "7029 N COUNTY ROAD 550 W", "addr:postcode": "47322", "addr:state": "IN", "brand": "USPS", "collection_times": "Mo-Fr 16:00; Sa 09:30", "name": "USPS COLLECTION BOX - BLUE BOX", "note": "ON 12/24 AND 12/31, THIS BOX MAY BE COLLECTED AS EARLY AS 12 NOON.", "ref": "4732200001"}, "type": "Feature"}
{"geometry": {"coordinates": [-85.243473305, 39.745249064], "type": "Point"}, "id": "B31Ml6IpCqKO4GzphvLp8na3PXg=", "properties": {"@spider": "usps_collection_boxes", "addr:city": "BENTONVILLE", "addr:country": "US", "addr:full": "7029 N COUNTY ROAD 550 W", "addr:postcode": "47322", "addr:state": "IN", "brand": "USPS", "collection_times": "Mo-Fr 15:00; Sa 10:00", "name": "USPS COLLECTION BOX - PO LOBBY", "note": "ON 12/24 AND 12/31, THIS BOX MAY BE COLLECTED AS EARLY AS 12 NOON.", "ref": "4732200002"}, "type": "Feature"}
{"geometry": {"coordinates": [-84.851847814, 39.74063378], "type": "Point"}, "id": "ud-0BPpX1XL87r_AAbewKHtrIdc=", "properties": {"@spider": "usps_collection_boxes", "addr:city": "BOSTON", "addr:country": "US", "addr:full": "103 S SALEM ST", "addr:postcode": "47324", "addr:state": "IN", "brand": "USPS", "collection_times": "Mo-Fr 16:00; Sa 10:00", "name": "USPS COLLECTION BOX - BLUE BOX", "note": "ON 12/24 AND 12/31, THIS BOX MAY BE COLLECTED AS EARLY AS 12 NOON.", "ref": "4732400001"}, "type": "Feature"}
{"geometry": {"coordinates": [-84.851847814, 39.74063378], "type": "Point"}, "id": "TEinBgPt3rCvDVKXrKKiU7js1oA=", "properties": {"@spider": "usps_collection_boxes", "addr:city": "BOSTON", "addr:country": "US", "addr:full": "103 S SALEM ST", "addr:postcode": "47324", "addr:state": "IN", "brand": "USPS", "collection_times": "Mo-Fr 10:45; Sa 10:00", "name": "USPS COLLECTION BOX - PO LOBBY", "ref": "4732400002"}, "type": "Feature"}
{"geometry": {"coordinates": [-84.851847814, 39.74063378], "type": "Point"}, "id": "u2wirgeeWfjZgLamar4MVGpevdI=", "properties": {"@spider": "usps_collection_boxes", "addr:city": "BOSTON", "addr:country": "US", "addr:full": "103 S SALEM ST", "addr:postcode": "47324", "addr:state": "IN", "brand": "USPS", "collection_times": "Mo-Fr 11:00; Sa 10:00", "name": "USPS COLLECTION BOX - PO LOBBY", "ref": "4732400003"}, "type": "Feature"}
{"geometry": {"coordinates": [-85.004554728, 39.664946881], "type": "Point"}, "id": "9a-o89xiNjsYMD-oBxPvNY1m0sk=", "properties": {"@spider": "usps_collection_boxes", "addr:city": "BROWNSVILLE", "addr:country": "US", "addr:full": "104 N MAIN ST", "addr:postcode": "47325", "addr:state": "IN", "brand": "USPS", "collection_times": "Mo-Fr 13:30; Sa 11:15", "name": "USPS COLLECTION BOX - BLUE BOX", "note": "ON 12/24 AND 12/31, THIS BOX MAY BE COLLECTED AS EARLY AS 12 NOON.", "ref": "4732500000"}, "type": "Feature"}
{"geometry": {"coordinates": [-85.004554728, 39.664946881], "type": "Point"}, "id": "uKZRjA6gObB4Lf4sGfZcDDAoT2I=", "properties": {"@spider": "usps_collection_boxes", "addr:city": "BROWNSVILLE", "addr:country": "US", "addr:full": "104 N MAIN ST", "addr:postcode": "47325", "addr:state": "IN", "brand": "USPS", "collection_times": "Mo-Fr 13:30; Sa 11:15", "name": "USPS COLLECTION BOX - PO LOBBY", "note": "ON 12/24 AND 12/31, THIS BOX MAY BE COLLECTED AS EARLY AS 12 NOON.", "ref": "4732500001"}, "type": "Feature"}
{"geometry": {"coordinates": [-85.004554728, 39.664946881], "type": "Point"}, "id": "cSZYaQCa6XHswV_ul8l_uYhTPYc=", "properties": {"@spider": "usps_collection_boxes", "addr:city": "BROWNSVILLE", "addr:country": "US", "addr:full": "104 N MAIN ST", "addr:postcode": "47325", "addr:state": "IN", "brand": "USPS", "collection_times": "Mo-Fr 12:00; Sa 11:00", "name": "USPS COLLECTION BOX - PO LOBBY", "ref": "4732500002"}, "type": "Feature"}
{"geometry": {"coordinates": [-84.9646706, 40.54065], "type": "Point"}, "id": "hg8ZMn6ip35O3NcmHDSxOUvwdbU=", "properties": {"@spider": "usps_collection_boxes", "addr:city": "BRYANT", "addr:country": "US", "addr:full": "893 E STATE ROAD 18", "addr:postcode": "47326", "addr:state": "IN", "brand": "USPS", "collection_times": "Mo-Fr 12:30", "name": "USPS COLLECTION BOX - BLUE BOX", "note": "ON 12/24 AND 12/31, THIS BOX MAY BE COLLECTED AS EARLY AS 12 NOON.", "ref": "4732600000"}, "type": "Feature"}
{"geometry": {"coordinates": [-84.963994973, 40.533867512], "type": "Point"}, "id": "F9Daz3F8AMbRbgy1yhzjaJVa6sw=", "properties": {"@spider": "usps_collection_boxes", "addr:city": "BRYANT", "addr:country": "US", "addr:full": "104 E MAIN ST", "addr:postcode": "47326", "addr:state": "IN", "brand": "USPS", "collection_times": "Mo-Fr 16:00; Sa 10:00", "name": "USPS COLLECTION BOX - BLUE BOX", "note": "ON 12/24 AND 12/31, THIS BOX MAY BE COLLECTED AS EARLY AS 12 NOON.", "ref": "4732600001"}, "type": "Feature"}
{"geometry": {"coordinates": [-84.963994973, 40.533867512], "type": "Point"}, "id": "g8MQMLUUMd4oIwPszN0koavOFnc=", "properties": {"@spider": "usps_collection_boxes", "addr:city": "BRYANT", "addr:country": "US", "addr:full": "104 E MAIN ST", "addr:postcode": "47326", "addr:state": "IN", "brand": "USPS", "collection_times": "Mo-Fr 16:00; Sa 10:15", "name": "USPS COLLECTION BOX - PO LOBBY", "note": "ON 12/24 AND 12/31, THIS BOX MAY BE COLLECTED AS EARLY AS 12 NOON.", "ref": "4732600002"}, "type": "Feature"}
{"geometry": {"coordinates": [-84.963994973, 40.533867512], "type": "Point"}, "id": "MAIlUw4gx8FaPL-Ao6UFRPcdWqQ=", "properties": {"@spider": "usps_collection_boxes", "addr:city": "BRYANT", "addr:country": "US", "addr:full": "104 E MAIN ST", "addr:postcode": "47326", "addr:state": "IN", "brand": "USPS", "collection_times": "Mo-Fr 16:00; Sa 10:00", "name": "USPS COLLECTION BOX - PO LOBBY", "note": "ON 12/24 AND 12/31, THIS BOX MAY BE COLLECTED AS EARLY AS 12 NOON.", "ref": "4732600003"}, "type": "Feature"}
{"geometry": {"coordinates": [-85.174682254, 39.812443479], "type": "Point"}, "id": "2vPbsOFmeHxoth7toI6wPvVkN94=", "properties": {"@spider": "usps_collection_boxes", "addr:city": "CAMBRIDGE CITY", "addr:country": "US", "addr:full": "227 W MAIN ST", "addr:postcode": "47327", "addr:state": "IN", "brand": "USPS", "collection_times": "Mo-Fr 16:45; Sa 13:45", "name": "USPS COLLECTION BOX - BLUE BOX", "note": "ON 12/24 AND 12/31, THIS BOX MAY BE COLLECTED AS EARLY AS 12 NOON.", "ref": "4732700005"}, "type": "Feature"}
{"geometry": {"coordinates": [-85.174991, 39.812382], "type": "Point"}, "id": "5I0dRYPVYYquNrsw5ldcQpUtC4M=", "properties": {"@spider": "usps_collection_boxes", "addr:city": "CAMBRIDGE CITY", "addr:country": "US", "addr:full": "238 W MAIN ST", "addr:postcode": "47327", "addr:state": "IN", "brand": "USPS", "collection_times": "Mo-Fr 16:45; Sa 13:45", "name": "USPS COLLECTION BOX - BLUE BOX", "note": "ON 12/24 AND 12/31, THIS BOX MAY BE COLLECTED AS EARLY AS 12 NOON.", "ref": "4732700006"}, "type": "Feature"}
{"geometry": {"coordinates": [-85.174682254, 39.812443479], "type": "Point"}, "id": "3Lvv5ud8TZ7ZT5fyikubbhRwgVM=", "properties": {"@spider": "usps_collection_boxes", "addr:city": "CAMBRIDGE CITY", "addr:country": "US", "addr:full": "227 W MAIN ST", "addr:postcode": "47327", "addr:state": "IN", "brand": "USPS", "collection_times": "Mo-Fr 16:45; Sa 13:45", "name": "USPS COLLECTION BOX - PO LOBBY", "note": "ON 12/24 AND 12/31, THIS BOX MAY BE COLLECTED AS EARLY AS 12 NOON.", "ref": "4732700011"}, "type": "Feature"}
{"geometry": {"coordinates": [-85.174682254, 39.812443479], "type": "Point"}, "id": "DOtS1vQvKImi0IPQrjDtdnY75W8=", "properties": {"@spider": "usps_collection_boxes", "addr:city": "CAMBRIDGE CITY", "addr:country": "US", "addr:full": "227 W MAIN ST", "addr:postcode": "47327", "addr:state": "IN", "brand": "USPS", "collection_times": "Mo-Fr 16:30; Sa 11:30", "name": "USPS COLLECTION BOX - PO LOBBY", "note": "ON 12/24 AND 12/31, THIS BOX MAY BE COLLECTED AS EARLY AS 12 NOON.", "ref": "4732700016"}, "type": "Feature"}
{"geometry": {"coordinates": [-84.9929830083, 39.81798599], "type": "Point"}, "id": "_FB0Z8s6rvUFPB_2_s6ye0RSrwk=", "properties": {"@spider": "usps_collection_boxes", "addr:city": "CENTERVILLE", "addr:country": "US", "addr:full": "300 E MAIN ST", "addr:postcode": "47330", "addr:state": "IN", "brand": "USPS", "collection_times": "Mo-Fr 16:15; Sa 14:15", "name": "USPS COLLECTION BOX - BLUE BOX", "note": "ON 12/24 AND 12/31, THIS BOX MAY BE COLLECTED AS EARLY AS 12 NOON.", "ref": "4733000002"}, "type": "Feature"}
{"geometry": {"coordinates": [-84.993047968, 39.8175599798], "type": "Point"}, "id": "QBWj0RQ_shwd_ZK5KlACdhhhysk=", "properties": {"@spider": "usps_collection_boxes", "addr:city": "CENTERVILLE", "addr:country": "US", "addr:full": "301 E MAIN ST", "addr:postcode": "47330", "addr:state": "IN", "brand": "USPS", "collection_times": "Mo-Fr 16:00; Sa 14:15", "name": "USPS COLLECTION BOX - BLUE BOX", "note": "ON 12/24 AND 12/31, THIS BOX MAY BE COLLECTED AS EARLY AS 12 NOON.", "ref": "4733000003"}, "type": "Feature"}
{"geometry": {"coordinates": [-84.993012, 39.81776953], "type": "Point"}, "id": "kIiksEJIslo-vRBJuBbJJEjrVbs=", "properties": {"@spider": "usps_collection_boxes", "addr:city": "CENTERVILLE", "addr:country": "US", "addr:full": "300 E MAIN ST", "addr:postcode": "47330", "addr:state": "IN", "brand": "USPS", "collection_times": "Mo-Fr 16:15; Sa 11:30", "name": "USPS COLLECTION BOX - PO LOBBY", "note": "ON 12/24 AND 12/31, THIS BOX MAY BE COLLECTED AS EARLY AS 12 NOON.", "ref": "4733000007"}, "type": "Feature"}
{"geometry": {"coordinates": [-84.993012, 39.81776953], "type": "Point"}, "id": "PVRlpHz5mUg6kMUnhQ5SRYVuAoM=", "properties": {"@spider": "usps_collection_boxes", "addr:city": "CENTERVILLE", "addr:country": "US", "addr:full": "300 E MAIN ST", "addr:postcode": "47330", "addr:state": "IN", "brand": "USPS", "collection_times": "Mo-Fr 16:30; Sa 11:30", "name": "USPS COLLECTION BOX - PO LOBBY", "note": "ON 12/24 AND 12/31, THIS BOX MAY BE COLLECTED AS EARLY AS 12 NOON.", "ref": "4733000008"}, "type": "Feature"}
{"geometry": {"coordinates": [-85.1369393689, 39.6445623517], "type": "Point"}, "id": "M3UzSKl1TVEd_6TgTWsOId1WBg4=", "properties": {"@spider": "usps_collection_boxes", "addr:city": "CONNERSVILLE", "addr:country": "US", "addr:full": "801 N CENTRAL AVE", "addr:postcode": "47331", "addr:state": "IN", "brand": "USPS", "collection_times": "Mo-Fr 16:45; Sa 16:30", "name": "USPS COLLECTION BOX - BLUE BOX", "note": "ON 12/24 AND 12/31, THIS BOX MAY BE COLLECTED AS EARLY AS 12 NOON.", "ref": "4733100005"}, "type": "Feature"}
{"geometry": {"coordinates": [-85.1288279, 39.638725], "type": "Point"}, "id": "w8IyqSevE3y9xkjxj-rEj3RXJk8=", "properties": {"@spider": "usps_collection_boxes", "addr:city": "CONNERSVILLE", "addr:country": "US", "addr:full": "100 VINE ST", "addr:postcode": "47331", "addr:state": "IN", "brand": "USPS", "collection_times": "Mo-Sa 14:15", "name": "USPS COLLECTION BOX - BLUE BOX", "note": "ON 12/24 AND 12/31, THIS BOX MAY BE COLLECTED AS EARLY AS 12 NOON.", "ref": "4733100007"}, "type": "Feature"}
{"geometry": {"coordinates": [-85.1348250104, 39.6730330026], "type": "Point"}, "id": "djLjN3Pw9ZKm-P4zHjH8t2aIv_o=", "properties": {"@spider": "usps_collection_boxes", "addr:city": "CONNERSVILLE", "addr:country": "US", "addr:full": "522 W 30TH ST", "addr:postcode": "47331", "addr:state": "IN", "brand": "USPS", "collection_times": "Mo-Sa 14:15", "name": "USPS COLLECTION BOX - BLUE BOX", "note": "ON 12/24 AND 12/31, THIS BOX MAY BE COLLECTED AS EARLY AS 12 NOON.", "ref": "4733100024"}, "type": "Feature"}
{"geometry": {"coordinates": [-85.1321515, 39.656611], "type": "Point"}, "id": "u009pV2MJkqwN4WvKkscG5kDB30=", "properties": {"@spider": "usps_collection_boxes", "addr:city": "CONNERSVILLE", "addr:country": "US", "addr:full": "1941 VIRGINIA AVE", "addr:postcode": "47331", "addr:state": "IN", "brand": "USPS", "collection_times": "Mo-Sa 14:15", "name": "USPS COLLECTION BOX - BLUE BOX", "note": "ON 12/24 AND 12/31, THIS BOX MAY BE COLLECTED AS EARLY AS 12 NOON.", "ref": "4733100030"}, "type": "Feature"}
{"geometry": {"coordinates": [-85.1489188067, 39.6400526228], "type": "Point"}, "id": "xhEM6J-t1UWP0akVT1haTz99Awk=", "properties": {"@spider": "usps_collection_boxes", "addr:city": "CONNERSVILLE", "addr:country": "US", "addr:full": "513 W 3RD ST", "addr:postcode": "47331", "addr:state": "IN", "brand": "USPS", "collection_times": "Mo-Sa 14:00", "name": "USPS COLLECTION BOX - BLUE BOX", "note": "ON 12/24 AND 12/31, THIS BOX MAY BE COLLECTED AS EARLY AS 12 NOON.", "ref": "4733100036"}, "type": "Feature"}
{"geometry": {"coordinates": [-85.137057, 39.684321], "type": "Point"}, "id": "aBzVZv8Q8qckEGc_C5YKNTnIReE=", "properties": {"@spider": "usps_collection_boxes", "addr:city": "CONNERSVILLE", "addr:country": "US", "addr:full": "4200 WESTERN AVE", "addr:postcode": "47331", "addr:state": "IN", "brand": "USPS", "collection_times": "Mo-Sa 14:00", "name": "USPS COLLECTION BOX - BLUE BOX", "note": "ON 12/24 AND 12/31, THIS BOX MAY BE COLLECTED AS EARLY AS 12 NOON.", "ref": "4733100039"}, "type": "Feature"}
{"geometry": {"coordinates": [-85.1282359, 39.671774], "type": "Point"}, "id": "gF2PN2O8Ninxfuyk74g_5H7OaEY=", "properties": {"@spider": "usps_collection_boxes", "addr:city": "CONNERSVILLE", "addr:country": "US", "addr:full": "200 E 30TH ST", "addr:postcode": "47331", "addr:state": "IN", "brand": "USPS", "collection_times": "Mo-Sa 14:00", "name": "USPS COLLECTION BOX - BLUE BOX", "note": "ON 12/24 AND 12/31, THIS BOX MAY BE COLLECTED AS EARLY AS 12 NOON.", "ref": "4733100041"}, "type": "Feature"}
{"geometry": {"coordinates": [-85.139807968, 39.6404020021], "type": "Point"}, "id": "v0Kox_HZkJoOB94SVDfA67zLFzs=", "properties": {"@spider": "usps_collection_boxes", "addr:city": "CONNERSVILLE", "addr:country": "US", "addr:full": "400 N CENTRAL AVE", "addr:postcode": "47331", "addr:state": "IN", "brand": "USPS", "collection_times": "Mo-Sa 14:15", "name": "USPS COLLECTION BOX - BLUE BOX", "note": "ON 12/24 AND 12/31, THIS BOX MAY BE COLLECTED AS EARLY AS 12 NOON.", "ref": "4733100043"}, "type": "Feature"}
{"geometry": {"coordinates": [-85.136956, 39.644539], "type": "Point"}, "id": "nLASU-bOYh2IFDh0M3q3xUUtkjc=", "properties": {"@spider": "usps_collection_boxes", "addr:city": "CONNERSVILLE", "addr:country": "US", "addr:full": "801 N CENTRAL AVE", "addr:postcode": "47331", "addr:state": "IN", "brand": "USPS", "collection_times": "Mo-Fr 16:45; Sa 15:00", "name": "USPS COLLECTION BOX - PO LOBBY", "note": "ON 12/24 AND 12/31, THIS BOX MAY BE COLLECTED AS EARLY AS 12 NOON.", "ref": "4733100045"}, "type": "Feature"}
{"geometry": {"coordinates": [-85.137211003, 39.644646011], "type": "Point"}, "id": "dWXVeWQpZ0B6zD5MoK8i6G5S_Eg=", "properties": {"@spider": "usps_collection_boxes", "addr:city": "CONNERSVILLE", "addr:country": "US", "addr:full": "801 N CENTRAL AVE", "addr:postcode": "47331", "addr:state": "IN", "brand": "USPS", "collection_times": "Mo-Fr 16:45; Sa 16:30", "name": "USPS COLLECTION BOX - BLUE BOX", "note": "ON 12/24 AND 12/31, THIS BOX MAY BE COLLECTED AS EARLY AS 12 NOON.", "ref": "4733100046"}, "type": "Feature"}
{"geometry": {"coordinates": [-85.1369393689, 39.6445623517], "type": "Point"}, "id": "kz1gD2Uq0Cu00vPMw0_Ub4MthZo=", "properties": {"@spider": "usps_collection_boxes", "addr:city": "CONNERSVILLE", "addr:country": "US", "addr:full": "801 N CENTRAL AVE", "addr:postcode": "47331", "addr:state": "IN", "brand": "USPS", "collection_times": "Mo-Fr 16:30; Sa 12:00", "name": "USPS COLLECTION BOX - PO LOBBY", "note": "ON 12/24 AND 12/31, THIS BOX MAY BE COLLECTED AS EARLY AS 12 NOON.", "ref": "4733100050"}, "type": "Feature"}
{"geometry": {"coordinates": [-85.557237, 40.120229], "type": "Point"}, "id": "cZ8QU7lQ7OYRca7CJtyzuzYqIDk=", "properties": {"@spider": "usps_collection_boxes", "addr:city": "DALEVILLE", "addr:country": "US", "addr:full": "8109 S WALNUT ST", "addr:postcode": "47334", "addr:state": "IN", "brand": "USPS", "collection_times": "Mo-Fr 16:00; Sa 11:00", "name": "USPS COLLECTION BOX - BLUE BOX", "note": "ON 12/24 AND 12/31, THIS BOX MAY BE COLLECTED AS EARLY AS 12 NOON.", "ref": "4733400000"}, "type": "Feature"}
{"geometry": {"coordinates": [-85.5571335993, 40.121838], "type": "Point"}, "id": "rg9TxMqsxmrH0-GnTZKLzSMNCnc=", "properties": {"@spider": "usps_collection_boxes", "addr:city": "DALEVILLE", "addr:country": "US", "addr:full": "7924 S WALNUT ST", "addr:postcode": "47334", "addr:state": "IN", "brand": "USPS", "collection_times": "Mo-Fr 16:00; Sa 11:00", "name": "USPS COLLECTION BOX - PO LOBBY", "note": "ON 12/24 AND 12/31, THIS BOX MAY BE COLLECTED AS EARLY AS 12 NOON.", "ref": "4733400003"}, "type": "Feature"}
{"geometry": {"coordinates": [-85.5571335993, 40.121838], "type": "Point"}, "id": "gNhWWKd3V1Ih48fT-SQEYCdcJX0=", "properties": {"@spider": "usps_collection_boxes", "addr:city": "DALEVILLE", "addr:country": "US", "addr:full": "7924 S WALNUT ST", "addr:postcode": "47334", "addr:state": "IN", "brand": "USPS", "collection_times": "Mo-Fr 16:00; Sa 11:00", "name": "USPS COLLECTION BOX - PO LOBBY", "note": "ON 12/24 AND 12/31, THIS BOX MAY BE COLLECTED AS EARLY AS 12 NOON.", "ref": "4733400004"}, "type": "Feature"}
{"geometry": {"coordinates": [-85.207010527, 39.811950547], "type": "Point"}, "id": "QHs_YJejGp1IcUlEIkT_6Xi31Gs=", "properties": {"@spider": "usps_collection_boxes", "addr:city": "DUBLIN", "addr:country": "US", "addr:full": "2183 E CUMBERLAND ST", "addr:postcode": "47335", "addr:state": "IN", "brand": "USPS", "collection_times": "Mo-Fr 16:00; Sa 11:00", "name": "USPS COLLECTION BOX - BLUE BOX", "note": "ON 12/24 AND 12/31, THIS BOX MAY BE COLLECTED AS EARLY AS 12 NOON.", "ref": "4733500001"}, "type": "Feature"}
{"geometry": {"coordinates": [-85.207010527, 39.811950547], "type": "Point"}, "id": "KGrtZFlvcevR_5l5HfwJA6FtwNA=", "properties": {"@spider": "usps_collection_boxes", "addr:city": "DUBLIN", "addr:country": "US", "addr:full": "2183 E CUMBERLAND ST", "addr:postcode": "47335", "addr:state": "IN", "brand": "USPS", "collection_times": "Mo-Fr 11:45; Sa 11:00", "name": "USPS COLLECTION BOX - PO LOBBY", "ref": "4733500002"}, "type": "Feature"}
{"geometry": {"coordinates": [-85.207010527, 39.811950547], "type": "Point"}, "id": "g8cWqqvOS8XIJxd8xOKCVEQq0cs=", "properties": {"@spider": "usps_collection_boxes", "addr:city": "DUBLIN", "addr:country": "US", "addr:full": "2183 E CUMBERLAND ST", "addr:postcode": "47335", "addr:state": "IN", "brand": "USPS", "collection_times": "Mo-Fr 12:00; Sa 11:00", "name": "USPS COLLECTION BOX - PO LOBBY", "ref": "4733500003"}, "type": "Feature"}
{"geometry": {"coordinates": [-85.2112066, 40.374524], "type": "Point"}, "id": "6ZlqUPKEpRjnbkLFG0o5cnVXORg=", "properties": {"@spider": "usps_collection_boxes", "addr:city": "DUNKIRK", "addr:country": "US", "addr:full": "123 W COMMERCE ST", "addr:postcode": "47336", "addr:state": "IN", "brand": "USPS", "collection_times": "Mo-Fr 16:15; Sa 11:00", "name": "USPS COLLECTION BOX - PO LOBBY", "note": "ON 12/24 AND 12/31, THIS BOX MAY BE COLLECTED AS EARLY AS 12 NOON.", "ref": "4733600009"}, "type": "Feature"}
{"geometry": {"coordinates": [-85.210993, 40.37444], "type": "Point"}, "id": "OtjOh5nwfJz5FyVRYSYcAmoQN3o=", "properties": {"@spider": "usps_collection_boxes", "addr:city": "DUNKIRK", "addr:country": "US", "addr:full": "123 W COMMERCE ST", "addr:postcode": "47336", "addr:state": "IN", "brand": "USPS", "collection_times": "Mo-Fr 16:15; Sa 11:00", "name": "USPS COLLECTION BOX - BLUE BOX", "note": "ON 12/24 AND 12/31, THIS BOX MAY BE COLLECTED AS EARLY AS 12 NOON.", "ref": "4733600010"}, "type": "Feature"}
{"geometry": {"coordinates": [-85.2111031105, 40.3746000993], "type": "Point"}, "id": "BW2cg6yBzKT04hy-XnJVz3Qa6L4=", "properties": {"@spider": "usps_collection_boxes", "addr:city": "DUNKIRK", "addr:country": "US", "addr:full": "123 W COMMERCE ST", "addr:postcode": "47336", "addr:state": "IN", "brand": "USPS", "collection_times": "Mo-Fr 16:30; Sa 11:30", "name": "USPS COLLECTION BOX - PO LOBBY", "note": "ON 12/24 AND 12/31, THIS BOX MAY BE COLLECTED AS EARLY AS 12 NOON.", "ref": "4733600012"}, "type": "Feature"}
{"geometry": {"coordinates": [-85.436400982, 39.80218061], "type": "Point"}, "id": "TygKPuYmCvPPHIvxeXou19bGxj4=", "properties": {"@spider": "usps_collection_boxes", "addr:city": "DUNREITH", "addr:country": "US", "addr:full": "205 WASHINGTON ST", "addr:postcode": "47337", "addr:state": "IN", "brand": "USPS", "collection_times": "Mo-Fr 16:00; Sa 09:15", "name": "USPS COLLECTION BOX - BLUE BOX", "note": "ON 12/24 AND 12/31, THIS BOX MAY BE COLLECTED AS EARLY AS 12 NOON.", "ref": "4733700001"}, "type": "Feature"}
{"geometry": {"coordinates": [-85.436400982, 39.80218061], "type": "Point"}, "id": "skSsL43niWmZQJ144zm3ltVM_JQ=", "properties": {"@spider": "usps_collection_boxes", "addr:city": "DUNREITH", "addr:country": "US", "addr:full": "205 WASHINGTON ST", "addr:postcode": "47337", "addr:state": "IN", "brand": "USPS", "collection_times": "Mo-Fr 11:15; Sa 09:15", "name": "USPS COLLECTION BOX - PO LOBBY", "ref": "4733700002"}, "type": "Feature"}
{"geometry": {"coordinates": [-85.436400982, 39.80218061], "type": "Point"}, "id": "p9u7XnNLnoe-Wipn-tyg2ld3vQU=", "properties": {"@spider": "usps_collection_boxes", "addr:city": "DUNREITH", "addr:country": "US", "addr:full": "205 WASHINGTON ST", "addr:postcode": "47337", "addr:state": "IN", "brand": "USPS", "collection_times": "Mo-Fr 11:30; Sa 09:30", "name": "USPS COLLECTION BOX - PO LOBBY", "ref": "4733700003"}, "type": "Feature"}
{"geometry": {"coordinates": [-85.355222129, 40.34179706], "type": "Point"}, "id": "AIzYRhWXZuF6ZEZogz1nFKlziDI=", "properties": {"@spider": "usps_collection_boxes", "addr:city": "EATON", "addr:country": "US", "addr:full": "119 E HARRIS ST", "addr:postcode": "47338", "addr:state": "IN", "brand": "USPS", "collection_times": "Mo-Fr 15:30; Sa 10:15", "name": "USPS COLLECTION BOX - BLUE BOX", "note": "ON 12/24 AND 12/31, THIS BOX MAY BE COLLECTED AS EARLY AS 12 NOON.", "ref": "4733800001"}, "type": "Feature"}
{"geometry": {"coordinates": [-85.3691031, 40.343524], "type": "Point"}, "id": "KCgWdi9LJ4JoN8gvkqihgoRLWQU=", "properties": {"@spider": "usps_collection_boxes", "addr:city": "EATON", "addr:country": "US", "addr:full": "17000 N STATE ROAD 3N", "addr:postcode": "47338", "addr:state": "IN", "brand": "USPS", "collection_times": "Mo-Sa 09:00", "name": "USPS COLLECTION BOX - BLUE BOX", "ref": "4733800002"}, "type": "Feature"}
{"geometry": {"coordinates": [-85.355222129, 40.34179706], "type": "Point"}, "id": "IDFqmYcPfcKqQK_K7HmhjBM_Rwc=", "properties": {"@spider": "usps_collection_boxes", "addr:city": "EATON", "addr:country": "US", "addr:full": "119 E HARRIS ST", "addr:postcode": "47338", "addr:state": "IN", "brand": "USPS", "collection_times": "Mo-Fr 15:30; Sa 10:15", "name": "USPS COLLECTION BOX - PO LOBBY", "note": "ON 12/24 AND 12/31, THIS BOX MAY BE COLLECTED AS EARLY AS 12 NOON.", "ref": "4733800003"}, "type": "Feature"}
{"geometry": {"coordinates": [-85.355222129, 40.34179706], "type": "Point"}, "id": "r5iAZlSFoUKBqB3F_6dqXNk1aTo=", "properties": {"@spider": "usps_collection_boxes", "addr:city": "EATON", "addr:country": "US", "addr:full": "119 E HARRIS ST", "addr:postcode": "47338", "addr:state": "IN", "brand": "USPS", "collection_times": "Mo-Fr 15:30; Sa 10:30", "name": "USPS COLLECTION BOX - PO LOBBY", "note": "ON 12/24 AND 12/31, THIS BOX MAY BE COLLECTED AS EARLY AS 12 NOON.", "ref": "4733800004"}, "type": "Feature"}
{"geometry": {"coordinates": [-85.08807, 39.977846467], "type": "Point"}, "id": "YXBeGQ01ouIh45Q1m0TZjXXl7TU=", "properties": {"@spider": "usps_collection_boxes", "addr:city": "ECONOMY", "addr:country": "US", "addr:full": "218 MAIN ST", "addr:postcode": "47339", "addr:state": "IN", "brand": "USPS", "collection_times": "Mo-Fr 14:30; Sa 09:45", "name": "USPS COLLECTION BOX - BLUE BOX", "note": "ON 12/24 AND 12/31, THIS BOX MAY BE COLLECTED AS EARLY AS 12 NOON.", "ref": "4733900001"}, "type": "Feature"}
{"geometry": {"coordinates": [-85.08807, 39.977846467], "type": "Point"}, "id": "kWj18kHX0toxvQrb8hf-_xyag_Y=", "properties": {"@spider": "usps_collection_boxes", "addr:city": "ECONOMY", "addr:country": "US", "addr:full": "218 MAIN ST", "addr:postcode": "47339", "addr:state": "IN", "brand": "USPS", "collection_times": "Mo-Fr 14:30; Sa 09:45", "name": "USPS COLLECTION BOX - PO LOBBY", "note": "ON 12/24 AND 12/31, THIS BOX MAY BE COLLECTED AS EARLY AS 12 NOON.", "ref": "4733900002"}, "type": "Feature"}
{"geometry": {"coordinates": [-85.08807, 39.977846467], "type": "Point"}, "id": "t-bZZm8CnzUZ4RcIYAN_k54iM8Q=", "properties": {"@spider": "usps_collection_boxes", "addr:city": "ECONOMY", "addr:country": "US", "addr:full": "218 MAIN ST", "addr:postcode": "47339", "addr:state": "IN", "brand": "USPS", "collection_times": "Mo-Fr 15:00; Sa 10:00", "name": "USPS COLLECTION BOX - PO LOBBY", "note": "ON 12/24 AND 12/31, THIS BOX MAY BE COLLECTED AS EARLY AS 12 NOON.", "ref": "4733900003"}, "type": "Feature"}
{"geometry": {"coordinates": [-85.127701758, 40.187234503], "type": "Point"}, "id": "sTuLxPhxeDxHv4d2xq6j1aDkyVA=", "properties": {"@spider": "usps_collection_boxes", "addr:city": "FARMLAND", "addr:country": "US", "addr:full": "111 S MAIN ST", "addr:postcode": "47340", "addr:state": "IN", "brand": "USPS", "collection_times": "Mo-Fr 16:00; Sa 10:00", "name": "USPS COLLECTION BOX - BLUE BOX", "note": "ON 12/24 AND 12/31, THIS BOX MAY BE COLLECTED AS EARLY AS 12 NOON.", "ref": "4734000001"}, "type": "Feature"}
{"geometry": {"coordinates": [-85.127701758, 40.187234503], "type": "Point"}, "id": "YPT67_xfcFomRcv9pxXwmxYbch8=", "properties": {"@spider": "usps_collection_boxes", "addr:city": "FARMLAND", "addr:country": "US", "addr:full": "111 S MAIN ST", "addr:postcode": "47340", "addr:state": "IN", "brand": "USPS", "collection_times": "Mo-Fr 14:15; Sa 10:00", "name": "USPS COLLECTION BOX - PO LOBBY", "note": "ON 12/24 AND 12/31, THIS BOX MAY BE COLLECTED AS EARLY AS 12 NOON.", "ref": "4734000004"}, "type": "Feature"}
{"geometry": {"coordinates": [-85.127701758, 40.187234503], "type": "Point"}, "id": "mRSbWsSOrk9pTyXJhXxxZmQa6dg=", "properties": {"@spider": "usps_collection_boxes", "addr:city": "FARMLAND", "addr:country": "US", "addr:full": "111 S MAIN ST", "addr:postcode": "47340", "addr:state": "IN", "brand": "USPS", "collection_times": "Mo-Fr 14:30; Sa 10:30", "name": "USPS COLLECTION BOX - PO LOBBY", "note": "ON 12/24 AND 12/31, THIS BOX MAY BE COLLECTED AS EARLY AS 12 NOON.", "ref": "4734000005"}, "type": "Feature"}
{"geometry": {"coordinates": [-84.918074106, 39.955097473], "type": "Point"}, "id": "K6djORaylwaM31zushg0gqvadDs=", "properties": {"@spider": "usps_collection_boxes", "addr:city": "FOUNTAIN CITY", "addr:country": "US", "addr:full": "104 S WALNUT ST", "addr:postcode": "47341", "addr:state": "IN", "brand": "USPS", "collection_times": "Mo-Fr 16:30; Sa 11:30", "name": "USPS COLLECTION BOX - BLUE BOX", "note": "ON 12/24 AND 12/31, THIS BOX MAY BE COLLECTED AS EARLY AS 12 NOON.", "ref": "4734100001"}, "type": "Feature"}
{"geometry": {"coordinates": [-84.918074106, 39.955097473], "type": "Point"}, "id": "Rst2-2VlaCzxlY7GSU9bp9VXqNM=", "properties": {"@spider": "usps_collection_boxes", "addr:city": "FOUNTAIN CITY", "addr:country": "US", "addr:full": "104 S WALNUT ST", "addr:postcode": "47341", "addr:state": "IN", "brand": "USPS", "collection_times": "Mo-Fr 16:30; Sa 11:30", "name": "USPS COLLECTION BOX - PO LOBBY", "note": "ON 12/24 AND 12/31, THIS BOX MAY BE COLLECTED AS EARLY AS 12 NOON.", "ref": "4734100002"}, "type": "Feature"}
{"geometry": {"coordinates": [-84.918074106, 39.955097473], "type": "Point"}, "id": "NO4oEv7Ewaj5Gv6Lcm8wIkqKNYs=", "properties": {"@spider": "usps_collection_boxes", "addr:city": "FOUNTAIN CITY", "addr:country": "US", "addr:full": "104 S WALNUT ST", "addr:postcode": "47341", "addr:state": "IN", "brand": "USPS", "collection_times": "Mo-Fr 16:30; Sa 11:00", "name": "USPS COLLECTION BOX - PO LOBBY", "note": "ON 12/24 AND 12/31, THIS BOX MAY BE COLLECTED AS EARLY AS 12 NOON.", "ref": "4734100003"}, "type": "Feature"}
{"geometry": {"coordinates": [-85.5014134191, 40.3137604962], "type": "Point"}, "id": "E3owMc1nmNDStYy7MOVnIjvhwBY=", "properties": {"@spider": "usps_collection_boxes", "addr:city": "GASTON", "addr:country": "US", "addr:full": "111 W ELM ST", "addr:postcode": "47342", "addr:state": "IN", "brand": "USPS", "collection_times": "Mo-Fr 15:30; Sa 10:00", "name": "USPS COLLECTION BOX - BLUE BOX", "note": "ON 12/24 AND 12/31, THIS BOX MAY BE COLLECTED AS EARLY AS 12 NOON.", "ref": "4734200001"}, "type": "Feature"}
{"geometry": {"coordinates": [-85.501412, 40.313763], "type": "Point"}, "id": "T7A6NIgZTTQk-MS1DN8rJCA4ahk=", "properties": {"@spider": "usps_collection_boxes", "addr:city": "GASTON", "addr:country": "US", "addr:full": "111 W ELM ST", "addr:postcode": "47342", "addr:state": "IN", "brand": "USPS", "collection_times": "Mo-Fr 14:45; Sa 10:30", "name": "USPS COLLECTION BOX - PO LOBBY", "note": "ON 12/24 AND 12/31, THIS BOX MAY BE COLLECTED AS EARLY AS 12 NOON.", "ref": "4734200002"}, "type": "Feature"}
{"geometry": {"coordinates": [-85.5014134191, 40.3137604962], "type": "Point"}, "id": "y4WFC8OvKXia8_bkJCk8dBDfkyQ=", "properties": {"@spider": "usps_collection_boxes", "addr:city": "GASTON", "addr:country": "US", "addr:full": "111 W ELM ST", "addr:postcode": "47342", "addr:state": "IN", "brand": "USPS", "collection_times": "Mo-Fr 15:00; Sa 11:00", "name": "USPS COLLECTION BOX - PO LOBBY", "note": "ON 12/24 AND 12/31, THIS BOX MAY BE COLLECTED AS EARLY AS 12 NOON.", "ref": "4734200003"}, "type": "Feature"}
{"geometry": {"coordinates": [-85.46445776, 39.880492879], "type": "Point"}, "id": "E97PkUu5Z5EG8cYF7qG67jevUKc=", "properties": {"@spider": "usps_collection_boxes", "addr:city": "GREENSBORO", "addr:country": "US", "addr:full": "260 N HIGH ST", "addr:postcode": "47344", "addr:state": "IN", "brand": "USPS", "collection_times": "Mo-Fr 16:00; Sa 10:15", "name": "USPS COLLECTION BOX - BLUE BOX", "note": "ON 12/24 AND 12/31, THIS BOX MAY BE COLLECTED AS EARLY AS 12 NOON.", "ref": "4734400000"}, "type": "Feature"}
{"geometry": {"coordinates": [-85.46445776, 39.880492879], "type": "Point"}, "id": "D7aOLGoQY-FsyMde-sleSkrK-q4=", "properties": {"@spider": "usps_collection_boxes", "addr:city": "GREENSBORO", "addr:country": "US", "addr:full": "260 N HIGH ST", "addr:postcode": "47344", "addr:state": "IN", "brand": "USPS", "collection_times": "Mo-Fr 16:00; Sa 10:15", "name": "USPS COLLECTION BOX - PO LOBBY", "note": "ON 12/24 AND 12/31, THIS BOX MAY BE COLLECTED AS EARLY AS 12 NOON.", "ref": "4734400001"}, "type": "Feature"}
{"geometry": {"coordinates": [-85.46445776, 39.880492879], "type": "Point"}, "id": "sddAWnzA3xIUvqxpkBTGmC7Mqkk=", "properties": {"@spider": "usps_collection_boxes", "addr:city": "GREENSBORO", "addr:country": "US", "addr:full": "260 N HIGH ST", "addr:postcode": "47344", "addr:state": "IN", "brand": "USPS", "collection_times": "Mo-Fr 16:30; Sa 10:30", "name": "USPS COLLECTION BOX - PO LOBBY", "note": "ON 12/24 AND 12/31, THIS BOX MAY BE COLLECTED AS EARLY AS 12 NOON.", "ref": "4734400003"}, "type": "Feature"}
{"geometry": {"coordinates": [-85.042797221, 39.89237991], "type": "Point"}, "id": "efYVC6eM8cb3KNIuLgs9hZfAvIQ=", "properties": {"@spider": "usps_collection_boxes", "addr:city": "GREENS FORK", "addr:country": "US", "addr:full": "15 S MAIN ST", "addr:postcode": "47345", "addr:state": "IN", "brand": "USPS", "collection_times": "Mo-Fr 16:30; Sa 10:15", "name": "USPS COLLECTION BOX - BLUE BOX", "note": "ON 12/24 AND 12/31, THIS BOX MAY BE COLLECTED AS EARLY AS 12 NOON.", "ref": "4734500001"}, "type": "Feature"}
{"geometry": {"coordinates": [-85.042797221, 39.89237991], "type": "Point"}, "id": "fcRrxviObF5FrNO5hevrGOkHrUs=", "properties": {"@spider": "usps_collection_boxes", "addr:city": "GREENS FORK", "addr:country": "US", "addr:full": "15 S MAIN ST", "addr:postcode": "47345", "addr:state": "IN", "brand": "USPS", "collection_times": "Mo-Fr 11:45; Sa 10:15", "name": "USPS COLLECTION BOX - PO LOBBY", "ref": "4734500002"}, "type": "Feature"}
{"geometry": {"coordinates": [-85.042797221, 39.89237991], "type": "Point"}, "id": "wAFS1enNKJvboJnbndswAN6WK8Y=", "properties": {"@spider": "usps_collection_boxes", "addr:city": "GREENS FORK", "addr:country": "US", "addr:full": "15 S MAIN ST", "addr:postcode": "47345", "addr:state": "IN", "brand": "USPS", "collection_times": "Mo-Fr 12:00; Sa 10:00", "name": "USPS COLLECTION BOX - PO LOBBY", "ref": "4734500003"}, "type": "Feature"}
{"geometry": {"coordinates": [-85.161471, 39.910868], "type": "Point"}, "id": "slumliO0vIrkB6cP4cHP_wn3WFI=", "properties": {"@spider": "usps_collection_boxes", "addr:city": "HAGERSTOWN", "addr:country": "US", "addr:full": "10 W MAIN ST", "addr:postcode": "47346", "addr:state": "IN", "brand": "USPS", "collection_times": "Mo-Fr 16:30; Sa 11:00", "name": "USPS COLLECTION BOX - BLUE BOX", "note": "ON 12/24 AND 12/31, THIS BOX MAY BE COLLECTED AS EARLY AS 12 NOON.", "ref": "4734600000"}, "type": "Feature"}
{"geometry": {"coordinates": [-85.161471, 39.910868], "type": "Point"}, "id": "H2CoiJBiz2jctFc2kkhGxWJ2SQM=", "properties": {"@spider": "usps_collection_boxes", "addr:city": "HAGERSTOWN", "addr:country": "US", "addr:full": "10 W MAIN ST", "addr:postcode": "47346", "addr:state": "IN", "brand": "USPS", "collection_times": "Mo-Fr 16:30; Sa 11:00", "name": "USPS COLLECTION BOX - PO LOBBY", "note": "ON 12/24 AND 12/31, THIS BOX MAY BE COLLECTED AS EARLY AS 12 NOON.", "ref": "4734600002"}, "type": "Feature"}
{"geometry": {"coordinates": [-85.1615109431, 39.9108674788], "type": "Point"}, "id": "YDZmGKlSLztyiyAaB82H7iCQPY8=", "properties": {"@spider": "usps_collection_boxes", "addr:city": "HAGERSTOWN", "addr:country": "US", "addr:full": "10 W MAIN ST", "addr:postcode": "47346", "addr:state": "IN", "brand": "USPS", "collection_times": "Mo-Fr 16:30; Sa 12:00", "name": "USPS COLLECTION BOX - PO LOBBY", "note": "ON 12/24 AND 12/31, THIS BOX MAY BE COLLECTED AS EARLY AS 12 NOON.", "ref": "4734600003"}, "type": "Feature"}
{"geometry": {"coordinates": [-85.368444388, 40.450526246], "type": "Point"}, "id": "QZetXxcfaJrZ-gSC64GvUkfkDx4=", "properties": {"@spider": "usps_collection_boxes", "addr:city": "HARTFORD CITY", "addr:country": "US", "addr:full": "123 S HIGH ST", "addr:postcode": "47348", "addr:state": "IN", "brand": "USPS", "collection_times": "Mo-Sa 16:00", "name": "USPS COLLECTION BOX - BLUE BOX", "note": "ON 12/24 AND 12/31, THIS BOX MAY BE COLLECTED AS EARLY AS 12 NOON.", "ref": "4734800000"}, "type": "Feature"}
{"geometry": {"coordinates": [-85.368444388, 40.450526246], "type": "Point"}, "id": "W64QBRtSQHB6uH40cBakFg6sxOg=", "properties": {"@spider": "usps_collection_boxes", "addr:city": "HARTFORD CITY", "addr:country": "US", "addr:full": "123 S HIGH ST", "addr:postcode": "47348", "addr:state": "IN", "brand": "USPS", "collection_times": "Mo-Sa 16:00", "name": "USPS COLLECTION BOX - BLUE BOX", "note": "ON 12/24 AND 12/31, THIS BOX MAY BE COLLECTED AS EARLY AS 12 NOON.", "ref": "4734800001"}, "type": "Feature"}
{"geometry": {"coordinates": [-85.3708854, 40.465745], "type": "Point"}, "id": "ay6soOS4d2g8HIgJHmlnxWZXZ7E=", "properties": {"@spider": "usps_collection_boxes", "addr:city": "HARTFORD CITY", "addr:country": "US", "addr:full": "1711 N WALNUT ST", "addr:postcode": "47348", "addr:state": "IN", "brand": "USPS", "collection_times": "Mo-Sa 12:00", "name": "USPS COLLECTION BOX - BLUE BOX", "ref": "4734800002"}, "type": "Feature"}
{"geometry": {"coordinates": [-85.3692126, 40.456577], "type": "Point"}, "id": "dTe8xAzMOpVPWK5Qg3nOgLxzgWs=", "properties": {"@spider": "usps_collection_boxes", "addr:city": "HARTFORD CITY", "addr:country": "US", "addr:full": "700 N WALNUT ST", "addr:postcode": "47348", "addr:state": "IN", "brand": "USPS", "collection_times": "Mo-Sa 07:30", "name": "USPS COLLECTION BOX - BLUE BOX", "ref": "4734800006"}, "type": "Feature"}
{"geometry": {"coordinates": [-85.368444388, 40.450526246], "type": "Point"}, "id": "gc3m7GhhOGstCeHASxW4WmqnmhQ=", "properties": {"@spider": "usps_collection_boxes", "addr:city": "HARTFORD CITY", "addr:country": "US", "addr:full": "123 S HIGH ST", "addr:postcode": "47348", "addr:state": "IN", "brand": "USPS", "collection_times": "Mo-Sa 16:00", "name": "USPS COLLECTION BOX - PO LOBBY", "note": "ON 12/24 AND 12/31, THIS BOX MAY BE COLLECTED AS EARLY AS 12 NOON.", "ref": "4734800019"}, "type": "Feature"}
{"geometry": {"coordinates": [-85.368444388, 40.450526246], "type": "Point"}, "id": "X64DsXbvGnn_7B8uvpxnEigGywc=", "properties": {"@spider": "usps_collection_boxes", "addr:city": "HARTFORD CITY", "addr:country": "US", "addr:full": "123 S HIGH ST", "addr:postcode": "47348", "addr:state": "IN", "brand": "USPS", "collection_times": "Mo-Sa 16:00", "name": "USPS COLLECTION BOX - PO LOBBY", "note": "ON 12/24 AND 12/31, THIS BOX MAY BE COLLECTED AS EARLY AS 12 NOON.", "ref": "4734800020"}, "type": "Feature"}
{"geometry": {"coordinates": [-85.368444388, 40.450526246], "type": "Point"}, "id": "tQdVs6Nfjy6zmvdeFpUZRVGX1Sk=", "properties": {"@spider": "usps_collection_boxes", "addr:city": "HARTFORD CITY", "addr:country": "US", "addr:full": "123 S HIGH ST", "addr:postcode": "47348", "addr:state": "IN", "brand": "USPS", "collection_times": "Mo-Fr 16:30; Sa 12:00", "name": "USPS COLLECTION BOX - PO LOBBY", "note": "ON 12/24 AND 12/31, THIS BOX MAY BE COLLECTED AS EARLY AS 12 NOON.", "ref": "4734800022"}, "type": "Feature"}
{"geometry": {"coordinates": [-85.519285201, 39.904362], "type": "Point"}, "id": "RBMM0NEB89GXBxPQ9QzoibG2szA=", "properties": {"@spider": "usps_collection_boxes", "addr:city": "KENNARD", "addr:country": "US", "addr:full": "100 N MAIN ST", "addr:postcode": "47351", "addr:state": "IN", "brand": "USPS", "collection_times": "Mo-Fr 16:00; Sa 10:45", "name": "USPS COLLECTION BOX - BLUE BOX", "note": "ON 12/24 AND 12/31, THIS BOX MAY BE COLLECTED AS EARLY AS 12 NOON.", "ref": "4735100000"}, "type": "Feature"}
{"geometry": {"coordinates": [-85.519285201, 39.904362], "type": "Point"}, "id": "YtVRbojasvGxFnRouOm-7EwOErU=", "properties": {"@spider": "usps_collection_boxes", "addr:city": "KENNARD", "addr:country": "US", "addr:full": "100 N MAIN ST", "addr:postcode": "47351", "addr:state": "IN", "brand": "USPS", "collection_times": "Mo-Fr 14:00; Sa 10:45", "name": "USPS COLLECTION BOX - PO LOBBY", "note": "ON 12/24 AND 12/31, THIS BOX MAY BE COLLECTED AS EARLY AS 12 NOON.", "ref": "4735100001"}, "type": "Feature"}
{"geometry": {"coordinates": [-85.519285201, 39.904362], "type": "Point"}, "id": "jSzKaCTyTb_QcV43v6QlycKzBpE=", "properties": {"@spider": "usps_collection_boxes", "addr:city": "KENNARD", "addr:country": "US", "addr:full": "100 N MAIN ST", "addr:postcode": "47351", "addr:state": "IN", "brand": "USPS", "collection_times": "Mo-Fr 14:00; Sa 11:00", "name": "USPS COLLECTION BOX - PO LOBBY", "note": "ON 12/24 AND 12/31, THIS BOX MAY BE COLLECTED AS EARLY AS 12 NOON.", "ref": "4735100003"}, "type": "Feature"}
{"geometry": {"coordinates": [-85.353352334, 39.806906446], "type": "Point"}, "id": "mpCyQUC19WUznRq1UmMb2tdE7YE=", "properties": {"@spider": "usps_collection_boxes", "addr:city": "LEWISVILLE", "addr:country": "US", "addr:full": "116 W MAIN ST", "addr:postcode": "47352", "addr:state": "IN", "brand": "USPS", "collection_times": "Mo-Fr 16:00; Sa 10:45", "name": "USPS COLLECTION BOX - BLUE BOX", "note": "ON 12/24 AND 12/31, THIS BOX MAY BE COLLECTED AS EARLY AS 12 NOON.", "ref": "4735200001"}, "type": "Feature"}
{"geometry": {"coordinates": [-85.353352334, 39.806906446], "type": "Point"}, "id": "LZe70PgAMLlH37bAeXqQu8LZPM4=", "properties": {"@spider": "usps_collection_boxes", "addr:city": "LEWISVILLE", "addr:country": "US", "addr:full": "116 W MAIN ST", "addr:postcode": "47352", "addr:state": "IN", "brand": "USPS", "collection_times": "Mo-Fr 16:00; Sa 10:45", "name": "USPS COLLECTION BOX - PO LOBBY", "note": "ON 12/24 AND 12/31, THIS BOX MAY BE COLLECTED AS EARLY AS 12 NOON.", "ref": "4735200002"}, "type": "Feature"}
{"geometry": {"coordinates": [-85.353352334, 39.806906446], "type": "Point"}, "id": "tZ69ONVWZkG2XRdD2iI9gJuucGo=", "properties": {"@spider": "usps_collection_boxes", "addr:city": "LEWISVILLE", "addr:country": "US", "addr:full": "116 W MAIN ST", "addr:postcode": "47352", "addr:state": "IN", "brand": "USPS", "collection_times": "Mo-Fr 16:00; Sa 11:00", "name": "USPS COLLECTION BOX - PO LOBBY", "note": "ON 12/24 AND 12/31, THIS BOX MAY BE COLLECTED AS EARLY AS 12 NOON.", "ref": "4735200003"}, "type": "Feature"}
{"geometry": {"coordinates": [-84.9310729, 39.637369], "type": "Point"}, "id": "k1k7GiGLgl2Bd87EFva_jh0Wm3g=", "properties": {"@spider": "usps_collection_boxes", "addr:city": "LIBERTY", "addr:country": "US", "addr:full": "101 BROWNSVILLE AVE", "addr:postcode": "47353", "addr:state": "IN", "brand": "USPS", "collection_times": "Mo-Fr 14:00; Sa 12:30", "name": "USPS COLLECTION BOX - BLUE BOX", "note": "ON 12/24 AND 12/31, THIS BOX MAY BE COLLECTED AS EARLY AS 12 NOON.", "ref": "4735300005"}, "type": "Feature"}
{"geometry": {"coordinates": [-84.9345761, 39.635386], "type": "Point"}, "id": "BKg0hzMgozVjtA_Hnvqx6j_pH08=", "properties": {"@spider": "usps_collection_boxes", "addr:city": "LIBERTY", "addr:country": "US", "addr:full": "302 W UNION ST", "addr:postcode": "47353", "addr:state": "IN", "brand": "USPS", "collection_times": "Mo-Sa 12:00", "name": "USPS COLLECTION BOX - BLUE BOX", "ref": "4735300006"}, "type": "Feature"}
{"geometry": {"coordinates": [-84.9297949, 39.635511], "type": "Point"}, "id": "PHVIWvyeW62yUxmdhk3nwuL-An0=", "properties": {"@spider": "usps_collection_boxes", "addr:city": "LIBERTY", "addr:country": "US", "addr:full": "1 W UNION ST", "addr:postcode": "47353", "addr:state": "IN", "brand": "USPS", "collection_times": "Mo-Fr 14:00; Sa 12:30", "name": "USPS COLLECTION BOX - BLUE BOX", "note": "ON 12/24 AND 12/31, THIS BOX MAY BE COLLECTED AS EARLY AS 12 NOON.", "ref": "4735300008"}, "type": "Feature"}
{"geometry": {"coordinates": [-84.9287925, 39.635471482], "type": "Point"}, "id": "2j8-EWFXY3xlTrbvNcXaBtpdjXo=", "properties": {"@spider": "usps_collection_boxes", "addr:city": "LIBERTY", "addr:country": "US", "addr:full": "29 E UNION ST", "addr:postcode": "47353", "addr:state": "IN", "brand": "USPS", "collection_times": "Mo-Sa 16:00", "name": "USPS COLLECTION BOX - BLUE BOX", "note": "ON 12/24 AND 12/31, THIS BOX MAY BE COLLECTED AS EARLY AS 12 NOON.", "ref": "4735300009"}, "type": "Feature"}
{"geometry": {"coordinates": [-84.9287925, 39.635471482], "type": "Point"}, "id": "M3t81T916aNUvBnQxFfvAZHZ378=", "properties": {"@spider": "usps_collection_boxes", "addr:city": "LIBERTY", "addr:country": "US", "addr:full": "29 E UNION ST", "addr:postcode": "47353", "addr:state": "IN", "brand": "USPS", "collection_times": "Mo-Fr 16:00; Sa 12:30", "name": "USPS COLLECTION BOX - PO LOBBY", "note": "ON 12/24 AND 12/31, THIS BOX MAY BE COLLECTED AS EARLY AS 12 NOON.", "ref": "4735300012"}, "type": "Feature"}
{"geometry": {"coordinates": [-84.9287925, 39.635471482], "type": "Point"}, "id": "n3FV_0ufRxdcAfFWl1L8xc3GBdk=", "properties": {"@spider": "usps_collection_boxes", "addr:city": "LIBERTY", "addr:country": "US", "addr:full": "29 E UNION ST", "addr:postcode": "47353", "addr:state": "IN", "brand": "USPS", "collection_times": "Mo-Sa 16:00", "name": "USPS COLLECTION BOX - BLUE BOX", "note": "ON 12/24 AND 12/31, THIS BOX MAY BE COLLECTED AS EARLY AS 12 NOON.", "ref": "4735300013"}, "type": "Feature"}
{"geometry": {"coordinates": [-84.9287925, 39.635471482], "type": "Point"}, "id": "M7KKd533AQ4t_IjStpPgm50yfYM=", "properties": {"@spider": "usps_collection_boxes", "addr:city": "LIBERTY", "addr:country": "US", "addr:full": "29 E UNION ST", "addr:postcode": "47353", "addr:state": "IN", "brand": "USPS", "collection_times": "Mo-Fr 16:30; Sa 12:00", "name": "USPS COLLECTION BOX - PO LOBBY", "note": "ON 12/24 AND 12/31, THIS BOX MAY BE COLLECTED AS EARLY AS 12 NOON.", "ref": "4735300019"}, "type": "Feature"}
{"geometry": {"coordinates": [-85.182566581, 40.024332503], "type": "Point"}, "id": "DTFX82oxmra7LfjJn0CEa8mCGLc=", "properties": {"@spider": "usps_collection_boxes", "addr:city": "LOSANTVILLE", "addr:country": "US", "addr:full": "25 N MAIN ST", "addr:postcode": "47354", "addr:state": "IN", "brand": "USPS", "collection_times": "Mo-Fr 16:15; Sa 09:45", "name": "USPS COLLECTION BOX - BLUE BOX", "note": "ON 12/24 AND 12/31, THIS BOX MAY BE COLLECTED AS EARLY AS 12 NOON.", "ref": "4735400001"}, "type": "Feature"}
{"geometry": {"coordinates": [-85.182566581, 40.024332503], "type": "Point"}, "id": "yZ4jQiZpw45jIciXKtJuR3ovgAc=", "properties": {"@spider": "usps_collection_boxes", "addr:city": "LOSANTVILLE", "addr:country": "US", "addr:full": "25 N MAIN ST", "addr:postcode": "47354", "addr:state": "IN", "brand": "USPS", "collection_times": "Mo-Fr 11:15; Sa 09:45", "name": "USPS COLLECTION BOX - PO LOBBY", "ref": "4735400002"}, "type": "Feature"}
{"geometry": {"coordinates": [-85.182566581, 40.024332503], "type": "Point"}, "id": "IrVpoN4Clfwr1L-IUMgQ0jvUqDk=", "properties": {"@spider": "usps_collection_boxes", "addr:city": "LOSANTVILLE", "addr:country": "US", "addr:full": "25 N MAIN ST", "addr:postcode": "47354", "addr:state": "IN", "brand": "USPS", "collection_times": "Mo-Fr 11:30; Sa 10:00", "name": "USPS COLLECTION BOX - PO LOBBY", "ref": "4735400003"}, "type": "Feature"}
{"geometry": {"coordinates": [-84.9402050138, 40.0475309883], "type": "Point"}, "id": "iqtMoJYM7ScblIYgs-aaq1zN1Fo=", "properties": {"@spider": "usps_collection_boxes", "addr:city": "LYNN", "addr:country": "US", "addr:full": "116 S MAIN ST", "addr:postcode": "47355", "addr:state": "IN", "brand": "USPS", "collection_times": "Mo-Fr 16:00; Sa 10:30", "name": "USPS COLLECTION BOX - BLUE BOX", "note": "ON 12/24 AND 12/31, THIS BOX MAY BE COLLECTED AS EARLY AS 12 NOON.", "ref": "4735500001"}, "type": "Feature"}
{"geometry": {"coordinates": [-84.939965872, 40.047614801], "type": "Point"}, "id": "jNQkJXSkOido2URyWfbGZpGYFeM=", "properties": {"@spider": "usps_collection_boxes", "addr:city": "LYNN", "addr:country": "US", "addr:full": "116 S MAIN ST", "addr:postcode": "47355", "addr:state": "IN", "brand": "USPS", "collection_times": "Mo-Fr 16:00; Sa 10:30", "name": "USPS COLLECTION BOX - PO LOBBY", "note": "ON 12/24 AND 12/31, THIS BOX MAY BE COLLECTED AS EARLY AS 12 NOON.", "ref": "4735500002"}, "type": "Feature"}
{"geometry": {"coordinates": [-84.939965872, 40.047614801], "type": "Point"}, "id": "iMkkWDJto0UoU6QLiUIF_wAXVq4=", "properties": {"@spider": "usps_collection_boxes", "addr:city": "LYNN", "addr:country": "US", "addr:full": "116 S MAIN ST", "addr:postcode": "47355", "addr:state": "IN", "brand": "USPS", "collection_times": "Mo-Fr 16:00; Sa 10:30", "name": "USPS COLLECTION BOX - PO LOBBY", "note": "ON 12/24 AND 12/31, THIS BOX MAY BE COLLECTED AS EARLY AS 12 NOON.", "ref": "4735500003"}, "type": "Feature"}
{"geometry": {"coordinates": [-85.537957891, 40.062550414], "type": "Point"}, "id": "LNpl8PW-KcLZRc19CwKJdRj3mtI=", "properties": {"@spider": "usps_collection_boxes", "addr:city": "MIDDLETOWN", "addr:country": "US", "addr:full": "816 W MILL ST", "addr:postcode": "47356", "addr:state": "IN", "brand": "USPS", "collection_times": "Mo-Fr 16:00; Sa 12:00", "name": "USPS COLLECTION BOX - BLUE BOX", "note": "ON 12/24 AND 12/31, THIS BOX MAY BE COLLECTED AS EARLY AS 12 NOON.", "ref": "4735600001"}, "type": "Feature"}
{"geometry": {"coordinates": [-85.537957891, 40.062550414], "type": "Point"}, "id": "s3AbEXP8umsUss5oj2ymTJXE6BI=", "properties": {"@spider": "usps_collection_boxes", "addr:city": "MIDDLETOWN", "addr:country": "US", "addr:full": "816 W MILL ST", "addr:postcode": "47356", "addr:state": "IN", "brand": "USPS", "collection_times": "Mo-Fr 16:00; Sa 12:00", "name": "USPS COLLECTION BOX - BLUE BOX", "note": "ON 12/24 AND 12/31, THIS BOX MAY BE COLLECTED AS EARLY AS 12 NOON.", "ref": "4735600002"}, "type": "Feature"}
{"geometry": {"coordinates": [-85.537957891, 40.062550414], "type": "Point"}, "id": "g19IpF-VnwQ1z6-tGRMTSk0OCro=", "properties": {"@spider": "usps_collection_boxes", "addr:city": "MIDDLETOWN", "addr:country": "US", "addr:full": "816 W MILL ST", "addr:postcode": "47356", "addr:state": "IN", "brand": "USPS", "collection_times": "Mo-Fr 16:00; Sa 12:00", "name": "USPS COLLECTION BOX - PO LOBBY", "note": "ON 12/24 AND 12/31, THIS BOX MAY BE COLLECTED AS EARLY AS 12 NOON.", "ref": "4735600009"}, "type": "Feature"}
{"geometry": {"coordinates": [-85.537957891, 40.062550414], "type": "Point"}, "id": "Yzu0-f650Lp0F0vDSpoWgOOAlk8=", "properties": {"@spider": "usps_collection_boxes", "addr:city": "MIDDLETOWN", "addr:country": "US", "addr:full": "816 W MILL ST", "addr:postcode": "47356", "addr:state": "IN", "brand": "USPS", "collection_times": "Mo-Fr 16:00; Sa 12:00", "name": "USPS COLLECTION BOX - PO LOBBY", "note": "ON 12/24 AND 12/31, THIS BOX MAY BE COLLECTED AS EARLY AS 12 NOON.", "ref": "4735600011"}, "type": "Feature"}
{"geometry": {"coordinates": [-85.155535227, 39.784635], "type": "Point"}, "id": "F467j6gIzbxDgNsax5JaroSHcII=", "properties": {"@spider": "usps_collection_boxes", "addr:city": "MILTON", "addr:country": "US", "addr:full": "307 S CENTRAL AVE", "addr:postcode": "47357", "addr:state": "IN", "brand": "USPS", "collection_times": "Mo-Fr 16:15; Sa 10:00", "name": "USPS COLLECTION BOX - BLUE BOX", "note": "ON 12/24 AND 12/31, THIS BOX MAY BE COLLECTED AS EARLY AS 12 NOON.", "ref": "4735700001"}, "type": "Feature"}
{"geometry": {"coordinates": [-85.155535227, 39.784635], "type": "Point"}, "id": "yb-hYdn1CmllZ4EIadHXVAAGF6Q=", "properties": {"@spider": "usps_collection_boxes", "addr:city": "MILTON", "addr:country": "US", "addr:full": "307 S CENTRAL AVE", "addr:postcode": "47357", "addr:state": "IN", "brand": "USPS", "collection_times": "Mo-Fr 16:15; Sa 10:00", "name": "USPS COLLECTION BOX - PO LOBBY", "note": "ON 12/24 AND 12/31, THIS BOX MAY BE COLLECTED AS EARLY AS 12 NOON.", "ref": "4735700002"}, "type": "Feature"}
{"geometry": {"coordinates": [-85.155535227, 39.784635], "type": "Point"}, "id": "VYOO0flMUpTocfSTAQQoNLWxtfc=", "properties": {"@spider": "usps_collection_boxes", "addr:city": "MILTON", "addr:country": "US", "addr:full": "307 S CENTRAL AVE", "addr:postcode": "47357", "addr:state": "IN", "brand": "USPS", "collection_times": "Mo-Fr 16:30; Sa 10:00", "name": "USPS COLLECTION BOX - PO LOBBY", "note": "ON 12/24 AND 12/31, THIS BOX MAY BE COLLECTED AS EARLY AS 12 NOON.", "ref": "4735700003"}, "type": "Feature"}
{"geometry": {"coordinates": [-85.1273301873, 40.0459741553], "type": "Point"}, "id": "T7YPCdgYFGNy0L06AZeAiV-Dlcs=", "properties": {"@spider": "usps_collection_boxes", "addr:city": "MODOC", "addr:country": "US", "addr:full": "107 E CONLEY ST", "addr:postcode": "47358", "addr:state": "IN", "brand": "USPS", "collection_times": "Mo-Fr 16:15; Sa 09:45", "name": "USPS COLLECTION BOX - BLUE BOX", "note": "ON 12/24 AND 12/31, THIS BOX MAY BE COLLECTED AS EARLY AS 12 NOON.", "ref": "4735800001"}, "type": "Feature"}
{"geometry": {"coordinates": [-85.127330352, 40.045974343], "type": "Point"}, "id": "92rdyqL2ugQfpgZ-p4ogf7R0KZQ=", "properties": {"@spider": "usps_collection_boxes", "addr:city": "MODOC", "addr:country": "US", "addr:full": "107 E CONLEY ST", "addr:postcode": "47358", "addr:state": "IN", "brand": "USPS", "collection_times": "Mo-Fr 10:45; Sa 09:45", "name": "USPS COLLECTION BOX - PO LOBBY", "ref": "4735800002"}, "type": "Feature"}
{"geometry": {"coordinates": [-85.1273303517, 40.0459743426], "type": "Point"}, "id": "iFD_uNX6vte-e8vy3YMDIZk4B5o=", "properties": {"@spider": "usps_collection_boxes", "addr:city": "MODOC", "addr:country": "US", "addr:full": "107 E CONLEY ST", "addr:postcode": "47358", "addr:state": "IN", "brand": "USPS", "collection_times": "Mo-Fr 11:00; Sa 10:30", "name": "USPS COLLECTION BOX - PO LOBBY", "ref": "4735800003"}, "type": "Feature"}
{"geometry": {"coordinates": [-85.2757906, 40.551391], "type": "Point"}, "id": "lzVDjkp7ZSsCvSMZ_Xt1fbDTrX8=", "properties": {"@spider": "usps_collection_boxes", "addr:city": "MONTPELIER", "addr:country": "US", "addr:full": "329 S WASHINGTON ST", "addr:postcode": "47359", "addr:state": "IN", "brand": "USPS", "collection_times": "Mo-Sa 10:00", "name": "USPS COLLECTION BOX - BLUE BOX", "ref": "4735900001"}, "type": "Feature"}
{"geometry": {"coordinates": [-85.2769185, 40.549922], "type": "Point"}, "id": "P_izjxbzZmvdOSnh8nyMHQe2ob0=", "properties": {"@spider": "usps_collection_boxes", "addr:city": "MONTPELIER", "addr:country": "US", "addr:full": "453 S ADAMS ST", "addr:postcode": "47359", "addr:state": "IN", "brand": "USPS", "collection_times": "Mo-Sa 10:00", "name": "USPS COLLECTION BOX - BLUE BOX", "ref": "4735900002"}, "type": "Feature"}
{"geometry": {"coordinates": [-85.275427, 40.555821], "type": "Point"}, "id": "keFrftPS2T1JLv-o4GmPdZoXhdw=", "properties": {"@spider": "usps_collection_boxes", "addr:city": "MONTPELIER", "addr:country": "US", "addr:full": "134 N ADAMS ST", "addr:postcode": "47359", "addr:state": "IN", "brand": "USPS", "collection_times": "Mo-Sa 08:45", "name": "USPS COLLECTION BOX - BLUE BOX", "ref": "4735900003"}, "type": "Feature"}
{"geometry": {"coordinates": [-85.279299703, 40.554023837], "type": "Point"}, "id": "Va-z-nv-U0YDU_Rie1Q9fNSjkZM=", "properties": {"@spider": "usps_collection_boxes", "addr:city": "MONTPELIER", "addr:country": "US", "addr:full": "215 S JEFFERSON ST", "addr:postcode": "47359", "addr:state": "IN", "brand": "USPS", "collection_times": "Mo-Fr 15:45; Sa 10:45", "name": "USPS COLLECTION BOX - BLUE BOX", "note": "ON 12/24 AND 12/31, THIS BOX MAY BE COLLECTED AS EARLY AS 12 NOON.", "ref": "4735900006"}, "type": "Feature"}
{"geometry": {"coordinates": [-85.279299703, 40.554023837], "type": "Point"}, "id": "AK6SgubIegSMVLBvoJmAkWJrVDg=", "properties": {"@spider": "usps_collection_boxes", "addr:city": "MONTPELIER", "addr:country": "US", "addr:full": "215 S JEFFERSON ST", "addr:postcode": "47359", "addr:state": "IN", "brand": "USPS", "collection_times": "Mo-Fr 15:45; Sa 11:00", "name": "USPS COLLECTION BOX - PO LOBBY", "note": "ON 12/24 AND 12/31, THIS BOX MAY BE COLLECTED AS EARLY AS 12 NOON.", "ref": "4735900007"}, "type": "Feature"}
{"geometry": {"coordinates": [-85.279299703, 40.554023837], "type": "Point"}, "id": "cSFwhNLEvzSZjmiYGrl3UaQrV50=", "properties": {"@spider": "usps_collection_boxes", "addr:city": "MONTPELIER", "addr:country": "US", "addr:full": "215 S JEFFERSON ST", "addr:postcode": "47359", "addr:state": "IN", "brand": "USPS", "collection_times": "Mo-Fr 16:00; Sa 11:00", "name": "USPS COLLECTION BOX - PO LOBBY", "note": "ON 12/24 AND 12/31, THIS BOX MAY BE COLLECTED AS EARLY AS 12 NOON.", "ref": "4735900009"}, "type": "Feature"}
{"geometry": {"coordinates": [-85.251218346, 39.998555696], "type": "Point"}, "id": "w3pMPag1IbQVOBkfECK3wCrSMhw=", "properties": {"@spider": "usps_collection_boxes", "addr:city": "MOORELAND", "addr:country": "US", "addr:full": "111 N BROAD ST", "addr:postcode": "47360", "addr:state": "IN", "brand": "USPS", "collection_times": "Mo-Fr 16:00; Sa 09:45", "name": "USPS COLLECTION BOX - BLUE BOX", "note": "ON 12/24 AND 12/31, THIS BOX MAY BE COLLECTED AS EARLY AS 12 NOON.", "ref": "4736000001"}, "type": "Feature"}
{"geometry": {"coordinates": [-85.251218346, 39.998555696], "type": "Point"}, "id": "WOLEah-QTpl4MEvr0fAkhwhoFWw=", "properties": {"@spider": "usps_collection_boxes", "addr:city": "MOORELAND", "addr:country": "US", "addr:full": "111 N BROAD ST", "addr:postcode": "47360", "addr:state": "IN", "brand": "USPS", "collection_times": "Mo-Fr 11:15; Sa 09:45", "name": "USPS COLLECTION BOX - PO LOBBY", "ref": "4736000002"}, "type": "Feature"}
{"geometry": {"coordinates": [-85.251218346, 39.998555696], "type": "Point"}, "id": "dcQULlmRIZgxkE-CwZMQhnsCr9o=", "properties": {"@spider": "usps_collection_boxes", "addr:city": "MOORELAND", "addr:country": "US", "addr:full": "111 N BROAD ST", "addr:postcode": "47360", "addr:state": "IN", "brand": "USPS", "collection_times": "Mo-Fr 11:30; Sa 10:00", "name": "USPS COLLECTION BOX - PO LOBBY", "ref": "4736000003"}, "type": "Feature"}
{"geometry": {"coordinates": [-85.384890467, 40.004527472], "type": "Point"}, "id": "piMBX-B-FvxtJu1ZQP7x3ghEH-0=", "properties": {"@spider": "usps_collection_boxes", "addr:city": "MOUNT SUMMIT", "addr:country": "US", "addr:full": "106 W MAIN ST", "addr:postcode": "47361", "addr:state": "IN", "brand": "USPS", "collection_times": "Mo-Fr 16:30; Sa 10:15", "name": "USPS COLLECTION BOX - BLUE BOX", "note": "ON 12/24 AND 12/31, THIS BOX MAY BE COLLECTED AS EARLY AS 12 NOON.", "ref": "4736100001"}, "type": "Feature"}
{"geometry": {"coordinates": [-85.384890467, 40.004527472], "type": "Point"}, "id": "WAIZmEpm2XVzcEDMfJuI6DAzWUU=", "properties": {"@spider": "usps_collection_boxes", "addr:city": "MOUNT SUMMIT", "addr:country": "US", "addr:full": "106 W MAIN ST", "addr:postcode": "47361", "addr:state": "IN", "brand": "USPS", "collection_times": "Mo-Fr 11:45; Sa 10:30", "name": "USPS COLLECTION BOX - PO LOBBY", "ref": "4736100002"}, "type": "Feature"}
{"geometry": {"coordinates": [-85.384890467, 40.004527472], "type": "Point"}, "id": "rwTM2SmkiS821yeHk8eCukaP2SA=", "properties": {"@spider": "usps_collection_boxes", "addr:city": "MOUNT SUMMIT", "addr:country": "US", "addr:full": "106 W MAIN ST", "addr:postcode": "47361", "addr:state": "IN", "brand": "USPS", "collection_times": "Mo-Fr 12:00; Sa 10:30", "name": "USPS COLLECTION BOX - PO LOBBY", "ref": "4736100003"}, "type": "Feature"}
{"geometry": {"coordinates": [-85.368916861, 39.929453948], "type": "Point"}, "id": "0m3AKKex_ko-LdyThTH-wCzem5E=", "properties": {"@spider": "usps_collection_boxes", "addr:city": "NEW CASTLE", "addr:country": "US", "addr:full": "305 S 14TH ST", "addr:postcode": "47362", "addr:state": "IN", "brand": "USPS", "collection_times": "Mo-Fr 17:00; Sa 16:00", "name": "USPS COLLECTION BOX - BLUE BOX", "note": "ON 12/24 AND 12/31, THIS BOX MAY BE COLLECTED AS EARLY AS 12 NOON.", "ref": "4736200000"}, "type": "Feature"}
{"geometry": {"coordinates": [-85.368916861, 39.929453948], "type": "Point"}, "id": "w4JUsdvQRNKO7bKvfYn0S4hexfQ=", "properties": {"@spider": "usps_collection_boxes", "addr:city": "NEW CASTLE", "addr:country": "US", "addr:full": "305 S 14TH ST", "addr:postcode": "47362", "addr:state": "IN", "brand": "USPS", "collection_times": "Mo-Fr 17:00; Sa 16:00", "name": "USPS COLLECTION BOX - PO LOBBY", "note": "ON 12/24 AND 12/31, THIS BOX MAY BE COLLECTED AS EARLY AS 12 NOON.", "ref": "4736200001"}, "type": "Feature"}
{"geometry": {"coordinates": [-85.3879491, 39.890842], "type": "Point"}, "id": "yCT5s4zh0osVMGAPPoFy512FGoY=", "properties": {"@spider": "usps_collection_boxes", "addr:city": "NEW CASTLE", "addr:country": "US", "addr:full": "1001 W COLONIAL DR", "addr:postcode": "47362", "addr:state": "IN", "brand": "USPS", "collection_times": "Mo-Sa 11:00", "name": "USPS COLLECTION BOX - BLUE BOX", "ref": "4736200004"}, "type": "Feature"}
{"geometry": {"coordinates": [-85.3847074, 39.913198], "type": "Point"}, "id": "7F4B7l4kvSr1XtTylCwZC7sNH9Q=", "properties": {"@spider": "usps_collection_boxes", "addr:city": "NEW CASTLE", "addr:country": "US", "addr:full": "2000 S MEMORIAL DR", "addr:postcode": "47362", "addr:state": "IN", "brand": "USPS", "collection_times": "Mo-Fr 12:00; Sa 11:00", "name": "USPS COLLECTION BOX - BLUE BOX", "ref": "4736200005"}, "type": "Feature"}
{"geometry": {"coordinates": [-85.3841768, 39.911483], "type": "Point"}, "id": "LNQnbcdbZEkiUkIBTcyfVtjUwpg=", "properties": {"@spider": "usps_collection_boxes", "addr:city": "NEW CASTLE", "addr:country": "US", "addr:full": "2020 S MEMORIAL DR", "addr:postcode": "47362", "addr:state": "IN", "brand": "USPS", "collection_times": "Mo-Sa 11:15", "name": "USPS COLLECTION BOX - BLUE BOX", "ref": "4736200006"}, "type": "Feature"}
{"geometry": {"coordinates": [-85.3707699, 39.909541], "type": "Point"}, "id": "ez7vqWeQZ6TnjZf2UNXNoRRuHB4=", "properties": {"@spider": "usps_collection_boxes", "addr:city": "NEW CASTLE", "addr:country": "US", "addr:full": "2400 S MAIN ST", "addr:postcode": "47362", "addr:state": "IN", "brand": "USPS", "collection_times": "Mo-Fr 13:45; Sa 10:15", "name": "USPS COLLECTION BOX - BLUE BOX", "note": "ON 12/24 AND 12/31, THIS BOX MAY BE COLLECTED AS EARLY AS 12 NOON.", "ref": "4736200009"}, "type": "Feature"}
{"geometry": {"coordinates": [-85.3623028, 39.931139], "type": "Point"}, "id": "OWrRoJbaXzdZvw4E1YZ_25JpyhA=", "properties": {"@spider": "usps_collection_boxes", "addr:city": "NEW CASTLE", "addr:country": "US", "addr:full": "1819 BROAD ST", "addr:postcode": "47362", "addr:state": "IN", "brand": "USPS", "collection_times": "Mo-Sa 08:30", "name": "USPS COLLECTION BOX - BLUE BOX", "ref": "4736200010"}, "type": "Feature"}
{"geometry": {"coordinates": [-85.3834299, 39.927261], "type": "Point"}, "id": "-8wUO4LhcEWXYw_3NEL3PULUQx0=", "properties": {"@spider": "usps_collection_boxes", "addr:city": "NEW CASTLE", "addr:country": "US", "addr:full": "445 S MEMORIAL DR", "addr:postcode": "47362", "addr:state": "IN", "brand": "USPS", "collection_times": "Mo-Sa 10:30", "name": "USPS COLLECTION BOX - BLUE BOX", "ref": "4736200012"}, "type": "Feature"}
{"geometry": {"coordinates": [-85.3812977, 39.930412], "type": "Point"}, "id": "v3O3QPMlZQQfTS3rm1zS4XwZseg=", "properties": {"@spider": "usps_collection_boxes", "addr:city": "NEW CASTLE", "addr:country": "US", "addr:full": "120 S MEMORIAL DR", "addr:postcode": "47362", "addr:state": "IN", "brand": "USPS", "collection_times": "Mo-Sa 11:00", "name": "USPS COLLECTION BOX - BLUE BOX", "ref": "4736200013"}, "type": "Feature"}
{"geometry": {"coordinates": [-85.3703437, 39.932841], "type": "Point"}, "id": "7SVAnJsE6AMWtQpR0RaTKPQwm00=", "properties": {"@spider": "usps_collection_boxes", "addr:city": "NEW CASTLE", "addr:country": "US", "addr:full": "227 N MAIN ST", "addr:postcode": "47362", "addr:state": "IN", "brand": "USPS", "collection_times": "Mo-Sa 14:00", "name": "USPS COLLECTION BOX - BLUE BOX", "note": "ON 12/24 AND 12/31, THIS BOX MAY BE COLLECTED AS EARLY AS 12 NOON.", "ref": "4736200014"}, "type": "Feature"}
{"geometry": {"coordinates": [-85.3858491, 39.91527], "type": "Point"}, "id": "xGJpq2pUTRVqmWSGhEXTdIIXPtA=", "properties": {"@spider": "usps_collection_boxes", "addr:city": "NEW CASTLE", "addr:country": "US", "addr:full": "1711 S MEMORIAL DR", "addr:postcode": "47362", "addr:state": "IN", "brand": "USPS", "collection_times": "Mo-Fr 10:45; Sa 09:00", "name": "USPS COLLECTION BOX - BLUE BOX", "ref": "4736200016"}, "type": "Feature"}
{"geometry": {"coordinates": [-85.369262, 39.929788], "type": "Point"}, "id": "6d7-4JpYVR-_gGgA8pA5sC79n5E=", "properties": {"@spider": "usps_collection_boxes", "addr:city": "NEW CASTLE", "addr:country": "US", "addr:full": "1324 CHURCH ST", "addr:postcode": "47362", "addr:state": "IN", "brand": "USPS", "collection_times": "Mo-Fr 16:45; Sa 16:00", "name": "USPS COLLECTION BOX - BLUE BOX", "note": "ON 12/24 AND 12/31, THIS BOX MAY BE COLLECTED AS EARLY AS 12 NOON.", "ref": "4736200017"}, "type": "Feature"}
{"geometry": {"coordinates": [-85.3652629, 39.941785], "type": "Point"}, "id": "SEaMFHcmesKL7Db_HAi0xrm-VU0=", "properties": {"@spider": "usps_collection_boxes", "addr:city": "NEW CASTLE", "addr:country": "US", "addr:full": "1007 N 16TH ST", "addr:postcode": "47362", "addr:state": "IN", "brand": "USPS", "collection_times": "Mo-Fr 10:00; Sa 09:15", "name": "USPS COLLECTION BOX - BLUE BOX", "ref": "4736200018"}, "type": "Feature"}
{"geometry": {"coordinates": [-85.3562914, 39.932933], "type": "Point"}, "id": "wh5U1a3KejW6CRizvjLBTodyMOI=", "properties": {"@spider": "usps_collection_boxes", "addr:city": "NEW CASTLE", "addr:country": "US", "addr:full": "2237 SPRING ST", "addr:postcode": "47362", "addr:state": "IN", "brand": "USPS", "collection_times": "Mo-Sa 11:00", "name": "USPS COLLECTION BOX - BLUE BOX", "ref": "4736200019"}, "type": "Feature"}
{"geometry": {"coordinates": [-85.359731121, 39.902655018], "type": "Point"}, "id": "3N_YAVZceCY94WnE6KUt_TjlJqg=", "properties": {"@spider": "usps_collection_boxes", "addr:city": "NEW CASTLE", "addr:country": "US", "addr:full": "3015 S 14TH ST", "addr:postcode": "47362", "addr:state": "IN", "brand": "USPS", "collection_times": "Mo-Sa 10:15", "name": "USPS COLLECTION BOX - BLUE BOX", "ref": "4736200020"}, "type": "Feature"}
{"geometry": {"coordinates": [-85.3714731, 39.930696], "type": "Point"}, "id": "I8mWl0EByg2Tt029A7_v1yoyGdo=", "properties": {"@spider": "usps_collection_boxes", "addr:city": "NEW CASTLE", "addr:country": "US", "addr:full": "1215 RACE ST", "addr:postcode": "47362", "addr:state": "IN", "brand": "USPS", "collection_times": "Mo-Sa 14:00", "name": "USPS COLLECTION BOX - BLUE BOX", "note": "ON 12/24 AND 12/31, THIS BOX MAY BE COLLECTED AS EARLY AS 12 NOON.", "ref": "4736200032"}, "type": "Feature"}
{"geometry": {"coordinates": [-85.3835349, 39.913996], "type": "Point"}, "id": "uOJCZHxjx-_0C_gXFb30veSlroQ=", "properties": {"@spider": "usps_collection_boxes", "addr:city": "NEW CASTLE", "addr:country": "US", "addr:full": "309 PARKVIEW DR", "addr:postcode": "47362", "addr:state": "IN", "brand": "USPS", "collection_times": "Mo-Fr 12:30; Sa 10:45", "name": "USPS COLLECTION BOX - BLUE BOX", "note": "ON 12/24 AND 12/31, THIS BOX MAY BE COLLECTED AS EARLY AS 12 NOON.", "ref": "4736200035"}, "type": "Feature"}
{"geometry": {"coordinates": [-85.369262, 39.929788], "type": "Point"}, "id": "-Wndtay2JHTN-4cNHrBeELN_utk=", "properties": {"@spider": "usps_collection_boxes", "addr:city": "NEW CASTLE", "addr:country": "US", "addr:full": "1324 CHURCH ST", "addr:postcode": "47362", "addr:state": "IN", "brand": "USPS", "collection_times": "Mo-Fr 16:45; Sa 16:00", "name": "USPS COLLECTION BOX - BLUE BOX", "note": "ON 12/24 AND 12/31, THIS BOX MAY BE COLLECTED AS EARLY AS 12 NOON.", "ref": "4736200037"}, "type": "Feature"}
{"geometry": {"coordinates": [-85.370162, 39.931375], "type": "Point"}, "id": "h8RmlO3qc1zn7VtgLQMzjAM4hxc=", "properties": {"@spider": "usps_collection_boxes", "addr:city": "NEW CASTLE", "addr:country": "US", "addr:full": "102 N MAIN ST", "addr:postcode": "47362", "addr:state": "IN", "brand": "USPS", "collection_times": "Mo-Sa 14:00", "name": "USPS COLLECTION BOX - BLUE BOX", "note": "ON 12/24 AND 12/31, THIS BOX MAY BE COLLECTED AS EARLY AS 12 NOON.", "ref": "4736200038"}, "type": "Feature"}
{"geometry": {"coordinates": [-85.3696626, 39.930181], "type": "Point"}, "id": "QpU8NhnBPHyru0yHwm9SMztvqYY=", "properties": {"@spider": "usps_collection_boxes", "addr:city": "NEW CASTLE", "addr:country": "US", "addr:full": "1324 CENTRAL AVE", "addr:postcode": "47362", "addr:state": "IN", "brand": "USPS", "collection_times": "Mo-Sa 14:00", "name": "USPS COLLECTION BOX - BLUE BOX", "note": "ON 12/24 AND 12/31, THIS BOX MAY BE COLLECTED AS EARLY AS 12 NOON.", "ref": "4736200039"}, "type": "Feature"}
{"geometry": {"coordinates": [-85.3946095, 39.975539], "type": "Point"}, "id": "Uq0pMshTCiRYanObC5SbPxKVGMA=", "properties": {"@spider": "usps_collection_boxes", "addr:city": "NEW CASTLE", "addr:country": "US", "addr:full": "3000 N GARY ST", "addr:postcode": "47362", "addr:state": "IN", "brand": "USPS", "collection_times": "Mo-Sa 10:00", "name": "USPS COLLECTION BOX - BLUE BOX", "ref": "4736200040"}, "type": "Feature"}
{"geometry": {"coordinates": [-85.3714759, 39.930687], "type": "Point"}, "id": "rha8M--y8V_1GuOQ7DJGMsBHgas=", "properties": {"@spider": "usps_collection_boxes", "addr:city": "NEW CASTLE", "addr:country": "US", "addr:full": "1215 RACE ST", "addr:postcode": "47362", "addr:state": "IN", "brand": "USPS", "collection_times": "Mo-Sa 14:00", "name": "USPS COLLECTION BOX - BLUE BOX", "note": "ON 12/24 AND 12/31, THIS BOX MAY BE COLLECTED AS EARLY AS 12 NOON.", "ref": "4736200041"}, "type": "Feature"}
{"geometry": {"coordinates": [-85.368916861, 39.929453948], "type": "Point"}, "id": "dzKt6NlSmH0CrDfJkl9gWemKKWQ=", "properties": {"@spider": "usps_collection_boxes", "addr:city": "NEW CASTLE", "addr:country": "US", "addr:full": "305 S 14TH ST", "addr:postcode": "47362", "addr:state": "IN", "brand": "USPS", "collection_times": "Mo-Fr 17:00; Sa 12:00", "name": "USPS COLLECTION BOX - PO LOBBY", "note": "ON 12/24 AND 12/31, THIS BOX MAY BE COLLECTED AS EARLY AS 12 NOON.", "ref": "4736200043"}, "type": "Feature"}
{"geometry": {"coordinates": [-85.260048554, 39.860611536], "type": "Point"}, "id": "7sxLiRI5QHbwaEFiScPohQzXA0I=", "properties": {"@spider": "usps_collection_boxes", "addr:city": "NEW LISBON", "addr:country": "US", "addr:full": "6625 E COUNTY ROAD 500 S", "addr:postcode": "47366", "addr:state": "IN", "brand": "USPS", "collection_times": "Mo-Fr 15:30; Sa 11:00", "name": "USPS COLLECTION BOX - BLUE BOX", "note": "ON 12/24 AND 12/31, THIS BOX MAY BE COLLECTED AS EARLY AS 12 NOON.", "ref": "4736600001"}, "type": "Feature"}
{"geometry": {"coordinates": [-85.260048554, 39.860611536], "type": "Point"}, "id": "485CDTRKAs5bPvXi5zxCflfTFk8=", "properties": {"@spider": "usps_collection_boxes", "addr:city": "NEW LISBON", "addr:country": "US", "addr:full": "6625 E COUNTY ROAD 500 S", "addr:postcode": "47366", "addr:state": "IN", "brand": "USPS", "collection_times": "Mo-Fr 10:15; Sa 11:00", "name": "USPS COLLECTION BOX - PO LOBBY", "ref": "4736600002"}, "type": "Feature"}
{"geometry": {"coordinates": [-85.260048554, 39.860611536], "type": "Point"}, "id": "WLXXxDOns7-ovvLKZr0SLSf1Xmw=", "properties": {"@spider": "usps_collection_boxes", "addr:city": "NEW LISBON", "addr:country": "US", "addr:full": "6625 E COUNTY ROAD 500 S", "addr:postcode": "47366", "addr:state": "IN", "brand": "USPS", "collection_times": "Mo-Sa 11:00", "name": "USPS COLLECTION BOX - PO LOBBY", "ref": "4736600003"}, "type": "Feature"}
{"geometry": {"coordinates": [-85.390501249, 40.079117536], "type": "Point"}, "id": "vc5hETJqOFQzjHMuT8w37Kxgl38=", "properties": {"@spider": "usps_collection_boxes", "addr:city": "OAKVILLE", "addr:country": "US", "addr:full": "551 W OAKVILLE RD", "addr:postcode": "47367", "addr:state": "IN", "brand": "USPS", "collection_times": "Mo-Fr 16:30; Sa 09:30", "name": "USPS COLLECTION BOX - BLUE BOX", "note": "ON 12/24 AND 12/31, THIS BOX MAY BE COLLECTED AS EARLY AS 12 NOON.", "ref": "4736700001"}, "type": "Feature"}
{"geometry": {"coordinates": [-85.390501249, 40.079117536], "type": "Point"}, "id": "EgYH5FyK9EOq-NaXo8tSHeUDhwo=", "properties": {"@spider": "usps_collection_boxes", "addr:city": "OAKVILLE", "addr:country": "US", "addr:full": "551 W OAKVILLE RD", "addr:postcode": "47367", "addr:state": "IN", "brand": "USPS", "collection_times": "Mo-Fr 11:45; Sa 09:30", "name": "USPS COLLECTION BOX - PO LOBBY", "ref": "4736700002"}, "type": "Feature"}
{"geometry": {"coordinates": [-85.390501249, 40.079117536], "type": "Point"}, "id": "d5zv354q4KVDa6Dakhgr8EKr0j0=", "properties": {"@spider": "usps_collection_boxes", "addr:city": "OAKVILLE", "addr:country": "US", "addr:full": "551 W OAKVILLE RD", "addr:postcode": "47367", "addr:state": "IN", "brand": "USPS", "collection_times": "Mo-Fr 12:00; Sa 10:00", "name": "USPS COLLECTION BOX - PO LOBBY", "ref": "4736700003"}, "type": "Feature"}
{"geometry": {"coordinates": [-85.203939462, 40.189023], "type": "Point"}, "id": "N6MkRk6C9HqE0VlTXeOxo856Pnc=", "properties": {"@spider": "usps_collection_boxes", "addr:city": "PARKER CITY", "addr:country": "US", "addr:full": "220 S MAIN ST", "addr:postcode": "47368", "addr:state": "IN", "brand": "USPS", "collection_times": "Mo-Fr 16:00; Sa 10:45", "name": "USPS COLLECTION BOX - BLUE BOX", "note": "ON 12/24 AND 12/31, THIS BOX MAY BE COLLECTED AS EARLY AS 12 NOON.", "ref": "4736800001"}, "type": "Feature"}
{"geometry": {"coordinates": [-85.203939462, 40.189023], "type": "Point"}, "id": "3FLt4fFq07jxe4c0eTn4RSpIqic=", "properties": {"@spider": "usps_collection_boxes", "addr:city": "PARKER CITY", "addr:country": "US", "addr:full": "220 S MAIN ST", "addr:postcode": "47368", "addr:state": "IN", "brand": "USPS", "collection_times": "Mo-Fr 16:00; Sa 10:45", "name": "USPS COLLECTION BOX - PO LOBBY", "note": "ON 12/24 AND 12/31, THIS BOX MAY BE COLLECTED AS EARLY AS 12 NOON.", "ref": "4736800003"}, "type": "Feature"}
{"geometry": {"coordinates": [-85.203939462, 40.189023], "type": "Point"}, "id": "ibxFF3x7dho1imE2-H0zceO3hDg=", "properties": {"@spider": "usps_collection_boxes", "addr:city": "PARKER CITY", "addr:country": "US", "addr:full": "220 S MAIN ST", "addr:postcode": "47368", "addr:state": "IN", "brand": "USPS", "collection_times": "Mo-Fr 16:00; Sa 11:00", "name": "USPS COLLECTION BOX - PO LOBBY", "note": "ON 12/24 AND 12/31, THIS BOX MAY BE COLLECTED AS EARLY AS 12 NOON.", "ref": "4736800005"}, "type": "Feature"}
{"geometry": {"coordinates": [-85.14815, 40.48993], "type": "Point"}, "id": "2iUfOdn_JO0D_Nw-O7dnXltEa-k=", "properties": {"@spider": "usps_collection_boxes", "addr:city": "PENNVILLE", "addr:country": "US", "addr:full": "125 S UNION ST", "addr:postcode": "47369", "addr:state": "IN", "brand": "USPS", "collection_times": "Mo-Fr 16:00; Sa 11:15", "name": "USPS COLLECTION BOX - BLUE BOX", "note": "ON 12/24 AND 12/31, THIS BOX MAY BE COLLECTED AS EARLY AS 12 NOON.", "ref": "4736900001"}, "type": "Feature"}
{"geometry": {"coordinates": [-85.14815, 40.48993], "type": "Point"}, "id": "T1BsVOrCDMQlED6u3HdLYJHvNPA=", "properties": {"@spider": "usps_collection_boxes", "addr:city": "PENNVILLE", "addr:country": "US", "addr:full": "125 S UNION ST", "addr:postcode": "47369", "addr:state": "IN", "brand": "USPS", "collection_times": "Mo-Fr 11:45; Sa 11:15", "name": "USPS COLLECTION BOX - PO LOBBY", "ref": "4736900002"}, "type": "Feature"}
{"geometry": {"coordinates": [-85.1481432809, 40.49213411], "type": "Point"}, "id": "CmvDPYqG7_1u0GbFiM8pfNByEPw=", "properties": {"@spider": "usps_collection_boxes", "addr:city": "PENNVILLE", "addr:country": "US", "addr:full": "125 S UNION ST", "addr:postcode": "47369", "addr:state": "IN", "brand": "USPS", "collection_times": "Mo-Fr 12:00; Sa 11:30", "name": "USPS COLLECTION BOX - PO LOBBY", "ref": "4736900003"}, "type": "Feature"}
{"geometry": {"coordinates": [-85.135502681, 39.813303457], "type": "Point"}, "id": "dmCiMpJwcJTWlVtY5lo_gBwVU4s=", "properties": {"@spider": "usps_collection_boxes", "addr:city": "PERSHING", "addr:country": "US", "addr:full": "401 E MAIN ST", "addr:postcode": "47370", "addr:state": "IN", "brand": "USPS", "collection_times": "Mo-Fr 16:30; Sa 10:15", "name": "USPS COLLECTION BOX - BLUE BOX", "note": "ON 12/24 AND 12/31, THIS BOX MAY BE COLLECTED AS EARLY AS 12 NOON.", "ref": "4737000001"}, "type": "Feature"}
{"geometry": {"coordinates": [-85.135502681, 39.813303457], "type": "Point"}, "id": "vu-EVNA1CR9TYQX3tQhi6eTUqDI=", "properties": {"@spider": "usps_collection_boxes", "addr:city": "PERSHING", "addr:country": "US", "addr:full": "401 E MAIN ST", "addr:postcode": "47370", "addr:state": "IN", "brand": "USPS", "collection_times": "Mo-Fr 11:45; Sa 10:15", "name": "USPS COLLECTION BOX - PO LOBBY", "ref": "4737000002"}, "type": "Feature"}
{"geometry": {"coordinates": [-85.135502681, 39.813303457], "type": "Point"}, "id": "YVJkWb9D9dwIxraCPruLp3V92YE=", "properties": {"@spider": "usps_collection_boxes", "addr:city": "PERSHING", "addr:country": "US", "addr:full": "401 E MAIN ST", "addr:postcode": "47370", "addr:state": "IN", "brand": "USPS", "collection_times": "Mo-Fr 12:00; Sa 10:00", "name": "USPS COLLECTION BOX - PO LOBBY", "ref": "4737000003"}, "type": "Feature"}
{"geometry": {"coordinates": [-84.9792557, 40.433156], "type": "Point"}, "id": "ax91R-sw9lhXfzYQDGGhtlLoG24=", "properties": {"@spider": "usps_collection_boxes", "addr:city": "PORTLAND", "addr:country": "US", "addr:full": "205 W MAIN ST", "addr:postcode": "47371", "addr:state": "IN", "brand": "USPS", "collection_times": "Mo-Sa 14:00", "name": "USPS COLLECTION BOX - BLUE BOX", "note": "ON 12/24 AND 12/31, THIS BOX MAY BE COLLECTED AS EARLY AS 12 NOON.", "ref": "4737100000"}, "type": "Feature"}
{"geometry": {"coordinates": [-84.9804761, 40.447226], "type": "Point"}, "id": "Uz05aTD7HPDUsHhR4gzJzKCehWg=", "properties": {"@spider": "usps_collection_boxes", "addr:city": "PORTLAND", "addr:country": "US", "addr:full": "218 W LINCOLN AVE", "addr:postcode": "47371", "addr:state": "IN", "brand": "USPS", "collection_times": "Mo-Sa 09:00", "name": "USPS COLLECTION BOX - BLUE BOX", "ref": "4737100005"}, "type": "Feature"}
{"geometry": {"coordinates": [-84.9773431, 40.425447], "type": "Point"}, "id": "eBxSgHhyMTCYzxCi_m6BzOgsyfk=", "properties": {"@spider": "usps_collection_boxes", "addr:city": "PORTLAND", "addr:country": "US", "addr:full": "729 S MERIDIAN ST", "addr:postcode": "47371", "addr:state": "IN", "brand": "USPS", "collection_times": "Mo-Sa 13:30", "name": "USPS COLLECTION BOX - BLUE BOX", "note": "ON 12/24 AND 12/31, THIS BOX MAY BE COLLECTED AS EARLY AS 12 NOON.", "ref": "4737100006"}, "type": "Feature"}
{"geometry": {"coordinates": [-84.978631, 40.432706], "type": "Point"}, "id": "V3_fqr1uTiHZ22HtJjMe3anYBUo=", "properties": {"@spider": "usps_collection_boxes", "addr:city": "PORTLAND", "addr:country": "US", "addr:full": "117 W MAIN ST", "addr:postcode": "47371", "addr:state": "IN", "brand": "USPS", "collection_times": "Mo-Sa 15:30", "name": "USPS COLLECTION BOX - BLUE BOX", "note": "ON 12/24 AND 12/31, THIS BOX MAY BE COLLECTED AS EARLY AS 12 NOON.", "ref": "4737100008"}, "type": "Feature"}
{"geometry": {"coordinates": [-84.9855638, 40.441608], "type": "Point"}, "id": "JQHby7HkfsmVbdd-Pyr0MIsHy48=", "properties": {"@spider": "usps_collection_boxes", "addr:city": "PORTLAND", "addr:country": "US", "addr:full": "500 W VOTAW ST", "addr:postcode": "47371", "addr:state": "IN", "brand": "USPS", "collection_times": "Mo-Sa 09:00", "name": "USPS COLLECTION BOX - BLUE BOX", "ref": "4737100012"}, "type": "Feature"}
{"geometry": {"coordinates": [-84.9787747, 40.433584], "type": "Point"}, "id": "mX72ZC8rAt11iIdIV0qq7vFZTIw=", "properties": {"@spider": "usps_collection_boxes", "addr:city": "PORTLAND", "addr:country": "US", "addr:full": "120 N COURT ST", "addr:postcode": "47371", "addr:state": "IN", "brand": "USPS", "collection_times": "Mo-Sa 15:30", "name": "USPS COLLECTION BOX - BLUE BOX", "note": "ON 12/24 AND 12/31, THIS BOX MAY BE COLLECTED AS EARLY AS 12 NOON.", "ref": "4737100014"}, "type": "Feature"}
{"geometry": {"coordinates": [-84.9775633, 40.436044], "type": "Point"}, "id": "fjthJt0ZmxpsqmnYxeeTznwjOow=", "properties": {"@spider": "usps_collection_boxes", "addr:city": "PORTLAND", "addr:country": "US", "addr:full": "325 N MERIDIAN ST", "addr:postcode": "47371", "addr:state": "IN", "brand": "USPS", "collection_times": "Mo-Sa 08:30", "name": "USPS COLLECTION BOX - BLUE BOX", "ref": "4737100015"}, "type": "Feature"}
{"geometry": {"coordinates": [-84.977774442, 40.432562696], "type": "Point"}, "id": "me50IUioy7wO7fVLK2jWSiZV0ts=", "properties": {"@spider": "usps_collection_boxes", "addr:city": "PORTLAND", "addr:country": "US", "addr:full": "119 S MERIDIAN ST", "addr:postcode": "47371", "addr:state": "IN", "brand": "USPS", "collection_times": "Mo-Sa 16:30", "name": "USPS COLLECTION BOX - PO LOBBY", "note": "ON 12/24 AND 12/31, THIS BOX MAY BE COLLECTED AS EARLY AS 12 NOON.", "ref": "4737100018"}, "type": "Feature"}
{"geometry": {"coordinates": [-84.9781989, 40.433406], "type": "Point"}, "id": "tiL3UIy-1Hwz2xlkWO12b0ZIthc=", "properties": {"@spider": "usps_collection_boxes", "addr:city": "PORTLAND", "addr:country": "US", "addr:full": "116 W MAIN ST", "addr:postcode": "47371", "addr:state": "IN", "brand": "USPS", "collection_times": "Mo-Sa 15:30", "name": "USPS COLLECTION BOX - BLUE BOX", "note": "ON 12/24 AND 12/31, THIS BOX MAY BE COLLECTED AS EARLY AS 12 NOON.", "ref": "4737100019"}, "type": "Feature"}
{"geometry": {"coordinates": [-84.976503, 40.432878], "type": "Point"}, "id": "IE-RP43Je9tyIsF22orJqmy-qpU=", "properties": {"@spider": "usps_collection_boxes", "addr:city": "PORTLAND", "addr:country": "US", "addr:full": "129 E MAIN ST", "addr:postcode": "47371", "addr:state": "IN", "brand": "USPS", "collection_times": "Mo-Sa 16:30", "name": "USPS COLLECTION BOX - BLUE BOX", "note": "ON 12/24 AND 12/31, THIS BOX MAY BE COLLECTED AS EARLY AS 12 NOON.", "ref": "4737100020"}, "type": "Feature"}
{"geometry": {"coordinates": [-84.9764911, 40.432888], "type": "Point"}, "id": "vX_rK2c4i2Myht1FDGE33ZSbKfs=", "properties": {"@spider": "usps_collection_boxes", "addr:city": "PORTLAND", "addr:country": "US", "addr:full": "129 E MAIN ST", "addr:postcode": "47371", "addr:state": "IN", "brand": "USPS", "collection_times": "Mo-Sa 16:30", "name": "USPS COLLECTION BOX - BLUE BOX", "note": "ON 12/24 AND 12/31, THIS BOX MAY BE COLLECTED AS EARLY AS 12 NOON.", "ref": "4737100021"}, "type": "Feature"}
{"geometry": {"coordinates": [-84.977774442, 40.432562696], "type": "Point"},