{"geometry": {"coordinates": [-82.94545, 42.917039], "type": "Point"}, "id": "q1i5XG5Gz9EEmXmMc4eGA9X-flk=", "properties": {"@spider": "usps_collection_boxes", "addr:city": "ALLENTON", "addr:country": "US", "addr:full": "770 CAPAC RD", "addr:postcode": "48002", "addr:state": "MI", "brand": "USPS", "collection_times": "Mo-Fr 16:00; Sa 11:30", "name": "USPS COLLECTION BOX - BLUE BOX", "note": "ON 12/24 AND 12/31, THIS BOX MAY BE COLLECTED AS EARLY AS 12 NOON.", "ref": "4800200001"}, "type": "Feature"}
{"geometry": {"coordinates": [-82.945486, 42.917009], "type": "Point"}, "id": "nCTvcCGsqoREg5BzAkVkgJ239SU=", "properties": {"@spider": "usps_collection_boxes", "addr:city": "ALLENTON", "addr:country": "US", "addr:full": "770 CAPAC RD", "addr:postcode": "48002", "addr:state": "MI", "brand": "USPS", "collection_times": "Mo-Fr 16:00; Sa 11:30", "name": "USPS COLLECTION BOX - PO LOBBY", "note": "ON 12/24 AND 12/31, THIS BOX MAY BE COLLECTED AS EARLY AS 12 NOON.", "ref": "4800200003"}, "type": "Feature"}
{"geometry": {"coordinates": [-82.945443017, 42.916860419], "type": "Point"}, "id": "x7byaH3Gu-PXsFmM0a7q6dNSQag=", "properties": {"@spider": "usps_collection_boxes", "addr:city": "ALLENTON", "addr:country": "US", "addr:full": "770 CAPAC RD", "addr:postcode": "48002", "addr:state": "MI", "brand": "USPS", "collection_times": "Mo-Fr 16:00; Sa 11:30", "name": "USPS COLLECTION BOX - PO LOBBY", "note": "ON 12/24 AND 12/31, THIS BOX MAY BE COLLECTED AS EARLY AS 12 NOON.", "ref": "4800200004"}, "type": "Feature"}
{"geometry": {"coordinates": [-83.045076, 42.920783], "type": "Point"}, "id": "x-H3H1RNOAtwEPu3YoyErfIBMKg=", "properties": {"@spider": "usps_collection_boxes", "addr:city": "ALMONT", "addr:country": "US", "addr:full": "116 N MAIN ST", "addr:postcode": "48003", "addr:state": "MI", "brand": "USPS", "collection_times": "Mo-Fr 16:30; Sa 12:30", "name": "USPS COLLECTION BOX - BLUE BOX", "note": "ON 12/24 AND 12/31, THIS BOX MAY BE COLLECTED AS EARLY AS 12 NOON.", "ref": "4800300001"}, "type": "Feature"}
{"geometry": {"coordinates": [-83.04509, 42.920977], "type": "Point"}, "id": "O5w0WMBixQoQmpTPIU6-oJenxt4=", "properties": {"@spider": "usps_collection_boxes", "addr:city": "ALMONT", "addr:country": "US", "addr:full": "138 N MAIN ST", "addr:postcode": "48003", "addr:state": "MI", "brand": "USPS", "collection_times": "Mo-Fr 15:00; Sa 10:00", "name": "USPS COLLECTION BOX - BLUE BOX", "note": "ON 12/24 AND 12/31, THIS BOX MAY BE COLLECTED AS EARLY AS 12 NOON.", "ref": "4800300002"}, "type": "Feature"}
{"geometry": {"coordinates": [-83.0451059, 42.923264], "type": "Point"}, "id": "LOTGkZO2GHip2uN71-YwY60MMRs=", "properties": {"@spider": "usps_collection_boxes", "addr:city": "ALMONT", "addr:country": "US", "addr:full": "402 N MAIN ST", "addr:postcode": "48003", "addr:state": "MI", "brand": "USPS", "collection_times": "Mo-Sa 09:00", "name": "USPS COLLECTION BOX - BLUE BOX", "ref": "4800300003"}, "type": "Feature"}
{"geometry": {"coordinates": [-83.0530121, 42.926725], "type": "Point"}, "id": "tSnZztyRKp09A3ykbw2YqSrHBrc=", "properties": {"@spider": "usps_collection_boxes", "addr:city": "ALMONT", "addr:country": "US", "addr:full": "4600 VAN DYKE RD", "addr:postcode": "48003", "addr:state": "MI", "brand": "USPS", "collection_times": "Mo-Sa 09:30", "name": "USPS COLLECTION BOX - BLUE BOX", "ref": "4800300004"}, "type": "Feature"}
{"geometry": {"coordinates": [-83.0562746, 42.949393], "type": "Point"}, "id": "-bE1dEJPdggLbif3-KDVGP7jGG8=", "properties": {"@spider": "usps_collection_boxes", "addr:city": "ALMONT", "addr:country": "US", "addr:full": "3983 VAN DYKE RD", "addr:postcode": "48003", "addr:state": "MI", "brand": "USPS", "collection_times": "Mo-Sa 10:00", "name": "USPS COLLECTION BOX - BLUE BOX", "ref": "4800300008"}, "type": "Feature"}
{"geometry": {"coordinates": [-83.045109, 42.920722], "type": "Point"}, "id": "g91OZXzswHcoU34wIjlvfKSPZdw=", "properties": {"@spider": "usps_collection_boxes", "addr:city": "ALMONT", "addr:country": "US", "addr:full": "116 N MAIN ST", "addr:postcode": "48003", "addr:state": "MI", "brand": "USPS", "collection_times": "Mo-Fr 16:30; Sa 12:30", "name": "USPS COLLECTION BOX - PO LOBBY", "note": "ON 12/24 AND 12/31, THIS BOX MAY BE COLLECTED AS EARLY AS 12 NOON.", "ref": "4800300009"}, "type": "Feature"}
{"geometry": {"coordinates": [-83.045086101, 42.92090123], "type": "Point"}, "id": "e46v5Z-JIDCXIKPdO_Y4lk6BHtE=", "properties": {"@spider": "usps_collection_boxes", "addr:city": "ALMONT", "addr:country": "US", "addr:full": "116 N MAIN ST", "addr:postcode": "48003", "addr:state": "MI", "brand": "USPS", "collection_times": "Mo-Fr 16:30; Sa 12:30", "name": "USPS COLLECTION BOX - PO LOBBY", "note": "ON 12/24 AND 12/31, THIS BOX MAY BE COLLECTED AS EARLY AS 12 NOON.", "ref": "4800300010"}, "type": "Feature"}
{"geometry": {"coordinates": [-82.883278, 42.844655], "type": "Point"}, "id": "mWmmqUIwj5LzY71E9TXz7Wh9glg=", "properties": {"@spider": "usps_collection_boxes", "addr:city": "ARMADA", "addr:country": "US", "addr:full": "74260 BURK ST", "addr:postcode": "48005", "addr:state": "MI", "brand": "USPS", "collection_times": "Mo-Fr 16:30; Sa 12:00", "name": "USPS COLLECTION BOX - BLUE BOX", "note": "ON 12/24 AND 12/31, THIS BOX MAY BE COLLECTED AS EARLY AS 12 NOON.", "ref": "4800500001"}, "type": "Feature"}
{"geometry": {"coordinates": [-82.883312, 42.844619], "type": "Point"}, "id": "AEg5rPcGGN-qS4aowEJeRCYy358=", "properties": {"@spider": "usps_collection_boxes", "addr:city": "ARMADA", "addr:country": "US", "addr:full": "74260 BURK ST", "addr:postcode": "48005", "addr:state": "MI", "brand": "USPS", "collection_times": "Mo-Fr 16:30; Sa 12:00", "name": "USPS COLLECTION BOX - PO LOBBY", "note": "ON 12/24 AND 12/31, THIS BOX MAY BE COLLECTED AS EARLY AS 12 NOON.", "ref": "4800500002"}, "type": "Feature"}
{"geometry": {"coordinates": [-82.883324539, 42.844806115], "type": "Point"}, "id": "Vw7sOSMDA9ttaxA81iQfynyhu98=", "properties": {"@spider": "usps_collection_boxes", "addr:city": "ARMADA", "addr:country": "US", "addr:full": "74260 BURK ST", "addr:postcode": "48005", "addr:state": "MI", "brand": "USPS", "collection_times": "Mo-Fr 16:30; Sa 12:00", "name": "USPS COLLECTION BOX - PO LOBBY", "note": "ON 12/24 AND 12/31, THIS BOX MAY BE COLLECTED AS EARLY AS 12 NOON.", "ref": "4800500006"}, "type": "Feature"}
{"geometry": {"coordinates": [-82.928579, 43.012593], "type": "Point"}, "id": "3UZqmlXarUa7md-rGkYoVCvtr5U=", "properties": {"@spider": "usps_collection_boxes", "addr:city": "CAPAC", "addr:country": "US", "addr:full": "102 W MILL ST", "addr:postcode": "48014", "addr:state": "MI", "brand": "USPS", "collection_times": "Mo-Fr 16:30; Sa 11:00", "name": "USPS COLLECTION BOX - BLUE BOX", "note": "ON 12/24 AND 12/31, THIS BOX MAY BE COLLECTED AS EARLY AS 12 NOON.", "ref": "4801400002"}, "type": "Feature"}
{"geometry": {"coordinates": [-82.928462, 43.012622], "type": "Point"}, "id": "wqUZ48XUKPfNwAnIF1xG81jCwzc=", "properties": {"@spider": "usps_collection_boxes", "addr:city": "CAPAC", "addr:country": "US", "addr:full": "102 W MILL ST", "addr:postcode": "48014", "addr:state": "MI", "brand": "USPS", "collection_times": "Mo-Fr 16:30; Sa 11:00", "name": "USPS COLLECTION BOX - PO LOBBY", "note": "ON 12/24 AND 12/31, THIS BOX MAY BE COLLECTED AS EARLY AS 12 NOON.", "ref": "4801400003"}, "type": "Feature"}
{"geometry": {"coordinates": [-82.9288546, 42.996051], "type": "Point"}, "id": "qtWj7MevQCWvQo_hQBA5filEnF4=", "properties": {"@spider": "usps_collection_boxes", "addr:city": "CAPAC", "addr:country": "US", "addr:full": "3433 CAPAC RD", "addr:postcode": "48014", "addr:state": "MI", "brand": "USPS", "collection_times": "Mo-Sa 12:30", "name": "USPS COLLECTION BOX - BLUE BOX", "note": "ON 12/24 AND 12/31, THIS BOX MAY BE COLLECTED AS EARLY AS 12 NOON.", "ref": "4801400005"}, "type": "Feature"}
{"geometry": {"coordinates": [-82.929113329, 43.012566525], "type": "Point"}, "id": "7EWHxmlTnnZyxqRgsRw2OTJI2gA=", "properties": {"@spider": "usps_collection_boxes", "addr:city": "CAPAC", "addr:country": "US", "addr:full": "102 W MILL ST", "addr:postcode": "48014", "addr:state": "MI", "brand": "USPS", "collection_times": "Mo-Fr 16:30; Sa 12:00", "name": "USPS COLLECTION BOX - PO LOBBY", "note": "ON 12/24 AND 12/31, THIS BOX MAY BE COLLECTED AS EARLY AS 12 NOON.", "ref": "4801400006"}, "type": "Feature"}
{"geometry": {"coordinates": [-82.765013649, 42.989431057], "type": "Point"}, "id": "ylaMgIvVFVCO177dC8DdyO2wLHQ=", "properties": {"@spider": "usps_collection_boxes", "addr:city": "EMMETT", "addr:country": "US", "addr:full": "3120 MAIN ST", "addr:postcode": "48022", "addr:state": "MI", "brand": "USPS", "collection_times": "Mo-Fr 15:45; Sa 12:00", "name": "USPS COLLECTION BOX - BLUE BOX", "note": "ON 12/24 AND 12/31, THIS BOX MAY BE COLLECTED AS EARLY AS 12 NOON.", "ref": "4802200001"}, "type": "Feature"}
{"geometry": {"coordinates": [-82.765055, 42.989498], "type": "Point"}, "id": "DnsEP1UzMFIB9FHaAe3eLdS7plI=", "properties": {"@spider": "usps_collection_boxes", "addr:city": "EMMETT", "addr:country": "US", "addr:full": "3120 MAIN ST", "addr:postcode": "48022", "addr:state": "MI", "brand": "USPS", "collection_times": "Mo-Fr 15:45; Sa 12:00", "name": "USPS COLLECTION BOX - PO LOBBY", "note": "ON 12/24 AND 12/31, THIS BOX MAY BE COLLECTED AS EARLY AS 12 NOON.", "ref": "4802200002"}, "type": "Feature"}
{"geometry": {"coordinates": [-82.765013649, 42.989431057], "type": "Point"}, "id": "DB-n3wR3lG7TelXR6k4WFY0XXNg=", "properties": {"@spider": "usps_collection_boxes", "addr:city": "EMMETT", "addr:country": "US", "addr:full": "3120 MAIN ST", "addr:postcode": "48022", "addr:state": "MI", "brand": "USPS", "collection_times": "Mo-Fr 16:00; Sa 12:00", "name": "USPS COLLECTION BOX - PO LOBBY", "note": "ON 12/24 AND 12/31, THIS BOX MAY BE COLLECTED AS EARLY AS 12 NOON.", "ref": "4802200003"}, "type": "Feature"}
{"geometry": {"coordinates": [-82.8417905, 42.940981], "type": "Point"}, "id": "zi1G2G3vAP3q1RD1vRoxHqevPYI=", "properties": {"@spider": "usps_collection_boxes", "addr:city": "RILEY", "addr:country": "US", "addr:full": "1539 RILEY CENTER RD", "addr:postcode": "48041", "addr:state": "MI", "brand": "USPS", "collection_times": "Mo-Sa 11:00", "name": "USPS COLLECTION BOX - BLUE BOX", "ref": "4804100004"}, "type": "Feature"}
{"geometry": {"coordinates": [-83.014189, 42.804109], "type": "Point"}, "id": "vWHl6HNV8sZ4_Feo2nYkzGLep5g=", "properties": {"@spider": "usps_collection_boxes", "addr:city": "BRUCE TWP", "addr:country": "US", "addr:full": "119 CHURCH ST", "addr:postcode": "48065", "addr:state": "MI", "brand": "USPS", "collection_times": "Mo-Fr 17:00; Sa 15:30", "name": "USPS COLLECTION BOX - BLUE BOX", "note": "ON 12/24 AND 12/31, THIS BOX MAY BE COLLECTED AS EARLY AS 12 NOON.", "ref": "4806500015"}, "type": "Feature"}
{"geometry": {"coordinates": [-83.014225, 42.804136], "type": "Point"}, "id": "jH89VPXTvDHVvG_UXougdB6jja4=", "properties": {"@spider": "usps_collection_boxes", "addr:city": "BRUCE TWP", "addr:country": "US", "addr:full": "119 CHURCH ST", "addr:postcode": "48065", "addr:state": "MI", "brand": "USPS", "collection_times": "Mo-Fr 17:00; Sa 15:30", "name": "USPS COLLECTION BOX - PO LOBBY", "note": "ON 12/24 AND 12/31, THIS BOX MAY BE COLLECTED AS EARLY AS 12 NOON.", "ref": "4806500017"}, "type": "Feature"}
{"geometry": {"coordinates": [-83.014132249, 42.804098488], "type": "Point"}, "id": "xeW6OtOIo-92prpaXX9CJTlqmCk=", "properties": {"@spider": "usps_collection_boxes", "addr:city": "BRUCE TWP", "addr:country": "US", "addr:full": "119 CHURCH ST", "addr:postcode": "48065", "addr:state": "MI", "brand": "USPS", "collection_times": "Mo-Fr 17:00; Sa 13:00", "name": "USPS COLLECTION BOX - PO LOBBY", "note": "ON 12/24 AND 12/31, THIS BOX MAY BE COLLECTED AS EARLY AS 12 NOON.", "ref": "4806500020"}, "type": "Feature"}
{"geometry": {"coordinates": [-83.0069909, 42.786498], "type": "Point"}, "id": "rcaXoHHz2k7XsNaL-pyEfl8KkAs=", "properties": {"@spider": "usps_collection_boxes", "addr:city": "WASHINGTON", "addr:country": "US", "addr:full": "12790 31 MILE RD", "addr:postcode": "48094", "addr:state": "MI", "brand": "USPS", "collection_times": "Mo-Sa 10:30", "name": "USPS COLLECTION BOX - BLUE BOX", "ref": "4809400018"}, "type": "Feature"}
{"geometry": {"coordinates": [-82.7980157, 43.128855], "type": "Point"}, "id": "rVCgXYKjhrnvvjenuZIUumb2lFA=", "properties": {"@spider": "usps_collection_boxes", "addr:city": "YALE", "addr:country": "US", "addr:full": "100 S MAIN ST", "addr:postcode": "48097", "addr:state": "MI", "brand": "USPS", "collection_times": "Mo-Fr 15:00; Sa 11:00", "name": "USPS COLLECTION BOX - BLUE BOX", "note": "ON 12/24 AND 12/31, THIS BOX MAY BE COLLECTED AS EARLY AS 12 NOON.", "ref": "4809700004"}, "type": "Feature"}
{"geometry": {"coordinates": [-82.7988346, 43.130497], "type": "Point"}, "id": "RRHc7CmVjcp0uai4WBk3cwqyioc=", "properties": {"@spider": "usps_collection_boxes", "addr:city": "YALE", "addr:country": "US", "addr:full": "3 N MAIN ST", "addr:postcode": "48097", "addr:state": "MI", "brand": "USPS", "collection_times": "Mo-Fr 15:00; Sa 11:00", "name": "USPS COLLECTION BOX - BLUE BOX", "note": "ON 12/24 AND 12/31, THIS BOX MAY BE COLLECTED AS EARLY AS 12 NOON.", "ref": "4809700005"}, "type": "Feature"}
{"geometry": {"coordinates": [-82.799462, 43.128132], "type": "Point"}, "id": "f3Ei3P_YiU-8wCFvuku7Z_yUlX8=", "properties": {"@spider": "usps_collection_boxes", "addr:city": "YALE", "addr:country": "US", "addr:full": "211 JONES ST", "addr:postcode": "48097", "addr:state": "MI", "brand": "USPS", "collection_times": "Mo-Fr 15:00; Sa 11:00", "name": "USPS COLLECTION BOX - BLUE BOX", "note": "ON 12/24 AND 12/31, THIS BOX MAY BE COLLECTED AS EARLY AS 12 NOON.", "ref": "4809700006"}, "type": "Feature"}
{"geometry": {"coordinates": [-82.799424, 43.128123], "type": "Point"}, "id": "VpsQdw33GgKmYX2NGasn5uFcD6s=", "properties": {"@spider": "usps_collection_boxes", "addr:city": "YALE", "addr:country": "US", "addr:full": "211 JONES ST", "addr:postcode": "48097", "addr:state": "MI", "brand": "USPS", "collection_times": "Mo-Fr 15:00; Sa 11:00", "name": "USPS COLLECTION BOX - PO LOBBY", "note": "ON 12/24 AND 12/31, THIS BOX MAY BE COLLECTED AS EARLY AS 12 NOON.", "ref": "4809700008"}, "type": "Feature"}
{"geometry": {"coordinates": [-82.799424, 43.128123], "type": "Point"}, "id": "UVIqpGNsR9lGR-OxQ6z4uZmtsdA=", "properties": {"@spider": "usps_collection_boxes", "addr:city": "YALE", "addr:country": "US", "addr:full": "211 JONES ST", "addr:postcode": "48097", "addr:state": "MI", "brand": "USPS", "collection_times": "Mo-Fr 15:00; Sa 11:00", "name": "USPS COLLECTION BOX - BLUE BOX", "note": "ON 12/24 AND 12/31, THIS BOX MAY BE COLLECTED AS EARLY AS 12 NOON.", "ref": "4809700009"}, "type": "Feature"}
{"geometry": {"coordinates": [-82.7994389833, 43.1277396603], "type": "Point"}, "id": "gX3NtXLAI6dg_0edaxrxUGDhRyY=", "properties": {"@spider": "usps_collection_boxes", "addr:city": "YALE", "addr:country": "US", "addr:full": "211 JONES ST", "addr:postcode": "48097", "addr:state": "MI", "brand": "USPS", "collection_times": "Mo-Fr 16:30; Sa 12:00", "name": "USPS COLLECTION BOX - PO LOBBY", "note": "ON 12/24 AND 12/31, THIS BOX MAY BE COLLECTED AS EARLY AS 12 NOON.", "ref": "4809700011"}, "type": "Feature"}
