{"geometry": {"coordinates": [-87.628103832, 41.342448532], "type": "Point"}, "id": "EcFIzs84nAfseGPl4B5vh2V4xgU=", "properties": {"@spider": "usps_collection_boxes", "addr:city": "BEECHER", "addr:country": "US", "addr:full": "712 PENFIELD ST", "addr:postcode": "60401", "addr:state": "IL", "brand": "USPS", "collection_times": "Mo-Fr 16:30; Sa 12:30", "name": "USPS COLLECTION BOX - BLUE BOX", "note": "ON 12/24 AND 12/31, THIS BOX MAY BE COLLECTED AS EARLY AS 12 NOON.", "ref": "6040100000"}, "type": "Feature"}
{"geometry": {"coordinates": [-87.628103832, 41.342448532], "type": "Point"}, "id": "x7UcoAz0r1qlj-domAGsnl3El3A=", "properties": {"@spider": "usps_collection_boxes", "addr:city": "BEECHER", "addr:country": "US", "addr:full": "712 PENFIELD ST", "addr:postcode": "60401", "addr:state": "IL", "brand": "USPS", "collection_times": "Mo-Fr 16:30; Sa 12:30", "name": "USPS COLLECTION BOX - BLUE BOX", "note": "ON 12/24 AND 12/31, THIS BOX MAY BE COLLECTED AS EARLY AS 12 NOON.", "ref": "6040100001"}, "type": "Feature"}
{"geometry": {"coordinates": [-87.628103832, 41.342448532], "type": "Point"}, "id": "8cHKrkxFU5pNfqtkzubbZqvVrf8=", "properties": {"@spider": "usps_collection_boxes", "addr:city": "BEECHER", "addr:country": "US", "addr:full": "712 PENFIELD ST", "addr:postcode": "60401", "addr:state": "IL", "brand": "USPS", "collection_times": "Mo-Fr 16:30; Sa 12:30", "name": "USPS COLLECTION BOX - PO LOBBY", "note": "ON 12/24 AND 12/31, THIS BOX MAY BE COLLECTED AS EARLY AS 12 NOON.", "ref": "6040100002"}, "type": "Feature"}
{"geometry": {"coordinates": [-87.6201469, 41.351137], "type": "Point"}, "id": "TnYe3wp6Hy0TlPgPH4M9yI0dX0s=", "properties": {"@spider": "usps_collection_boxes", "addr:city": "BEECHER", "addr:country": "US", "addr:full": "1111 DIXIE HWY", "addr:postcode": "60401", "addr:state": "IL", "brand": "USPS", "collection_times": "Mo-Sa 10:00", "name": "USPS COLLECTION BOX - BLUE BOX", "ref": "6040100003"}, "type": "Feature"}
{"geometry": {"coordinates": [-87.6210347, 41.354959], "type": "Point"}, "id": "g8rjaqcVQf1EJlAHrAm5K5UaH-Y=", "properties": {"@spider": "usps_collection_boxes", "addr:city": "BEECHER", "addr:country": "US", "addr:full": "1277 DIXIE HWY", "addr:postcode": "60401", "addr:state": "IL", "brand": "USPS", "collection_times": "Mo-Sa 10:00", "name": "USPS COLLECTION BOX - BLUE BOX", "ref": "6040100004"}, "type": "Feature"}
{"geometry": {"coordinates": [-87.628103832, 41.342448532], "type": "Point"}, "id": "M9zVrjOfVsKbTldiKwotxo2F5K8=", "properties": {"@spider": "usps_collection_boxes", "addr:city": "BEECHER", "addr:country": "US", "addr:full": "712 PENFIELD ST", "addr:postcode": "60401", "addr:state": "IL", "brand": "USPS", "collection_times": "Mo-Fr 16:30; Sa 12:30", "name": "USPS COLLECTION BOX - PO LOBBY", "note": "ON 12/24 AND 12/31, THIS BOX MAY BE COLLECTED AS EARLY AS 12 NOON.", "ref": "6040100010"}, "type": "Feature"}
{"geometry": {"coordinates": [-87.789737566, 41.850479233], "type": "Point"}, "id": "qlSGi3icIFDx105dmzQqd9WKqp4=", "properties": {"@spider": "usps_collection_boxes", "addr:city": "BERWYN", "addr:country": "US", "addr:full": "6625 CERMAK RD", "addr:postcode": "60402", "addr:state": "IL", "brand": "USPS", "collection_times": "Mo-Fr 17:00; Sa 16:00", "name": "USPS COLLECTION BOX - BLUE BOX", "note": "ON 12/24 AND 12/31, THIS BOX MAY BE COLLECTED AS EARLY AS 12 NOON.", "ref": "6040200002"}, "type": "Feature"}
{"geometry": {"coordinates": [-87.789737566, 41.850479233], "type": "Point"}, "id": "1ILH2tZmskN_ocBRtw8arZ9IH50=", "properties": {"@spider": "usps_collection_boxes", "addr:city": "BERWYN", "addr:country": "US", "addr:full": "6625 CERMAK RD", "addr:postcode": "60402", "addr:state": "IL", "brand": "USPS", "collection_times": "Mo-Fr 17:00; Sa 16:00", "name": "USPS COLLECTION BOX - BLUE BOX", "note": "ON 12/24 AND 12/31, THIS BOX MAY BE COLLECTED AS EARLY AS 12 NOON.", "ref": "6040200003"}, "type": "Feature"}
{"geometry": {"coordinates": [-87.789737566, 41.850479233], "type": "Point"}, "id": "dTAYJUzmpifeOvWtHnxPNoYSWGY=", "properties": {"@spider": "usps_collection_boxes", "addr:city": "BERWYN", "addr:country": "US", "addr:full": "6625 CERMAK RD", "addr:postcode": "60402", "addr:state": "IL", "brand": "USPS", "collection_times": "Mo-Fr 17:00; Sa 16:00", "name": "USPS COLLECTION BOX - BLUE BOX", "note": "ON 12/24 AND 12/31, THIS BOX MAY BE COLLECTED AS EARLY AS 12 NOON.", "ref": "6040200004"}, "type": "Feature"}
{"geometry": {"coordinates": [-87.789737566, 41.850479233], "type": "Point"}, "id": "5QAZYyjo6O86i-rlpONz3ibiLUI=", "properties": {"@spider": "usps_collection_boxes", "addr:city": "BERWYN", "addr:country": "US", "addr:full": "6625 CERMAK RD", "addr:postcode": "60402", "addr:state": "IL", "brand": "USPS", "collection_times": "Mo-Fr 17:00; Sa 16:00", "name": "USPS COLLECTION BOX - EXPRESS", "note": "ON 12/24 AND 12/31, THIS BOX MAY BE COLLECTED AS EARLY AS 12 NOON.", "ref": "6040200006"}, "type": "Feature"}
{"geometry": {"coordinates": [-87.7883366, 41.843467], "type": "Point"}, "id": "ew-5gWKSvTjcFuJuvUwa83SW678=", "properties": {"@spider": "usps_collection_boxes", "addr:city": "BERWYN", "addr:country": "US", "addr:full": "6601 26TH ST", "addr:postcode": "60402", "addr:state": "IL", "brand": "USPS", "collection_times": "Mo-Sa 15:00", "name": "USPS COLLECTION BOX - BLUE BOX", "note": "ON 12/24 AND 12/31, THIS BOX MAY BE COLLECTED AS EARLY AS 12 NOON.", "ref": "6040200007"}, "type": "Feature"}
{"geometry": {"coordinates": [-87.7910117, 41.843229], "type": "Point"}, "id": "eNWn_TzNUTubclggPRiwDfq7obA=", "properties": {"@spider": "usps_collection_boxes", "addr:city": "BERWYN", "addr:country": "US", "addr:full": "6700 26TH ST", "addr:postcode": "60402", "addr:state": "IL", "brand": "USPS", "collection_times": "Mo-Sa 15:00", "name": "USPS COLLECTION BOX - BLUE BOX", "note": "ON 12/24 AND 12/31, THIS BOX MAY BE COLLECTED AS EARLY AS 12 NOON.", "ref": "6040200008"}, "type": "Feature"}
{"geometry": {"coordinates": [-87.793136, 41.843101], "type": "Point"}, "id": "fy6gzL8G2Sch8a012V_oecT2U2c=", "properties": {"@spider": "usps_collection_boxes", "addr:city": "BERWYN", "addr:country": "US", "addr:full": "6800 26TH ST", "addr:postcode": "60402", "addr:state": "IL", "brand": "USPS", "collection_times": "Mo-Sa 12:00", "name": "USPS COLLECTION BOX - BLUE BOX", "ref": "6040200009"}, "type": "Feature"}
{"geometry": {"coordinates": [-87.8024823, 41.850536], "type": "Point"}, "id": "WivahsKQQDhT-r-7dAgscRCl-bM=", "properties": {"@spider": "usps_collection_boxes", "addr:city": "BERWYN", "addr:country": "US", "addr:full": "7120 CERMAK RD", "addr:postcode": "60402", "addr:state": "IL", "brand": "USPS", "collection_times": "Mo-Sa 15:15", "name": "USPS COLLECTION BOX - BLUE BOX", "note": "ON 12/24 AND 12/31, THIS BOX MAY BE COLLECTED AS EARLY AS 12 NOON.", "ref": "6040200013"}, "type": "Feature"}
{"geometry": {"coordinates": [-87.8038964, 41.861417], "type": "Point"}, "id": "I1DY-C25Z-3tteMTLYn2QE-Y1Fw=", "properties": {"@spider": "usps_collection_boxes", "addr:city": "BERWYN", "addr:country": "US", "addr:full": "1359 S HARLEM AVE", "addr:postcode": "60402", "addr:state": "IL", "brand": "USPS", "collection_times": "Mo-Sa 09:30", "name": "USPS COLLECTION BOX - BLUE BOX", "ref": "6040200014"}, "type": "Feature"}
{"geometry": {"coordinates": [-87.7910966, 41.853996], "type": "Point"}, "id": "KvgLOVX2ydNDKnd8vF9xS6AaDAg=", "properties": {"@spider": "usps_collection_boxes", "addr:city": "BERWYN", "addr:country": "US", "addr:full": "1900 WESLEY AVE", "addr:postcode": "60402", "addr:state": "IL", "brand": "USPS", "collection_times": "Mo-Sa 11:00", "name": "USPS COLLECTION BOX - BLUE BOX", "ref": "6040200018"}, "type": "Feature"}
{"geometry": {"coordinates": [-87.7897911, 41.85802], "type": "Point"}, "id": "YDKjMpwvO7C3iK758vIRKL5ukpA=", "properties": {"@spider": "usps_collection_boxes", "addr:city": "BERWYN", "addr:country": "US", "addr:full": "6615 16TH ST", "addr:postcode": "60402", "addr:state": "IL", "brand": "USPS", "collection_times": "Mo-Sa 15:00", "name": "USPS COLLECTION BOX - BLUE BOX", "note": "ON 12/24 AND 12/31, THIS BOX MAY BE COLLECTED AS EARLY AS 12 NOON.", "ref": "6040200020"}, "type": "Feature"}
{"geometry": {"coordinates": [-87.8025299, 41.85768], "type": "Point"}, "id": "uq7X8vXID4VTZJm2vxMeIyFTbqw=", "properties": {"@spider": "usps_collection_boxes", "addr:city": "BERWYN", "addr:country": "US", "addr:full": "7122 16TH ST", "addr:postcode": "60402", "addr:state": "IL", "brand": "USPS", "collection_times": "Mo-Sa 09:30", "name": "USPS COLLECTION BOX - BLUE BOX", "ref": "6040200022"}, "type": "Feature"}
{"geometry": {"coordinates": [-87.796879992, 41.850231011], "type": "Point"}, "id": "UK7ekvx0u9c2QjxNvz2QBi2PCM8=", "properties": {"@spider": "usps_collection_boxes", "addr:city": "BERWYN", "addr:country": "US", "addr:full": "6925 CERMAK RD", "addr:postcode": "60402", "addr:state": "IL", "brand": "USPS", "collection_times": "Mo-Fr 15:30; Sa 10:30", "name": "USPS COLLECTION BOX - BLUE BOX", "note": "ON 12/24 AND 12/31, THIS BOX MAY BE COLLECTED AS EARLY AS 12 NOON.", "ref": "6040200023"}, "type": "Feature"}
{"geometry": {"coordinates": [-87.7836757, 41.850896], "type": "Point"}, "id": "YAnghKIpBwiimW_LUvzA3uySukE=", "properties": {"@spider": "usps_collection_boxes", "addr:city": "BERWYN", "addr:country": "US", "addr:full": "6400 CERMAK RD", "addr:postcode": "60402", "addr:state": "IL", "brand": "USPS", "collection_times": "Mo-Sa 15:45", "name": "USPS COLLECTION BOX - BLUE BOX", "note": "ON 12/24 AND 12/31, THIS BOX MAY BE COLLECTED AS EARLY AS 12 NOON.", "ref": "6040200025"}, "type": "Feature"}
{"geometry": {"coordinates": [-87.7859366, 41.850847], "type": "Point"}, "id": "fKDzu494hSOgiDAbcyGy2hOIVpQ=", "properties": {"@spider": "usps_collection_boxes", "addr:city": "BERWYN", "addr:country": "US", "addr:full": "6448 CERMAK RD", "addr:postcode": "60402", "addr:state": "IL", "brand": "USPS", "collection_times": "Mo-Sa 15:45", "name": "USPS COLLECTION BOX - BLUE BOX", "note": "ON 12/24 AND 12/31, THIS BOX MAY BE COLLECTED AS EARLY AS 12 NOON.", "ref": "6040200027"}, "type": "Feature"}
{"geometry": {"coordinates": [-87.7930517, 41.835848], "type": "Point"}, "id": "-D3NcfVXfZr6Y5dC3tzaCNzhSN4=", "properties": {"@spider": "usps_collection_boxes", "addr:city": "BERWYN", "addr:country": "US", "addr:full": "3100 OAK PARK AVE", "addr:postcode": "60402", "addr:state": "IL", "brand": "USPS", "collection_times": "Mo-Sa 12:00", "name": "USPS COLLECTION BOX - BLUE BOX", "ref": "6040200029"}, "type": "Feature"}
{"geometry": {"coordinates": [-87.7937731, 41.833515], "type": "Point"}, "id": "XvfCcF3rx1-pwupfNt6hjw7LoZw=", "properties": {"@spider": "usps_collection_boxes", "addr:city": "BERWYN", "addr:country": "US", "addr:full": "6811 STANLEY AVE", "addr:postcode": "60402", "addr:state": "IL", "brand": "USPS", "collection_times": "Mo-Fr 12:00; Sa 10:00", "name": "USPS COLLECTION BOX - BLUE BOX", "ref": "6040200030"}, "type": "Feature"}
{"geometry": {"coordinates": [-87.7978235, 41.833978], "type": "Point"}, "id": "3gfaJpsIhgvO4eWkfP5jC-zXcew=", "properties": {"@spider": "usps_collection_boxes", "addr:city": "BERWYN", "addr:country": "US", "addr:full": "3202 HOME AVE", "addr:postcode": "60402", "addr:state": "IL", "brand": "USPS", "collection_times": "Mo-Sa 12:00", "name": "USPS COLLECTION BOX - BLUE BOX", "ref": "6040200033"}, "type": "Feature"}
{"geometry": {"coordinates": [-87.7878447, 41.834305], "type": "Point"}, "id": "g7QB4z9ZRayFvN5U_xWx2b6HtSc=", "properties": {"@spider": "usps_collection_boxes", "addr:city": "BERWYN", "addr:country": "US", "addr:full": "6550 WINDSOR AVE", "addr:postcode": "60402", "addr:state": "IL", "brand": "USPS", "collection_times": "Mo-Sa 15:00", "name": "USPS COLLECTION BOX - BLUE BOX", "note": "ON 12/24 AND 12/31, THIS BOX MAY BE COLLECTED AS EARLY AS 12 NOON.", "ref": "6040200036"}, "type": "Feature"}
{"geometry": {"coordinates": [-87.7928005, 41.830715], "type": "Point"}, "id": "nrCg8ILywEWZ4C3lAqT7ySoEWYg=", "properties": {"@spider": "usps_collection_boxes", "addr:city": "BERWYN", "addr:country": "US", "addr:full": "3340 OAK PARK AVE", "addr:postcode": "60402", "addr:state": "IL", "brand": "USPS", "collection_times": "Mo-Sa 11:00", "name": "USPS COLLECTION BOX - BLUE BOX", "ref": "6040200037"}, "type": "Feature"}
{"geometry": {"coordinates": [-87.7891531, 41.830605], "type": "Point"}, "id": "cdb9vVi1o2f4V_msUYQU-GOO--k=", "properties": {"@spider": "usps_collection_boxes", "addr:city": "BERWYN", "addr:country": "US", "addr:full": "6617 34TH ST", "addr:postcode": "60402", "addr:state": "IL", "brand": "USPS", "collection_times": "Mo-Sa 15:00", "name": "USPS COLLECTION BOX - BLUE BOX", "note": "ON 12/24 AND 12/31, THIS BOX MAY BE COLLECTED AS EARLY AS 12 NOON.", "ref": "6040200038"}, "type": "Feature"}
{"geometry": {"coordinates": [-87.801749, 41.831158], "type": "Point"}, "id": "xSd6haxzaok6I2vjtkhtqRRx7Ig=", "properties": {"@spider": "usps_collection_boxes", "addr:city": "BERWYN", "addr:country": "US", "addr:full": "7128 WINDSOR AVE", "addr:postcode": "60402", "addr:state": "IL", "brand": "USPS", "collection_times": "Mo-Sa 14:00", "name": "USPS COLLECTION BOX - BLUE BOX", "note": "ON 12/24 AND 12/31, THIS BOX MAY BE COLLECTED AS EARLY AS 12 NOON.", "ref": "6040200039"}, "type": "Feature"}
{"geometry": {"coordinates": [-87.7828125973, 41.8306333849], "type": "Point"}, "id": "sI-S1De370M_Q-7oRMcj6-pOHxo=", "properties": {"@spider": "usps_collection_boxes", "addr:city": "BERWYN", "addr:country": "US", "addr:full": "6338 OGDEN AVE", "addr:postcode": "60402", "addr:state": "IL", "brand": "USPS", "collection_times": "Mo-Sa 15:00", "name": "USPS COLLECTION BOX - BLUE BOX", "note": "ON 12/24 AND 12/31, THIS BOX MAY BE COLLECTED AS EARLY AS 12 NOON.", "ref": "6040200040"}, "type": "Feature"}
{"geometry": {"coordinates": [-87.7871061139, 41.8292028943], "type": "Point"}, "id": "Prn8IyR8PWLY-Zb_vVhdnqY2lJ0=", "properties": {"@spider": "usps_collection_boxes", "addr:city": "BERWYN", "addr:country": "US", "addr:full": "6539 OGDEN AVE", "addr:postcode": "60402", "addr:state": "IL", "brand": "USPS", "collection_times": "Mo-Sa 14:30", "name": "USPS COLLECTION BOX - BLUE BOX", "note": "ON 12/24 AND 12/31, THIS BOX MAY BE COLLECTED AS EARLY AS 12 NOON.", "ref": "6040200041"}, "type": "Feature"}
{"geometry": {"coordinates": [-87.7962827, 41.82613], "type": "Point"}, "id": "ckfubPghEMA14of_x2Xev4kAolM=", "properties": {"@spider": "usps_collection_boxes", "addr:city": "BERWYN", "addr:country": "US", "addr:full": "6923 OGDEN AVE", "addr:postcode": "60402", "addr:state": "IL", "brand": "USPS", "collection_times": "Mo-Sa 12:30", "name": "USPS COLLECTION BOX - BLUE BOX", "note": "ON 12/24 AND 12/31, THIS BOX MAY BE COLLECTED AS EARLY AS 12 NOON.", "ref": "6040200043"}, "type": "Feature"}
{"geometry": {"coordinates": [-87.7911267, 41.821261], "type": "Point"}, "id": "GDW_UnAvap3ohJWnheDzco_CsH4=", "properties": {"@spider": "usps_collection_boxes", "addr:city": "BERWYN", "addr:country": "US", "addr:full": "6719 39TH ST", "addr:postcode": "60402", "addr:state": "IL", "brand": "USPS", "collection_times": "Mo-Sa 13:00", "name": "USPS COLLECTION BOX - BLUE BOX", "note": "ON 12/24 AND 12/31, THIS BOX MAY BE COLLECTED AS EARLY AS 12 NOON.", "ref": "6040200046"}, "type": "Feature"}
{"geometry": {"coordinates": [-87.7865038, 41.821306], "type": "Point"}, "id": "_oRn_Yz1_q0ULa65-QpzZY-d0Z8=", "properties": {"@spider": "usps_collection_boxes", "addr:city": "BERWYN", "addr:country": "US", "addr:full": "6533 39TH ST", "addr:postcode": "60402", "addr:state": "IL", "brand": "USPS", "collection_times": "Mo-Sa 11:30", "name": "USPS COLLECTION BOX - BLUE BOX", "ref": "6040200048"}, "type": "Feature"}
{"geometry": {"coordinates": [-87.7923965, 41.814203], "type": "Point"}, "id": "fTQ5AKGuL_W5MU8rt5ubxaJtjaY=", "properties": {"@spider": "usps_collection_boxes", "addr:city": "BERWYN", "addr:country": "US", "addr:full": "6800 43RD ST", "addr:postcode": "60402", "addr:state": "IL", "brand": "USPS", "collection_times": "Mo-Sa 15:00", "name": "USPS COLLECTION BOX - BLUE BOX", "note": "ON 12/24 AND 12/31, THIS BOX MAY BE COLLECTED AS EARLY AS 12 NOON.", "ref": "6040200051"}, "type": "Feature"}
{"geometry": {"coordinates": [-87.7971395, 41.808652], "type": "Point"}, "id": "tDOZKgDBQPqINOqRIWWyOy3OmfU=", "properties": {"@spider": "usps_collection_boxes", "addr:city": "BERWYN", "addr:country": "US", "addr:full": "7000 46TH ST", "addr:postcode": "60402", "addr:state": "IL", "brand": "USPS", "collection_times": "Mo-Sa 15:00", "name": "USPS COLLECTION BOX - BLUE BOX", "note": "ON 12/24 AND 12/31, THIS BOX MAY BE COLLECTED AS EARLY AS 12 NOON.", "ref": "6040200052"}, "type": "Feature"}
{"geometry": {"coordinates": [-87.8019528, 41.808645], "type": "Point"}, "id": "UK6uNFdoul0nE0IfKUtLkpOL_UA=", "properties": {"@spider": "usps_collection_boxes", "addr:city": "BERWYN", "addr:country": "US", "addr:full": "4559 S HARLEM AVE", "addr:postcode": "60402", "addr:state": "IL", "brand": "USPS", "collection_times": "Mo-Sa 10:30", "name": "USPS COLLECTION BOX - BLUE BOX", "ref": "6040200053"}, "type": "Feature"}
{"geometry": {"coordinates": [-87.8023631, 41.819311], "type": "Point"}, "id": "xWsaW_TAvCFdIEmW_Z7nvcIz1ew=", "properties": {"@spider": "usps_collection_boxes", "addr:city": "BERWYN", "addr:country": "US", "addr:full": "4001 HARLEM AVE", "addr:postcode": "60402", "addr:state": "IL", "brand": "USPS", "collection_times": "Mo-Sa 12:00", "name": "USPS COLLECTION BOX - BLUE BOX", "ref": "6040200054"}, "type": "Feature"}
{"geometry": {"coordinates": [-87.7831011, 41.837998], "type": "Point"}, "id": "b4lZnfKP9JB75Yep4mrTDK1dXyE=", "properties": {"@spider": "usps_collection_boxes", "addr:city": "BERWYN", "addr:country": "US", "addr:full": "2847 RIDGELAND AVE", "addr:postcode": "60402", "addr:state": "IL", "brand": "USPS", "collection_times": "Mo-Sa 15:00", "name": "USPS COLLECTION BOX - BLUE BOX", "note": "ON 12/24 AND 12/31, THIS BOX MAY BE COLLECTED AS EARLY AS 12 NOON.", "ref": "6040200056"}, "type": "Feature"}
{"geometry": {"coordinates": [-87.7833069, 41.843262], "type": "Point"}, "id": "kr-AQEWVuBKUHf60jIGTNGpIWXg=", "properties": {"@spider": "usps_collection_boxes", "addr:city": "BERWYN", "addr:country": "US", "addr:full": "2605 RIDGELAND AVE", "addr:postcode": "60402", "addr:state": "IL", "brand": "USPS", "collection_times": "Mo-Sa 15:00", "name": "USPS COLLECTION BOX - BLUE BOX", "note": "ON 12/24 AND 12/31, THIS BOX MAY BE COLLECTED AS EARLY AS 12 NOON.", "ref": "6040200057"}, "type": "Feature"}
{"geometry": {"coordinates": [-87.7797526, 41.843372], "type": "Point"}, "id": "N0Is3dm52J7rQqhCVY2Wmj2Otqs=", "properties": {"@spider": "usps_collection_boxes", "addr:city": "BERWYN", "addr:country": "US", "addr:full": "6238 26TH ST", "addr:postcode": "60402", "addr:state": "IL", "brand": "USPS", "collection_times": "Mo-Sa 14:00", "name": "USPS COLLECTION BOX - BLUE BOX", "note": "ON 12/24 AND 12/31, THIS BOX MAY BE COLLECTED AS EARLY AS 12 NOON.", "ref": "6040200058"}, "type": "Feature"}
{"geometry": {"coordinates": [-87.7928049, 41.831455], "type": "Point"}, "id": "GoYXBCuXsJFp-Gzi0Lb0TVCyVPw=", "properties": {"@spider": "usps_collection_boxes", "addr:city": "BERWYN", "addr:country": "US", "addr:full": "3322 OAK PARK AVE", "addr:postcode": "60402", "addr:state": "IL", "brand": "USPS", "collection_times": "Mo-Sa 11:00", "name": "USPS COLLECTION BOX - BLUE BOX", "ref": "6040200059"}, "type": "Feature"}
{"geometry": {"coordinates": [-87.789737566, 41.850479233], "type": "Point"}, "id": "J2EG5578EIJ4cvu5SFsS-bD6bac=", "properties": {"@spider": "usps_collection_boxes", "addr:city": "BERWYN", "addr:country": "US", "addr:full": "6625 CERMAK RD", "addr:postcode": "60402", "addr:state": "IL", "brand": "USPS", "collection_times": "Mo-Fr 17:00; Sa 16:00", "name": "USPS COLLECTION BOX - BLUE BOX", "note": "ON 12/24 AND 12/31, THIS BOX MAY BE COLLECTED AS EARLY AS 12 NOON.", "ref": "6040200061"}, "type": "Feature"}
{"geometry": {"coordinates": [-87.7828688, 41.823382], "type": "Point"}, "id": "Z0NhkYbwIo-iC4GiGMCTgHKYQ48=", "properties": {"@spider": "usps_collection_boxes", "addr:city": "BERWYN", "addr:country": "US", "addr:full": "3744 RIDGELAND AVE", "addr:postcode": "60402", "addr:state": "IL", "brand": "USPS", "collection_times": "Mo-Sa 13:30", "name": "USPS COLLECTION BOX - BLUE BOX", "note": "ON 12/24 AND 12/31, THIS BOX MAY BE COLLECTED AS EARLY AS 12 NOON.", "ref": "6040200062"}, "type": "Feature"}
{"geometry": {"coordinates": [-87.7787329, 41.850646], "type": "Point"}, "id": "DITcJ2h7YCDRjqSHz0UTwan66Xc=", "properties": {"@spider": "usps_collection_boxes", "addr:city": "BERWYN", "addr:country": "US", "addr:full": "6201 CERMAK RD", "addr:postcode": "60402", "addr:state": "IL", "brand": "USPS", "collection_times": "Mo-Sa 15:45", "name": "USPS COLLECTION BOX - BLUE BOX", "note": "ON 12/24 AND 12/31, THIS BOX MAY BE COLLECTED AS EARLY AS 12 NOON.", "ref": "6040200063"}, "type": "Feature"}
{"geometry": {"coordinates": [-87.8032233, 41.842047], "type": "Point"}, "id": "bRzwaCM8BkRzPxUFm3SUdQAjGSE=", "properties": {"@spider": "usps_collection_boxes", "addr:city": "BERWYN", "addr:country": "US", "addr:full": "2701 HARLEM AVE", "addr:postcode": "60402", "addr:state": "IL", "brand": "USPS", "collection_times": "Mo-Sa 12:00", "name": "USPS COLLECTION BOX - BLUE BOX", "ref": "6040200065"}, "type": "Feature"}
{"geometry": {"coordinates": [-87.7825331, 41.861754], "type": "Point"}, "id": "KpdW9jD1gsTcZYXVwVJHrF7jgf4=", "properties": {"@spider": "usps_collection_boxes", "addr:city": "BERWYN", "addr:country": "US", "addr:full": "1347 CUYLER AVE", "addr:postcode": "60402", "addr:state": "IL", "brand": "USPS", "collection_times": "Mo-Sa 10:30", "name": "USPS COLLECTION BOX - BLUE BOX", "ref": "6040200066"}, "type": "Feature"}
{"geometry": {"coordinates": [-87.789737566, 41.850479233], "type": "Point"}, "id": "KQ0nxf12EzHvEPh-6b6sHkhsLFk=", "properties": {"@spider": "usps_collection_boxes", "addr:city": "BERWYN", "addr:country": "US", "addr:full": "6625 CERMAK RD", "addr:postcode": "60402", "addr:state": "IL", "brand": "USPS", "collection_times": "Mo-Fr 17:00; Sa 16:00", "name": "USPS COLLECTION BOX - PO LOBBY", "note": "ON 12/24 AND 12/31, THIS BOX MAY BE COLLECTED AS EARLY AS 12 NOON.", "ref": "6040200067"}, "type": "Feature"}
{"geometry": {"coordinates": [-87.7836688, 41.857901], "type": "Point"}, "id": "N1bYm775TiV9E7ug-6OdAH7FikU=", "properties": {"@spider": "usps_collection_boxes", "addr:city": "BERWYN", "addr:country": "US", "addr:full": "1601 RIDGELAND AVE", "addr:postcode": "60402", "addr:state": "IL", "brand": "USPS", "collection_times": "Mo-Sa 12:00", "name": "USPS COLLECTION BOX - BLUE BOX", "ref": "6040200068"}, "type": "Feature"}
{"geometry": {"coordinates": [-87.789737566, 41.850479233], "type": "Point"}, "id": "b_1W-MmKa3aulv95tLrWtja35-8=", "properties": {"@spider": "usps_collection_boxes", "addr:city": "BERWYN", "addr:country": "US", "addr:full": "6625 CERMAK RD", "addr:postcode": "60402", "addr:state": "IL", "brand": "USPS", "collection_times": "Mo-Fr 17:00; Sa 16:00", "name": "USPS COLLECTION BOX - PO LOBBY", "note": "ON 12/24 AND 12/31, THIS BOX MAY BE COLLECTED AS EARLY AS 12 NOON.", "ref": "6040200101"}, "type": "Feature"}
{"geometry": {"coordinates": [-88.1978516, 41.515894], "type": "Point"}, "id": "5pLwmLpGgvGcS-9Wa3ot7Z8yj1w=", "properties": {"@spider": "usps_collection_boxes", "addr:city": "JOLIET", "addr:country": "US", "addr:full": "708 COTTAGE ST", "addr:postcode": "60404", "addr:state": "IL", "brand": "USPS", "collection_times": "Mo-Sa 12:00", "name": "USPS COLLECTION BOX - BLUE BOX", "ref": "6040400001"}, "type": "Feature"}
{"geometry": {"coordinates": [-88.2047399, 41.522625], "type": "Point"}, "id": "fg4Wjbyd62hzg1LTbFn4KSIuEuY=", "properties": {"@spider": "usps_collection_boxes", "addr:city": "JOLIET", "addr:country": "US", "addr:full": "700 W JEFFERSON ST", "addr:postcode": "60404", "addr:state": "IL", "brand": "USPS", "collection_times": "Mo-Sa 12:00", "name": "USPS COLLECTION BOX - BLUE BOX", "ref": "6040400002"}, "type": "Feature"}
{"geometry": {"coordinates": [-88.1974741, 41.53671], "type": "Point"}, "id": "B9zIQScQEppc5YhIAxYWViqBa8U=", "properties": {"@spider": "usps_collection_boxes", "addr:city": "JOLIET", "addr:country": "US", "addr:full": "950 BROOK FOREST AVE", "addr:postcode": "60404", "addr:state": "IL", "brand": "USPS", "collection_times": "Mo-Sa 12:00", "name": "USPS COLLECTION BOX - BLUE BOX", "ref": "6040400003"}, "type": "Feature"}
{"geometry": {"coordinates": [-87.6827694, 41.657886], "type": "Point"}, "id": "wqAw2IJBQrqv3Z4yQNAL54E3P7Q=", "properties": {"@spider": "usps_collection_boxes", "addr:city": "BLUE ISLAND", "addr:country": "US", "addr:full": "12940 GREENWOOD AVE", "addr:postcode": "60406", "addr:state": "IL", "brand": "USPS", "collection_times": "Mo-Sa 12:00", "name": "USPS COLLECTION BOX - BLUE BOX", "ref": "6040600003"}, "type": "Feature"}
{"geometry": {"coordinates": [-87.6826347, 41.660898], "type": "Point"}, "id": "dh4wgqSETupQ6v_S6FkecB6OBsc=", "properties": {"@spider": "usps_collection_boxes", "addr:city": "BLUE ISLAND", "addr:country": "US", "addr:full": "12757 GREENWOOD AVE", "addr:postcode": "60406", "addr:state": "IL", "brand": "USPS", "collection_times": "Mo-Sa 12:00", "name": "USPS COLLECTION BOX - BLUE BOX", "ref": "6040600004"}, "type": "Feature"}
{"geometry": {"coordinates": [-87.6912999, 41.660221], "type": "Point"}, "id": "KtvJKTKgmZyAM8WwEQus83llVa4=", "properties": {"@spider": "usps_collection_boxes", "addr:city": "BLUE ISLAND", "addr:country": "US", "addr:full": "12816 WAHL ST", "addr:postcode": "60406", "addr:state": "IL", "brand": "USPS", "collection_times": "Mo-Sa 12:00", "name": "USPS COLLECTION BOX - BLUE BOX", "ref": "6040600006"}, "type": "Feature"}
{"geometry": {"coordinates": [-87.6874676, 41.662705], "type": "Point"}, "id": "DDwxjga-FZoZy-Su69lEWxBsMCs=", "properties": {"@spider": "usps_collection_boxes", "addr:city": "BLUE ISLAND", "addr:country": "US", "addr:full": "2658 127TH ST", "addr:postcode": "60406", "addr:state": "IL", "brand": "USPS", "collection_times": "Mo-Sa 12:00", "name": "USPS COLLECTION BOX - BLUE BOX", "ref": "6040600008"}, "type": "Feature"}
{"geometry": {"coordinates": [-87.680494, 41.665522], "type": "Point"}, "id": "KpT7OM2eHqvKYYnMfXjeS8muKew=", "properties": {"@spider": "usps_collection_boxes", "addr:city": "BLUE ISLAND", "addr:country": "US", "addr:full": "12522 WESTERN AVE", "addr:postcode": "60406", "addr:state": "IL", "brand": "USPS", "collection_times": "Mo-Sa 12:30", "name": "USPS COLLECTION BOX - BLUE BOX", "note": "ON 12/24 AND 12/31, THIS BOX MAY BE COLLECTED AS EARLY AS 12 NOON.", "ref": "6040600010"}, "type": "Feature"}
{"geometry": {"coordinates": [-87.6806147, 41.670106], "type": "Point"}, "id": "4-Q_-oSV7dykS4dKN0dK43YtgEM=", "properties": {"@spider": "usps_collection_boxes", "addr:city": "BLUE ISLAND", "addr:country": "US", "addr:full": "12258 W WESTERN AVE", "addr:postcode": "60406", "addr:state": "IL", "brand": "USPS", "collection_times": "Mo-Sa 12:30", "name": "USPS COLLECTION BOX - BLUE BOX", "note": "ON 12/24 AND 12/31, THIS BOX MAY BE COLLECTED AS EARLY AS 12 NOON.", "ref": "6040600011"}, "type": "Feature"}
{"geometry": {"coordinates": [-87.6828495, 41.669879], "type": "Point"}, "id": "Xqjf3Dk2RG_1Fg0P3WNu1hRqm1M=", "properties": {"@spider": "usps_collection_boxes", "addr:city": "BLUE ISLAND", "addr:country": "US", "addr:full": "2459 123RD ST", "addr:postcode": "60406", "addr:state": "IL", "brand": "USPS", "collection_times": "Mo-Sa 11:30", "name": "USPS COLLECTION BOX - BLUE BOX", "ref": "6040600012"}, "type": "Feature"}
{"geometry": {"coordinates": [-87.6851055, 41.666229], "type": "Point"}, "id": "ypuKA4imE93EsGqyG52wN4b7WrQ=", "properties": {"@spider": "usps_collection_boxes", "addr:city": "BLUE ISLAND", "addr:country": "US", "addr:full": "12501 MAPLE AVE", "addr:postcode": "60406", "addr:state": "IL", "brand": "USPS", "collection_times": "Mo-Sa 10:30", "name": "USPS COLLECTION BOX - BLUE BOX", "ref": "6040600013"}, "type": "Feature"}
{"geometry": {"coordinates": [-87.6799591, 41.655507], "type": "Point"}, "id": "orPsd0PxFnrOebvEz4T12Tb9Ol4=", "properties": {"@spider": "usps_collection_boxes", "addr:city": "BLUE ISLAND", "addr:country": "US", "addr:full": "13057 WESTERN AVE", "addr:postcode": "60406", "addr:state": "IL", "brand": "USPS", "collection_times": "Mo-Sa 11:30", "name": "USPS COLLECTION BOX - BLUE BOX", "ref": "6040600028"}, "type": "Feature"}
{"geometry": {"coordinates": [-87.678292611, 41.659767354], "type": "Point"}, "id": "K9UZA68YqU5MBsHO9HxpOvWCpKQ=", "properties": {"@spider": "usps_collection_boxes", "addr:city": "BLUE ISLAND", "addr:country": "US", "addr:full": "12835 GREGORY ST", "addr:postcode": "60406", "addr:state": "IL", "brand": "USPS", "collection_times": "Mo-Sa 09:30", "name": "USPS COLLECTION BOX - BLUE BOX", "ref": "6040600030"}, "type": "Feature"}
{"geometry": {"coordinates": [-87.6682271, 41.661062], "type": "Point"}, "id": "0T8PgdymYJ7usIDn42FT9OsUo6c=", "properties": {"@spider": "usps_collection_boxes", "addr:city": "BLUE ISLAND", "addr:country": "US", "addr:full": "12754 LINCOLN ST", "addr:postcode": "60406", "addr:state": "IL", "brand": "USPS", "collection_times": "Mo-Sa 12:30", "name": "USPS COLLECTION BOX - BLUE BOX", "note": "ON 12/24 AND 12/31, THIS BOX MAY BE COLLECTED AS EARLY AS 12 NOON.", "ref": "6040600033"}, "type": "Feature"}
{"geometry": {"coordinates": [-87.6741364, 41.650715], "type": "Point"}, "id": "zuML8ixuhGUTuxPQW7e5sjW-pDE=", "properties": {"@spider": "usps_collection_boxes", "addr:city": "BLUE ISLAND", "addr:country": "US", "addr:full": "2140 BROADWAY ST", "addr:postcode": "60406", "addr:state": "IL", "brand": "USPS", "collection_times": "Mo-Sa 12:30", "name": "USPS COLLECTION BOX - BLUE BOX", "note": "ON 12/24 AND 12/31, THIS BOX MAY BE COLLECTED AS EARLY AS 12 NOON.", "ref": "6040600040"}, "type": "Feature"}
{"geometry": {"coordinates": [-87.682211749, 41.655368515], "type": "Point"}, "id": "ShExUoO0pDTxy0wqfc9O2-AB7wo=", "properties": {"@spider": "usps_collection_boxes", "addr:city": "BLUE ISLAND", "addr:country": "US", "addr:full": "2441 VERMONT ST", "addr:postcode": "60406", "addr:state": "IL", "brand": "USPS", "collection_times": "Mo-Fr 17:00; Sa 13:00", "name": "USPS COLLECTION BOX - EXPRESS", "note": "ON 12/24 AND 12/31, THIS BOX MAY BE COLLECTED AS EARLY AS 12 NOON.", "ref": "6040600052"}, "type": "Feature"}
{"geometry": {"coordinates": [-87.6700447, 41.642716], "type": "Point"}, "id": "9OnvkUZL6j2zPrrb0j3bCZ00O1E=", "properties": {"@spider": "usps_collection_boxes", "addr:city": "BLUE ISLAND", "addr:country": "US", "addr:full": "13800 DIVISION ST", "addr:postcode": "60406", "addr:state": "IL", "brand": "USPS", "collection_times": "Mo-Sa 09:00", "name": "USPS COLLECTION BOX - BLUE BOX", "ref": "6040600058"}, "type": "Feature"}
{"geometry": {"coordinates": [-87.682211749, 41.655368515], "type": "Point"}, "id": "rxBFo9swWKvZD0nEU9vDvHzkWwI=", "properties": {"@spider": "usps_collection_boxes", "addr:city": "BLUE ISLAND", "addr:country": "US", "addr:full": "2441 VERMONT ST", "addr:postcode": "60406", "addr:state": "IL", "brand": "USPS", "collection_times": "Mo-Fr 17:00; Sa 13:00", "name": "USPS COLLECTION BOX - PO LOBBY", "note": "ON 12/24 AND 12/31, THIS BOX MAY BE COLLECTED AS EARLY AS 12 NOON.", "ref": "6040600060"}, "type": "Feature"}
{"geometry": {"coordinates": [-87.682211749, 41.655368515], "type": "Point"}, "id": "p8PattiUxULYpzXeuqIPeG_jiSY=", "properties": {"@spider": "usps_collection_boxes", "addr:city": "BLUE ISLAND", "addr:country": "US", "addr:full": "2441 VERMONT ST", "addr:postcode": "60406", "addr:state": "IL", "brand": "USPS", "collection_times": "Mo-Fr 17:00; Sa 13:00", "name": "USPS COLLECTION BOX - BLUE BOX", "note": "ON 12/24 AND 12/31, THIS BOX MAY BE COLLECTED AS EARLY AS 12 NOON.", "ref": "6040600062"}, "type": "Feature"}
{"geometry": {"coordinates": [-87.681313, 41.655053], "type": "Point"}, "id": "cKy4aKUL9fQ7rY3tZcK-emF4Puo=", "properties": {"@spider": "usps_collection_boxes", "addr:city": "BLUE ISLAND", "addr:country": "US", "addr:full": "13109 ARTESIAN AVE", "addr:postcode": "60406", "addr:state": "IL", "brand": "USPS", "collection_times": "Mo-Fr 17:00; Sa 13:00", "name": "USPS COLLECTION BOX - BLUE BOX", "note": "ON 12/24 AND 12/31, THIS BOX MAY BE COLLECTED AS EARLY AS 12 NOON.", "ref": "6040600063"}, "type": "Feature"}
{"geometry": {"coordinates": [-87.6752149, 41.676305], "type": "Point"}, "id": "yH5502dC0mHrLwNCTLXCnBOVsuI=", "properties": {"@spider": "usps_collection_boxes", "addr:city": "BLUE ISLAND", "addr:country": "US", "addr:full": "11934 LONGWOOD DR", "addr:postcode": "60406", "addr:state": "IL", "brand": "USPS", "collection_times": "Mo-Sa 12:15", "name": "USPS COLLECTION BOX - BLUE BOX", "note": "ON 12/24 AND 12/31, THIS BOX MAY BE COLLECTED AS EARLY AS 12 NOON.", "ref": "6040600064"}, "type": "Feature"}
{"geometry": {"coordinates": [-87.6804533, 41.674415], "type": "Point"}, "id": "aEjr1A1WJjH8gqYeQxq1ktYvAzo=", "properties": {"@spider": "usps_collection_boxes", "addr:city": "BLUE ISLAND", "addr:country": "US", "addr:full": "12035 WESTERN AVE", "addr:postcode": "60406", "addr:state": "IL", "brand": "USPS", "collection_times": "Mo-Sa 09:30", "name": "USPS COLLECTION BOX - BLUE BOX", "ref": "6040600065"}, "type": "Feature"}
{"geometry": {"coordinates": [-87.6702024, 41.655529], "type": "Point"}, "id": "xLuqe-SN4RFVzA0vHinfoWYDCEE=", "properties": {"@spider": "usps_collection_boxes", "addr:city": "BLUE ISLAND", "addr:country": "US", "addr:full": "1965 VERMONT ST", "addr:postcode": "60406", "addr:state": "IL", "brand": "USPS", "collection_times": "Mo-Sa 09:00", "name": "USPS COLLECTION BOX - BLUE BOX", "ref": "6040600066"}, "type": "Feature"}
{"geometry": {"coordinates": [-87.682211749, 41.655368515], "type": "Point"}, "id": "Qt97NPqkTHo_u-AioRb5y7wvWCA=", "properties": {"@spider": "usps_collection_boxes", "addr:city": "BLUE ISLAND", "addr:country": "US", "addr:full": "2441 VERMONT ST", "addr:postcode": "60406", "addr:state": "IL", "brand": "USPS", "collection_times": "Mo-Fr 17:15; Sa 13:00", "name": "USPS COLLECTION BOX - PO LOBBY", "note": "ON 12/24 AND 12/31, THIS BOX MAY BE COLLECTED AS EARLY AS 12 NOON.", "ref": "6040600072"}, "type": "Feature"}
{"geometry": {"coordinates": [-88.264246286, 41.224952359], "type": "Point"}, "id": "__qJttgOm60ooRT-S2R-T7fa_4Y=", "properties": {"@spider": "usps_collection_boxes", "addr:city": "BRACEVILLE", "addr:country": "US", "addr:full": "106 N MITCHELL ST", "addr:postcode": "60407", "addr:state": "IL", "brand": "USPS", "collection_times": "Mo-Fr 16:00; Sa 13:00", "name": "USPS COLLECTION BOX - BLUE BOX", "note": "ON 12/24 AND 12/31, THIS BOX MAY BE COLLECTED AS EARLY AS 12 NOON.", "ref": "6040700001"}, "type": "Feature"}
{"geometry": {"coordinates": [-88.264246286, 41.224952359], "type": "Point"}, "id": "ZekD1cScUxm9PetSSWxShoO1yWM=", "properties": {"@spider": "usps_collection_boxes", "addr:city": "BRACEVILLE", "addr:country": "US", "addr:full": "106 N MITCHELL ST", "addr:postcode": "60407", "addr:state": "IL", "brand": "USPS", "collection_times": "Mo-Fr 16:00; Sa 13:00", "name": "USPS COLLECTION BOX - PO LOBBY", "note": "ON 12/24 AND 12/31, THIS BOX MAY BE COLLECTED AS EARLY AS 12 NOON.", "ref": "6040700003"}, "type": "Feature"}
{"geometry": {"coordinates": [-88.264246286, 41.224952359], "type": "Point"}, "id": "MqaopMIo6CVkfbcz8sVoFhwsAZ0=", "properties": {"@spider": "usps_collection_boxes", "addr:city": "BRACEVILLE", "addr:country": "US", "addr:full": "106 N MITCHELL ST", "addr:postcode": "60407", "addr:state": "IL", "brand": "USPS", "collection_times": "Mo-Fr 16:00; Sa 10:30", "name": "USPS COLLECTION BOX - PO LOBBY", "note": "ON 12/24 AND 12/31, THIS BOX MAY BE COLLECTED AS EARLY AS 12 NOON.", "ref": "6040700004"}, "type": "Feature"}
{"geometry": {"coordinates": [-88.221541028, 41.264477453], "type": "Point"}, "id": "0yOvJAKQHafCwXzezOWtrH8Sjdw=", "properties": {"@spider": "usps_collection_boxes", "addr:city": "BRAIDWOOD", "addr:country": "US", "addr:full": "280 W MAIN ST", "addr:postcode": "60408", "addr:state": "IL", "brand": "USPS", "collection_times": "Mo-Fr 16:00; Sa 12:00", "name": "USPS COLLECTION BOX - BLUE BOX", "note": "ON 12/24 AND 12/31, THIS BOX MAY BE COLLECTED AS EARLY AS 12 NOON.", "ref": "6040800001"}, "type": "Feature"}
{"geometry": {"coordinates": [-88.221541028, 41.264477453], "type": "Point"}, "id": "w808ZcENON5iSPqN9ulT0RPSVOQ=", "properties": {"@spider": "usps_collection_boxes", "addr:city": "BRAIDWOOD", "addr:country": "US", "addr:full": "280 W MAIN ST", "addr:postcode": "60408", "addr:state": "IL", "brand": "USPS", "collection_times": "Mo-Fr 16:00; Sa 12:00", "name": "USPS COLLECTION BOX - BLUE BOX", "note": "ON 12/24 AND 12/31, THIS BOX MAY BE COLLECTED AS EARLY AS 12 NOON.", "ref": "6040800002"}, "type": "Feature"}
{"geometry": {"coordinates": [-88.221541028, 41.264477453], "type": "Point"}, "id": "GHqBpvqtcvu5aCq3q_elCRx8m9s=", "properties": {"@spider": "usps_collection_boxes", "addr:city": "BRAIDWOOD", "addr:country": "US", "addr:full": "280 W MAIN ST", "addr:postcode": "60408", "addr:state": "IL", "brand": "USPS", "collection_times": "Mo-Fr 16:00; Sa 12:00", "name": "USPS COLLECTION BOX - PO LOBBY", "note": "ON 12/24 AND 12/31, THIS BOX MAY BE COLLECTED AS EARLY AS 12 NOON.", "ref": "6040800003"}, "type": "Feature"}
{"geometry": {"coordinates": [-88.221541028, 41.264477453], "type": "Point"}, "id": "YXpu1UqYYv_BpWFQua_bGWR-gtM=", "properties": {"@spider": "usps_collection_boxes", "addr:city": "BRAIDWOOD", "addr:country": "US", "addr:full": "280 W MAIN ST", "addr:postcode": "60408", "addr:state": "IL", "brand": "USPS", "collection_times": "Mo-Fr 16:00; Sa 12:00", "name": "USPS COLLECTION BOX - PO LOBBY", "note": "ON 12/24 AND 12/31, THIS BOX MAY BE COLLECTED AS EARLY AS 12 NOON.", "ref": "6040800005"}, "type": "Feature"}
{"geometry": {"coordinates": [-87.5564895, 41.6172], "type": "Point"}, "id": "QMq9Asm9km0vNFsZyTa8vMaD4bg=", "properties": {"@spider": "usps_collection_boxes", "addr:city": "CALUMET CITY", "addr:country": "US", "addr:full": "635 MARQUETTE AVE", "addr:postcode": "60409", "addr:state": "IL", "brand": "USPS", "collection_times": "Mo-Sa 09:15", "name": "USPS COLLECTION BOX - BLUE BOX", "ref": "6040900003"}, "type": "Feature"}
{"geometry": {"coordinates": [-87.5736867, 41.624643], "type": "Point"}, "id": "d2MYTCgUtfkhgs_vFUwc-ZLRWV4=", "properties": {"@spider": "usps_collection_boxes", "addr:city": "CALUMET CITY", "addr:country": "US", "addr:full": "416 JEFFERY AVE", "addr:postcode": "60409", "addr:state": "IL", "brand": "USPS", "collection_times": "Mo-Fr 13:15; Sa 11:15", "name": "USPS COLLECTION BOX - BLUE BOX", "note": "ON 12/24 AND 12/31, THIS BOX MAY BE COLLECTED AS EARLY AS 12 NOON.", "ref": "6040900006"}, "type": "Feature"}
{"geometry": {"coordinates": [-87.5739774, 41.633038], "type": "Point"}, "id": "zKHEvDo9fDNcUHxXvluNXKX_lfY=", "properties": {"@spider": "usps_collection_boxes", "addr:city": "CALUMET CITY", "addr:country": "US", "addr:full": "2025 DOLTON RD", "addr:postcode": "60409", "addr:state": "IL", "brand": "USPS", "collection_times": "Mo-Sa 11:15", "name": "USPS COLLECTION BOX - BLUE BOX", "ref": "6040900008"}, "type": "Feature"}
{"geometry": {"coordinates": [-87.5299649, 41.606051], "type": "Point"}, "id": "eN_xPih9SArlPq3gL8huS8NIfV0=", "properties": {"@spider": "usps_collection_boxes", "addr:city": "CALUMET CITY", "addr:country": "US", "addr:full": "970 WENTWORTH AVE", "addr:postcode": "60409", "addr:state": "IL", "brand": "USPS", "collection_times": "Mo-Fr 13:45; Sa 11:45", "name": "USPS COLLECTION BOX - BLUE BOX", "note": "ON 12/24 AND 12/31, THIS BOX MAY BE COLLECTED AS EARLY AS 12 NOON.", "ref": "6040900022"}, "type": "Feature"}
{"geometry": {"coordinates": [-87.525716568, 41.5958058873], "type": "Point"}, "id": "BjICguVmooAon1Fbm1FK6JDgqY0=", "properties": {"@spider": "usps_collection_boxes", "addr:city": "CALUMET CITY", "addr:country": "US", "addr:full": "13 RIVER OAKS DR", "addr:postcode": "60409", "addr:state": "IL", "brand": "USPS", "collection_times": "Mo-Sa 13:45", "name": "USPS COLLECTION BOX - BLUE BOX", "note": "ON 12/24 AND 12/31, THIS BOX MAY BE COLLECTED AS EARLY AS 12 NOON.", "ref": "6040900026"}, "type": "Feature"}
{"geometry": {"coordinates": [-87.5716139, 41.622337], "type": "Point"}, "id": "XYAkgfn7wyfP_gjgYuIREElXdxY=", "properties": {"@spider": "usps_collection_boxes", "addr:city": "CALUMET CITY", "addr:country": "US", "addr:full": "1901 SIBLEY BLVD", "addr:postcode": "60409", "addr:state": "IL", "brand": "USPS", "collection_times": "Mo-Fr 13:00; Sa 11:00", "name": "USPS COLLECTION BOX - BLUE BOX", "note": "ON 12/24 AND 12/31, THIS BOX MAY BE COLLECTED AS EARLY AS 12 NOON.", "ref": "6040900042"}, "type": "Feature"}
{"geometry": {"coordinates": [-87.529928294, 41.616080026], "type": "Point"}, "id": "2dzGAsV3aOUldqUBfSMjsinbScw=", "properties": {"@spider": "usps_collection_boxes", "addr:city": "CALUMET CITY", "addr:country": "US", "addr:full": "680 WENTWORTH AVE", "addr:postcode": "60409", "addr:state": "IL", "brand": "USPS", "collection_times": "Mo-Fr 14:00; Sa 12:00", "name": "USPS COLLECTION BOX - PO LOBBY", "note": "ON 12/24 AND 12/31, THIS BOX MAY BE COLLECTED AS EARLY AS 12 NOON.", "ref": "6040900046"}, "type": "Feature"}
{"geometry": {"coordinates": [-87.563307772, 41.598120788], "type": "Point"}, "id": "Uco-_E1by8MhSXGWZK_4_5Mho0c=", "properties": {"@spider": "usps_collection_boxes", "addr:city": "CALUMET CITY", "addr:country": "US", "addr:full": "1200 RING RD", "addr:postcode": "60409", "addr:state": "IL", "brand": "USPS", "collection_times": "Mo-Sa 17:00", "name": "USPS COLLECTION BOX - PO LOBBY", "note": "ON 12/24 AND 12/31, THIS BOX MAY BE COLLECTED AS EARLY AS 12 NOON.", "ref": "6040900047"}, "type": "Feature"}
{"geometry": {"coordinates": [-87.5616089, 41.619056], "type": "Point"}, "id": "p2LAQhfKcPrf9GPOcYyT2rCLPa8=", "properties": {"@spider": "usps_collection_boxes", "addr:city": "CALUMET CITY", "addr:country": "US", "addr:full": "1501 MEMORIAL DR", "addr:postcode": "60409", "addr:state": "IL", "brand": "USPS", "collection_times": "Mo-Sa 11:00", "name": "USPS COLLECTION BOX - BLUE BOX", "ref": "6040900048"}, "type": "Feature"}
{"geometry": {"coordinates": [-87.529928294, 41.616080026], "type": "Point"}, "id": "VSJM609U5MLvrYcT3yQ6K-0TdyQ=", "properties": {"@spider": "usps_collection_boxes", "addr:city": "CALUMET CITY", "addr:country": "US", "addr:full": "680 WENTWORTH AVE", "addr:postcode": "60409", "addr:state": "IL", "brand": "USPS", "collection_times": "Mo-Fr 14:00; Sa 12:00", "name": "USPS COLLECTION BOX - BLUE BOX", "note": "ON 12/24 AND 12/31, THIS BOX MAY BE COLLECTED AS EARLY AS 12 NOON.", "ref": "6040900051"}, "type": "Feature"}
{"geometry": {"coordinates": [-87.563307772, 41.598120788], "type": "Point"}, "id": "49H4Iu5O-XCOkcWgnEyqhlrfzno=", "properties": {"@spider": "usps_collection_boxes", "addr:city": "CALUMET CITY", "addr:country": "US", "addr:full": "1200 RING RD", "addr:postcode": "60409", "addr:state": "IL", "brand": "USPS", "collection_times": "Mo-Fr 17:00; Sa 15:00", "name": "USPS COLLECTION BOX - PO LOBBY", "note": "ON 12/24 AND 12/31, THIS BOX MAY BE COLLECTED AS EARLY AS 12 NOON.", "ref": "6040900055"}, "type": "Feature"}
{"geometry": {"coordinates": [-87.529928294, 41.616080026], "type": "Point"}, "id": "vlWcBIQTiNsCc47pI2ZANlohPa4=", "properties": {"@spider": "usps_collection_boxes", "addr:city": "CALUMET CITY", "addr:country": "US", "addr:full": "680 WENTWORTH AVE", "addr:postcode": "60409", "addr:state": "IL", "brand": "USPS", "collection_times": "Mo-Fr 14:00; Sa 12:00", "name": "USPS COLLECTION BOX - PO LOBBY", "note": "ON 12/24 AND 12/31, THIS BOX MAY BE COLLECTED AS EARLY AS 12 NOON.", "ref": "6040900056"}, "type": "Feature"}
{"geometry": {"coordinates": [-88.223027, 41.433281], "type": "Point"}, "id": "RvsF3QrRYWNJriLc3CSBtSmTuJ0=", "properties": {"@spider": "usps_collection_boxes", "addr:city": "CHANNAHON", "addr:country": "US", "addr:full": "25140 W CHANNON DR", "addr:postcode": "60410", "addr:state": "IL", "brand": "USPS", "collection_times": "Mo-Fr 16:30; Sa 13:00", "name": "USPS COLLECTION BOX - EXPRESS", "note": "ON 12/24 AND 12/31, THIS BOX MAY BE COLLECTED AS EARLY AS 12 NOON.", "ref": "6041000002"}, "type": "Feature"}
{"geometry": {"coordinates": [-88.223027, 41.433281], "type": "Point"}, "id": "HYrZkOKJD5Us7oCvlYUIlMP3yxI=", "properties": {"@spider": "usps_collection_boxes", "addr:city": "CHANNAHON", "addr:country": "US", "addr:full": "25140 W CHANNON DR", "addr:postcode": "60410", "addr:state": "IL", "brand": "USPS", "collection_times": "Mo-Fr 16:30; Sa 13:00", "name": "USPS COLLECTION BOX - BLUE BOX", "note": "ON 12/24 AND 12/31, THIS BOX MAY BE COLLECTED AS EARLY AS 12 NOON.", "ref": "6041000003"}, "type": "Feature"}
{"geometry": {"coordinates": [-88.2114318, 41.439738], "type": "Point"}, "id": "w-a5SMiKh7Bl6wiGHBBkkyCU-wU=", "properties": {"@spider": "usps_collection_boxes", "addr:city": "CHANNAHON", "addr:country": "US", "addr:full": "24715 W EAMES ST", "addr:postcode": "60410", "addr:state": "IL", "brand": "USPS", "collection_times": "Mo-Sa 10:30", "name": "USPS COLLECTION BOX - BLUE BOX", "ref": "6041000005"}, "type": "Feature"}
{"geometry": {"coordinates": [-88.1929285, 41.458427], "type": "Point"}, "id": "EW2gb3CpeVoSqoGmXeATGUNX4eI=", "properties": {"@spider": "usps_collection_boxes", "addr:city": "CHANNAHON", "addr:country": "US", "addr:full": "23840 W EAMES ST", "addr:postcode": "60410", "addr:state": "IL", "brand": "USPS", "collection_times": "Mo-Sa 10:30", "name": "USPS COLLECTION BOX - BLUE BOX", "ref": "6041000006"}, "type": "Feature"}
{"geometry": {"coordinates": [-88.223385629, 41.433698555], "type": "Point"}, "id": "0TpZFbs3Y_2fnrg1-N3lFEgSqlU=", "properties": {"@spider": "usps_collection_boxes", "addr:city": "CHANNAHON", "addr:country": "US", "addr:full": "25150 W CHANNON DR", "addr:postcode": "60410", "addr:state": "IL", "brand": "USPS", "collection_times": "Mo-Fr 16:30; Sa 13:00", "name": "USPS COLLECTION BOX - PO LOBBY", "note": "ON 12/24 AND 12/31, THIS BOX MAY BE COLLECTED AS EARLY AS 12 NOON.", "ref": "6041000008"}, "type": "Feature"}
{"geometry": {"coordinates": [-88.2676382, 41.419625], "type": "Point"}, "id": "WaxKXdKRbst8Tg4SHo9kB8IUixM=", "properties": {"@spider": "usps_collection_boxes", "addr:city": "CHANNAHON", "addr:country": "US", "addr:full": "25520 S PHEASANT LN", "addr:postcode": "60410", "addr:state": "IL", "brand": "USPS", "collection_times": "Mo-Sa 10:30", "name": "USPS COLLECTION BOX - BLUE BOX", "ref": "6041000009"}, "type": "Feature"}
{"geometry": {"coordinates": [-88.223385629, 41.433698555], "type": "Point"}, "id": "EmP--pKNBUfAuMpcBwHu49JDgyA=", "properties": {"@spider": "usps_collection_boxes", "addr:city": "CHANNAHON", "addr:country": "US", "addr:full": "25150 W CHANNON DR", "addr:postcode": "60410", "addr:state": "IL", "brand": "USPS", "collection_times": "Mo-Fr 16:30; Sa 12:00", "name": "USPS COLLECTION BOX - PO LOBBY", "note": "ON 12/24 AND 12/31, THIS BOX MAY BE COLLECTED AS EARLY AS 12 NOON.", "ref": "6041000010"}, "type": "Feature"}
{"geometry": {"coordinates": [-87.633974229, 41.507076563], "type": "Point"}, "id": "a1DiAVMy1M0TxR5SiGU899T-FAg=", "properties": {"@spider": "usps_collection_boxes", "addr:city": "SAUK VILLAGE", "addr:country": "US", "addr:full": "1333 W END AVE", "addr:postcode": "60411", "addr:state": "IL", "brand": "USPS", "collection_times": "Mo-Fr 18:00; Sa 15:00", "name": "USPS COLLECTION BOX - BLUE BOX", "note": "ON 12/24 AND 12/31, THIS BOX MAY BE COLLECTED AS EARLY AS 12 NOON.", "ref": "6041100001"}, "type": "Feature"}
{"geometry": {"coordinates": [-87.633974229, 41.507076563], "type": "Point"}, "id": "xIXjQtzIZYc44S9Ga_G2DEy-Dgw=", "properties": {"@spider": "usps_collection_boxes", "addr:city": "SAUK VILLAGE", "addr:country": "US", "addr:full": "1333 W END AVE", "addr:postcode": "60411", "addr:state": "IL", "brand": "USPS", "collection_times": "Mo-Fr 18:00; Sa 15:00", "name": "USPS COLLECTION BOX - BLUE BOX", "note": "ON 12/24 AND 12/31, THIS BOX MAY BE COLLECTED AS EARLY AS 12 NOON.", "ref": "6041100002"}, "type": "Feature"}
{"geometry": {"coordinates": [-87.633974229, 41.507076563], "type": "Point"}, "id": "IPZRw33SgJ93vuENhcAlTr6AZV8=", "properties": {"@spider": "usps_collection_boxes", "addr:city": "SAUK VILLAGE", "addr:country": "US", "addr:full": "1333 W END AVE", "addr:postcode": "60411", "addr:state": "IL", "brand": "USPS", "collection_times": "Mo-Fr 18:00; Sa 15:00", "name": "USPS COLLECTION BOX - EXPRESS", "note": "ON 12/24 AND 12/31, THIS BOX MAY BE COLLECTED AS EARLY AS 12 NOON.", "ref": "6041100003"}, "type": "Feature"}
{"geometry": {"coordinates": [-87.6369045, 41.502384], "type": "Point"}, "id": "Mh_gErgdM3Vz9lPfYejaMDpLuOQ=", "properties": {"@spider": "usps_collection_boxes", "addr:city": "SAUK VILLAGE", "addr:country": "US", "addr:full": "1600 OTTO BLVD", "addr:postcode": "60411", "addr:state": "IL", "brand": "USPS", "collection_times": "Mo-Fr 16:30; Sa 12:45", "name": "USPS COLLECTION BOX - BLUE BOX", "note": "ON 12/24 AND 12/31, THIS BOX MAY BE COLLECTED AS EARLY AS 12 NOON.", "ref": "6041100004"}, "type": "Feature"}
{"geometry": {"coordinates": [-87.5919869, 41.506553], "type": "Point"}, "id": "OCaIxrtd6DIRv-2MRaof3aN6zyQ=", "properties": {"@spider": "usps_collection_boxes", "addr:city": "SAUK VILLAGE", "addr:country": "US", "addr:full": "1343 ELLIS AVE", "addr:postcode": "60411", "addr:state": "IL", "brand": "USPS", "collection_times": "Mo-Fr 16:30; Sa 12:45", "name": "USPS COLLECTION BOX - BLUE BOX", "note": "ON 12/24 AND 12/31, THIS BOX MAY BE COLLECTED AS EARLY AS 12 NOON.", "ref": "6041100007"}, "type": "Feature"}
{"geometry": {"coordinates": [-87.574040372, 41.48773999], "type": "Point"}, "id": "Xam2hhfjk-_oPK0vbCPgbCYPJ7s=", "properties": {"@spider": "usps_collection_boxes", "addr:city": "SAUK VILLAGE", "addr:country": "US", "addr:full": "5 SURREY BROOK PLZ", "addr:postcode": "60411", "addr:state": "IL", "brand": "USPS", "collection_times": "Mo-Fr 17:00; Sa 13:00", "name": "USPS COLLECTION BOX - BLUE BOX", "note": "ON 12/24 AND 12/31, THIS BOX MAY BE COLLECTED AS EARLY AS 12 NOON.", "ref": "6041100008"}, "type": "Feature"}
{"geometry": {"coordinates": [-87.5580637, 41.536146], "type": "Point"}, "id": "UDUD1svvH3VkoPe_EXCSELS7V6w=", "properties": {"@spider": "usps_collection_boxes", "addr:city": "SAUK VILLAGE", "addr:country": "US", "addr:full": "19771 TORRENCE AVE", "addr:postcode": "60411", "addr:state": "IL", "brand": "USPS", "collection_times": "Mo-Fr 16:30; Sa 12:00", "name": "USPS COLLECTION BOX - BLUE BOX", "note": "ON 12/24 AND 12/31, THIS BOX MAY BE COLLECTED AS EARLY AS 12 NOON.", "ref": "6041100010"}, "type": "Feature"}
{"geometry": {"coordinates": [-87.5558373, 41.491247], "type": "Point"}, "id": "PKi_mIYdqZSRsLQzmEXbTiK82m8=", "properties": {"@spider": "usps_collection_boxes", "addr:city": "SAUK VILLAGE", "addr:country": "US", "addr:full": "7 SAUK PLZ", "addr:postcode": "60411", "addr:state": "IL", "brand": "USPS", "collection_times": "Mo-Fr 16:45; Sa 12:30", "name": "USPS COLLECTION BOX - BLUE BOX", "note": "ON 12/24 AND 12/31, THIS BOX MAY BE COLLECTED AS EARLY AS 12 NOON.", "ref": "6041100012"}, "type": "Feature"}
{"geometry": {"coordinates": [-87.6588729, 41.506381], "type": "Point"}, "id": "zpgrQv7XnwUh2pwx2xSo1OqKzCs=", "properties": {"@spider": "usps_collection_boxes", "addr:city": "SAUK VILLAGE", "addr:country": "US", "addr:full": "403 W 14TH ST", "addr:postcode": "60411", "addr:state": "IL", "brand": "USPS", "collection_times": "Mo-Fr 16:30; Sa 12:30", "name": "USPS COLLECTION BOX - BLUE BOX", "note": "ON 12/24 AND 12/31, THIS BOX MAY BE COLLECTED AS EARLY AS 12 NOON.", "ref": "6041100017"}, "type": "Feature"}
{"geometry": {"coordinates": [-87.6465252, 41.5209], "type": "Point"}, "id": "VQaCdr_oGStHrsHFy48YJ-IJuw8=", "properties": {"@spider": "usps_collection_boxes", "addr:city": "SAUK VILLAGE", "addr:country": "US", "addr:full": "157 W JOE ORR RD", "addr:postcode": "60411", "addr:state": "IL", "brand": "USPS", "collection_times": "Mo-Fr 16:45; Sa 12:15", "name": "USPS COLLECTION BOX - BLUE BOX", "note": "ON 12/24 AND 12/31, THIS BOX MAY BE COLLECTED AS EARLY AS 12 NOON.", "ref": "6041100023"}, "type": "Feature"}
{"geometry": {"coordinates": [-87.6492519, 41.521267], "type": "Point"}, "id": "RrO6Rn_VQL4lHzPV5TcfkDU29Oo=", "properties": {"@spider": "usps_collection_boxes", "addr:city": "SAUK VILLAGE", "addr:country": "US", "addr:full": "193 W JOE ORR RD", "addr:postcode": "60411", "addr:state": "IL", "brand": "USPS", "collection_times": "Mo-Fr 16:45; Sa 12:15", "name": "USPS COLLECTION BOX - BLUE BOX", "note": "ON 12/24 AND 12/31, THIS BOX MAY BE COLLECTED AS EARLY AS 12 NOON.", "ref": "6041100026"}, "type": "Feature"}
{"geometry": {"coordinates": [-87.6464986, 41.512975], "type": "Point"}, "id": "OZ6X3t0EeedNdjn73a60YjSW4Io=", "properties": {"@spider": "usps_collection_boxes", "addr:city": "SAUK VILLAGE", "addr:country": "US", "addr:full": "1010 DIXIE HWY", "addr:postcode": "60411", "addr:state": "IL", "brand": "USPS", "collection_times": "Mo-Fr 16:30; Sa 12:30", "name": "USPS COLLECTION BOX - BLUE BOX", "note": "ON 12/24 AND 12/31, THIS BOX MAY BE COLLECTED AS EARLY AS 12 NOON.", "ref": "6041100031"}, "type": "Feature"}
{"geometry": {"coordinates": [-87.638592, 41.479759], "type": "Point"}, "id": "0CvjedygHEXfLij0JD6eQT1eb14=", "properties": {"@spider": "usps_collection_boxes", "addr:city": "SAUK VILLAGE", "addr:country": "US", "addr:full": "3220 CHICAGO RD", "addr:postcode": "60411", "addr:state": "IL", "brand": "USPS", "collection_times": "Mo-Fr 16:45; Sa 12:15", "name": "USPS COLLECTION BOX - BLUE BOX", "note": "ON 12/24 AND 12/31, THIS BOX MAY BE COLLECTED AS EARLY AS 12 NOON.", "ref": "6041100038"}, "type": "Feature"}
{"geometry": {"coordinates": [-87.640823435, 41.504289483], "type": "Point"}, "id": "SDuNNJxCGDOVNOzuMq0y4j7wqLs=", "properties": {"@spider": "usps_collection_boxes", "addr:city": "SAUK VILLAGE", "addr:country": "US", "addr:full": "25 W 15TH ST", "addr:postcode": "60411", "addr:state": "IL", "brand": "USPS", "collection_times": "Mo-Fr 16:30; Sa 12:00", "name": "USPS COLLECTION BOX - BLUE BOX", "note": "ON 12/24 AND 12/31, THIS BOX MAY BE COLLECTED AS EARLY AS 12 NOON.", "ref": "6041100044"}, "type": "Feature"}
{"geometry": {"coordinates": [-87.6434939, 41.48001], "type": "Point"}, "id": "1YNo2r9Bdk6wn5ZHpA41W-6WyIo=", "properties": {"@spider": "usps_collection_boxes", "addr:city": "SAUK VILLAGE", "addr:country": "US", "addr:full": "170 W SAUK TRL", "addr:postcode": "60411", "addr:state": "IL", "brand": "USPS", "collection_times": "Mo-Fr 16:30; Sa 12:15", "name": "USPS COLLECTION BOX - BLUE BOX", "note": "ON 12/24 AND 12/31, THIS BOX MAY BE COLLECTED AS EARLY AS 12 NOON.", "ref": "6041100046"}, "type": "Feature"}
{"geometry": {"coordinates": [-87.655149, 41.52183], "type": "Point"}, "id": "EOBB5BAc2X_NxBXg3oUZ9xjhpEQ=", "properties": {"@spider": "usps_collection_boxes", "addr:city": "SAUK VILLAGE", "addr:country": "US", "addr:full": "20200 ASHLAND AVE", "addr:postcode": "60411", "addr:state": "IL", "brand": "USPS", "collection_times": "Mo-Fr 16:30; Sa 12:15", "name": "USPS COLLECTION BOX - BLUE BOX", "note": "ON 12/24 AND 12/31, THIS BOX MAY BE COLLECTED AS EARLY AS 12 NOON.", "ref": "6041100051"}, "type": "Feature"}
{"geometry": {"coordinates": [-87.6368362, 41.478377], "type": "Point"}, "id": "wXpx3uRKB-ErYR2wDvm3tsui54Y=", "properties": {"@spider": "usps_collection_boxes", "addr:city": "SAUK VILLAGE", "addr:country": "US", "addr:full": "3317 CHICAGO RD", "addr:postcode": "60411", "addr:state": "IL", "brand": "USPS", "collection_times": "Mo-Fr 16:45; Sa 12:15", "name": "USPS COLLECTION BOX - BLUE BOX", "note": "ON 12/24 AND 12/31, THIS BOX MAY BE COLLECTED AS EARLY AS 12 NOON.", "ref": "6041100056"}, "type": "Feature"}
{"geometry": {"coordinates": [-87.633974229, 41.507076563], "type": "Point"}, "id": "oIUdpYWXB_dwQN7IQh4ay5OiDJA=", "properties": {"@spider": "usps_collection_boxes", "addr:city": "SAUK VILLAGE", "addr:country": "US", "addr:full": "1333 W END AVE", "addr:postcode": "60411", "addr:state": "IL", "brand": "USPS", "collection_times": "Mo-Fr 17:00; Sa 15:00", "name": "USPS COLLECTION BOX - PO LOBBY", "note": "ON 12/24 AND 12/31, THIS BOX MAY BE COLLECTED AS EARLY AS 12 NOON.", "ref": "6041100059"}, "type": "Feature"}
{"geometry": {"coordinates": [-87.532762, 41.505166], "type": "Point"}, "id": "DpBaLqJsl_JPE_dn92w5K7rf2CQ=", "properties": {"@spider": "usps_collection_boxes", "addr:city": "SAUK VILLAGE", "addr:country": "US", "addr:full": "21460 E LINCOLN HWY", "addr:postcode": "60411", "addr:state": "IL", "brand": "USPS", "collection_times": "Mo-Sa 11:00", "name": "USPS COLLECTION BOX - BLUE BOX", "ref": "6041100061"}, "type": "Feature"}
{"geometry": {"coordinates": [-87.633974229, 41.507076563], "type": "Point"}, "id": "cR6GhglZ8Kfq9FQhzrhdoiLeCBA=", "properties": {"@spider": "usps_collection_boxes", "addr:city": "SAUK VILLAGE", "addr:country": "US", "addr:full": "1333 W END AVE", "addr:postcode": "60411", "addr:state": "IL", "brand": "USPS", "collection_times": "Mo-Fr 18:00; Sa 15:00", "name": "USPS COLLECTION BOX - PO LOBBY", "note": "ON 12/24 AND 12/31, THIS BOX MAY BE COLLECTED AS EARLY AS 12 NOON.", "ref": "6041100063"}, "type": "Feature"}
{"geometry": {"coordinates": [-87.574040372, 41.48773999], "type": "Point"}, "id": "UhdEpEmxRJcBQNzrAc0HYYXiTcs=", "properties": {"@spider": "usps_collection_boxes", "addr:city": "SAUK VILLAGE", "addr:country": "US", "addr:full": "5 SURREY BROOK PLZ", "addr:postcode": "60411", "addr:state": "IL", "brand": "USPS", "collection_times": "Mo-Fr 17:00; Sa 12:00", "name": "USPS COLLECTION BOX - PO LOBBY", "note": "ON 12/24 AND 12/31, THIS BOX MAY BE COLLECTED AS EARLY AS 12 NOON.", "ref": "6041100064"}, "type": "Feature"}
{"geometry": {"coordinates": [-87.779157665, 41.700931949], "type": "Point"}, "id": "yRZYleUPRyhPYVOaLS5wSABzBRo=", "properties": {"@spider": "usps_collection_boxes", "addr:city": "CHICAGO RIDGE", "addr:country": "US", "addr:full": "10525 RIDGELAND AVE", "addr:postcode": "60415", "addr:state": "IL", "brand": "USPS", "collection_times": "Mo-Fr 17:00; Sa 15:00", "name": "USPS COLLECTION BOX - BLUE BOX", "note": "ON 12/24 AND 12/31, THIS BOX MAY BE COLLECTED AS EARLY AS 12 NOON.", "ref": "6041500007"}, "type": "Feature"}
{"geometry": {"coordinates": [-87.779157665, 41.700931949], "type": "Point"}, "id": "ZAbhzLhLpSyOLYPHlc7p0vWYt_U=", "properties": {"@spider": "usps_collection_boxes", "addr:city": "CHICAGO RIDGE", "addr:country": "US", "addr:full": "10525 RIDGELAND AVE", "addr:postcode": "60415", "addr:state": "IL", "brand": "USPS", "collection_times": "Mo-Fr 17:00; Sa 15:00", "name": "USPS COLLECTION BOX - EXPRESS", "note": "ON 12/24 AND 12/31, THIS BOX MAY BE COLLECTED AS EARLY AS 12 NOON.", "ref": "6041500009"}, "type": "Feature"}
{"geometry": {"coordinates": [-87.779157665, 41.700931949], "type": "Point"}, "id": "_nMju9YR408NdCYQTk_dMpnjQV8=", "properties": {"@spider": "usps_collection_boxes", "addr:city": "CHICAGO RIDGE", "addr:country": "US", "addr:full": "10525 RIDGELAND AVE", "addr:postcode": "60415", "addr:state": "IL", "brand": "USPS", "collection_times": "Mo-Fr 17:00; Sa 15:00", "name": "USPS COLLECTION BOX - BLUE BOX", "note": "ON 12/24 AND 12/31, THIS BOX MAY BE COLLECTED AS EARLY AS 12 NOON.", "ref": "6041500010"}, "type": "Feature"}
{"geometry": {"coordinates": [-87.7961851, 41.712039], "type": "Point"}, "id": "meHS_vmdLZqOP2Eyfy_1XnyJpas=", "properties": {"@spider": "usps_collection_boxes", "addr:city": "CHICAGO RIDGE", "addr:country": "US", "addr:full": "7100 99TH ST", "addr:postcode": "60415", "addr:state": "IL", "brand": "USPS", "collection_times": "Mo-Sa 12:00", "name": "USPS COLLECTION BOX - BLUE BOX", "ref": "6041500014"}, "type": "Feature"}
{"geometry": {"coordinates": [-87.779246, 41.701183], "type": "Point"}, "id": "21-LTvpk7UdoyiUX9WnEfQkSJOY=", "properties": {"@spider": "usps_collection_boxes", "addr:city": "CHICAGO RIDGE", "addr:country": "US", "addr:full": "10525 RIDGELAND AVE", "addr:postcode": "60415", "addr:state": "IL", "brand": "USPS", "collection_times": "Mo-Fr 17:00; Sa 15:00", "name": "USPS COLLECTION BOX - PO LOBBY", "note": "ON 12/24 AND 12/31, THIS BOX MAY BE COLLECTED AS EARLY AS 12 NOON.", "ref": "6041500020"}, "type": "Feature"}
{"geometry": {"coordinates": [-87.7787657, 41.702074], "type": "Point"}, "id": "-IC1_FGv0GuwBOOdCiPYqAOTnUs=", "properties": {"@spider": "usps_collection_boxes", "addr:city": "CHICAGO RIDGE", "addr:country": "US", "addr:full": "10425 RIDGELAND AVE", "addr:postcode": "60415", "addr:state": "IL", "brand": "USPS", "collection_times": "Mo-Fr 17:00", "name": "USPS COLLECTION BOX - BLUE BOX", "note": "ON 12/24 AND 12/31, THIS BOX MAY BE COLLECTED AS EARLY AS 12 NOON.", "ref": "6041500022"}, "type": "Feature"}
{"geometry": {"coordinates": [-87.7791929222, 41.7011465481], "type": "Point"}, "id": "K98bY06PlRxzRlp18VBs5RllH4I=", "properties": {"@spider": "usps_collection_boxes", "addr:city": "CHICAGO RIDGE", "addr:country": "US", "addr:full": "10525 RIDGELAND AVE", "addr:postcode": "60415", "addr:state": "IL", "brand": "USPS", "collection_times": "Mo-Fr 17:30; Sa 15:00", "name": "USPS COLLECTION BOX - PO LOBBY", "note": "ON 12/24 AND 12/31, THIS BOX MAY BE COLLECTED AS EARLY AS 12 NOON.", "ref": "6041500028"}, "type": "Feature"}
{"geometry": {"coordinates": [-88.2654926, 41.288013], "type": "Point"}, "id": "F6M5Q_glruq3BACPIMaAQIaEDLw=", "properties": {"@spider": "usps_collection_boxes", "addr:city": "COAL CITY", "addr:country": "US", "addr:full": "1275 E DIVISION ST", "addr:postcode": "60416", "addr:state": "IL", "brand": "USPS", "collection_times": "Mo-Sa 11:00", "name": "USPS COLLECTION BOX - BLUE BOX", "ref": "6041600001"}, "type": "Feature"}
{"geometry": {"coordinates": [-88.2858599, 41.286752], "type": "Point"}, "id": "kHmp_v8-Je8h7S_OK53NVrfEnGY=", "properties": {"@spider": "usps_collection_boxes", "addr:city": "COAL CITY", "addr:country": "US", "addr:full": "100 S BROADWAY ST", "addr:postcode": "60416", "addr:state": "IL", "brand": "USPS", "collection_times": "Mo-Sa 11:00", "name": "USPS COLLECTION BOX - BLUE BOX", "ref": "6041600003"}, "type": "Feature"}
{"geometry": {"coordinates": [-88.2847424, 41.281752], "type": "Point"}, "id": "Opgv_G1QWScDqziv_nCSoBOiiyY=", "properties": {"@spider": "usps_collection_boxes", "addr:city": "COAL CITY", "addr:country": "US", "addr:full": "515 S BROADWAY ST", "addr:postcode": "60416", "addr:state": "IL", "brand": "USPS", "collection_times": "Mo-Fr 17:00; Sa 12:00", "name": "USPS COLLECTION BOX - BLUE BOX", "note": "ON 12/24 AND 12/31, THIS BOX MAY BE COLLECTED AS EARLY AS 12 NOON.", "ref": "6041600007"}, "type": "Feature"}
{"geometry": {"coordinates": [-88.2847369, 41.281756], "type": "Point"}, "id": "uAQAhPbIviGs0p_pHNxK7aLUyc4=", "properties": {"@spider": "usps_collection_boxes", "addr:city": "COAL CITY", "addr:country": "US", "addr:full": "515 S BROADWAY ST", "addr:postcode": "60416", "addr:state": "IL", "brand": "USPS", "collection_times": "Mo-Fr 16:30; Sa 12:00", "name": "USPS COLLECTION BOX - EXPRESS", "note": "ON 12/24 AND 12/31, THIS BOX MAY BE COLLECTED AS EARLY AS 12 NOON.", "ref": "6041600008"}, "type": "Feature"}
{"geometry": {"coordinates": [-88.285135414, 41.281982948], "type": "Point"}, "id": "ZBPshHkXSz3TGMUU8q3lYFzQcYE=", "properties": {"@spider": "usps_collection_boxes", "addr:city": "COAL CITY", "addr:country": "US", "addr:full": "495 S BROADWAY ST", "addr:postcode": "60416", "addr:state": "IL", "brand": "USPS", "collection_times": "Mo-Fr 16:30; Sa 12:00", "name": "USPS COLLECTION BOX - PO LOBBY", "note": "ON 12/24 AND 12/31, THIS BOX MAY BE COLLECTED AS EARLY AS 12 NOON.", "ref": "6041600009"}, "type": "Feature"}
{"geometry": {"coordinates": [-88.2587761, 41.288503], "type": "Point"}, "id": "Cafv8lCddlfBfmputpmGFQy0PGU=", "properties": {"@spider": "usps_collection_boxes", "addr:city": "COAL CITY", "addr:country": "US", "addr:full": "1750 E DIVISION ST", "addr:postcode": "60416", "addr:state": "IL", "brand": "USPS", "collection_times": "Mo-Sa 11:00", "name": "USPS COLLECTION BOX - BLUE BOX", "ref": "6041600010"}, "type": "Feature"}
{"geometry": {"coordinates": [-88.285135414, 41.281982948], "type": "Point"}, "id": "H309jeN-zbHPvoHY5rAwmX3nOI0=", "properties": {"@spider": "usps_collection_boxes", "addr:city": "COAL CITY", "addr:country": "US", "addr:full": "495 S BROADWAY ST", "addr:postcode": "60416", "addr:state": "IL", "brand": "USPS", "collection_times": "Mo-Fr 17:00; Sa 12:00", "name": "USPS COLLECTION BOX - PO LOBBY", "note": "ON 12/24 AND 12/31, THIS BOX MAY BE COLLECTED AS EARLY AS 12 NOON.", "ref": "6041600012"}, "type": "Feature"}
{"geometry": {"coordinates": [-87.5865768, 41.444117], "type": "Point"}, "id": "IxAd3XXPyk0xmed53cep-FyjG7k=", "properties": {"@spider": "usps_collection_boxes", "addr:city": "CRETE", "addr:country": "US", "addr:full": "1100 E EXCHANGE ST", "addr:postcode": "60417", "addr:state": "IL", "brand": "USPS", "collection_times": "Mo-Sa 10:00", "name": "USPS COLLECTION BOX - BLUE BOX", "ref": "6041700001"}, "type": "Feature"}
{"geometry": {"coordinates": [-87.5781475, 41.469602], "type": "Point"}, "id": "jaIwSpUiKTfKyuxU5oP51qAh0ms=", "properties": {"@spider": "usps_collection_boxes", "addr:city": "CRETE", "addr:country": "US", "addr:full": "1400 E STEGER RD", "addr:postcode": "60417", "addr:state": "IL", "brand": "USPS", "collection_times": "Mo-Sa 09:00", "name": "USPS COLLECTION BOX - BLUE BOX", "ref": "6041700003"}, "type": "Feature"}
{"geometry": {"coordinates": [-87.632144696, 41.443290449], "type": "Point"}, "id": "AvS285U0zHkDolD5AlsfyddVQN4=", "properties": {"@spider": "usps_collection_boxes", "addr:city": "CRETE", "addr:country": "US", "addr:full": "515 CASS ST", "addr:postcode": "60417", "addr:state": "IL", "brand": "USPS", "collection_times": "Mo-Fr 17:00; Sa 15:00", "name": "USPS COLLECTION BOX - BLUE BOX", "note": "ON 12/24 AND 12/31, THIS BOX MAY BE COLLECTED AS EARLY AS 12 NOON.", "ref": "6041700010"}, "type": "Feature"}
{"geometry": {"coordinates": [-87.632144696, 41.443290449], "type": "Point"}, "id": "9Yjs-DgcMVOg9qCSStZxmgEkO8c=", "properties": {"@spider": "usps_collection_boxes", "addr:city": "CRETE", "addr:country": "US", "addr:full": "515 CASS ST", "addr:postcode": "60417", "addr:state": "IL", "brand": "USPS", "collection_times": "Mo-Fr 17:00; Sa 15:00", "name": "USPS COLLECTION BOX - EXPRESS", "note": "ON 12/24 AND 12/31, THIS BOX MAY BE COLLECTED AS EARLY AS 12 NOON.", "ref": "6041700011"}, "type": "Feature"}
{"geometry": {"coordinates": [-87.632144696, 41.443290449], "type": "Point"}, "id": "bCj4CxvSYIPnepRLqz3jU-YUEh0=", "properties": {"@spider": "usps_collection_boxes", "addr:city": "CRETE", "addr:country": "US", "addr:full": "515 CASS ST", "addr:postcode": "60417", "addr:state": "IL", "brand": "USPS", "collection_times": "Mo-Fr 17:00; Sa 15:00", "name": "USPS COLLECTION BOX - PO LOBBY", "note": "ON 12/24 AND 12/31, THIS BOX MAY BE COLLECTED AS EARLY AS 12 NOON.", "ref": "6041700013"}, "type": "Feature"}
{"geometry": {"coordinates": [-87.632144696, 41.443290449], "type": "Point"}, "id": "5hvUPreRv_Z3GVRTXrQIGttPF1c=", "properties": {"@spider": "usps_collection_boxes", "addr:city": "CRETE", "addr:country": "US", "addr:full": "515 CASS ST", "addr:postcode": "60417", "addr:state": "IL", "brand": "USPS", "collection_times": "Mo-Fr 17:00; Sa 12:00", "name": "USPS COLLECTION BOX - PO LOBBY", "note": "ON 12/24 AND 12/31, THIS BOX MAY BE COLLECTED AS EARLY AS 12 NOON.", "ref": "6041700014"}, "type": "Feature"}
{"geometry": {"coordinates": [-87.6100347, 41.640178], "type": "Point"}, "id": "KLnFb-RZPdj15cn_JRxFPMTiyIM=", "properties": {"@spider": "usps_collection_boxes", "addr:city": "DOLTON", "addr:country": "US", "addr:full": "14014 PARK AVE", "addr:postcode": "60419", "addr:state": "IL", "brand": "USPS", "collection_times": "Mo-Sa 11:30", "name": "USPS COLLECTION BOX - BLUE BOX", "ref": "6041900001"}, "type": "Feature"}
{"geometry": {"coordinates": [-87.6084631, 41.636685], "type": "Point"}, "id": "dOK30k_ISyvHNq4EXS79RKfGV2g=", "properties": {"@spider": "usps_collection_boxes", "addr:city": "DOLTON", "addr:country": "US", "addr:full": "14200 CHICAGO RD", "addr:postcode": "60419", "addr:state": "IL", "brand": "USPS", "collection_times": "Mo-Sa 11:30", "name": "USPS COLLECTION BOX - BLUE BOX", "ref": "6041900002"}, "type": "Feature"}
{"geometry": {"coordinates": [-87.5917879, 41.623633], "type": "Point"}, "id": "_TIxX5zqwHfdw4nyz_q653ukkLI=", "properties": {"@spider": "usps_collection_boxes", "addr:city": "DOLTON", "addr:country": "US", "addr:full": "1024 E SIBLEY BLVD", "addr:postcode": "60419", "addr:state": "IL", "brand": "USPS", "collection_times": "Mo-Sa 11:30", "name": "USPS COLLECTION BOX - BLUE BOX", "ref": "6041900005"}, "type": "Feature"}
{"geometry": {"coordinates": [-87.5964499, 41.615049], "type": "Point"}, "id": "UQ7D6OHWI9Vd4bJxk7tVj6PY33c=", "properties": {"@spider": "usps_collection_boxes", "addr:city": "DOLTON", "addr:country": "US", "addr:full": "15413 COTTAGE GROVE AVE", "addr:postcode": "60419", "addr:state": "IL", "brand": "USPS", "collection_times": "Mo-Fr 16:30; Sa 10:45", "name": "USPS COLLECTION BOX - BLUE BOX", "note": "ON 12/24 AND 12/31, THIS BOX MAY BE COLLECTED AS EARLY AS 12 NOON.", "ref": "6041900009"}, "type": "Feature"}
{"geometry": {"coordinates": [-87.6170991, 41.634119], "type": "Point"}, "id": "dlBauF1AF-xGAvvdvTSIrImRZMw=", "properties": {"@spider": "usps_collection_boxes", "addr:city": "DOLTON", "addr:country": "US", "addr:full": "200 E 144TH ST", "addr:postcode": "60419", "addr:state": "IL", "brand": "USPS", "collection_times": "Mo-Sa 11:30", "name": "USPS COLLECTION BOX - BLUE BOX", "ref": "6041900013"}, "type": "Feature"}
{"geometry": {"coordinates": [-87.5999788, 41.629423], "type": "Point"}, "id": "mNF5CQV1-2woFbWlSinmQHZ1CZg=", "properties": {"@spider": "usps_collection_boxes", "addr:city": "DOLTON", "addr:country": "US", "addr:full": "14635 GREENWOOD RD", "addr:postcode": "60419", "addr:state": "IL", "brand": "USPS", "collection_times": "Mo-Sa 11:30", "name": "USPS COLLECTION BOX - BLUE BOX", "ref": "6041900014"}, "type": "Feature"}
{"geometry": {"coordinates": [-87.584047, 41.622976], "type": "Point"}, "id": "BmNb08fCrzyLKBZoF5-8PKUaVnY=", "properties": {"@spider": "usps_collection_boxes", "addr:city": "DOLTON", "addr:country": "US", "addr:full": "1350 E SIBLEY BLVD", "addr:postcode": "60419", "addr:state": "IL", "brand": "USPS", "collection_times": "Mo-Fr 16:45; Sa 11:00", "name": "USPS COLLECTION BOX - BLUE BOX", "note": "ON 12/24 AND 12/31, THIS BOX MAY BE COLLECTED AS EARLY AS 12 NOON.", "ref": "6041900016"}, "type": "Feature"}
{"geometry": {"coordinates": [-87.584082, 41.622972], "type": "Point"}, "id": "Pzd1geWI4jTM-vWuekMyylrX13w=", "properties": {"@spider": "usps_collection_boxes", "addr:city": "DOLTON", "addr:country": "US", "addr:full": "1350 E SIBLEY BLVD", "addr:postcode": "60419", "addr:state": "IL", "brand": "USPS", "collection_times": "Mo-Fr 16:45; Sa 11:00", "name": "USPS COLLECTION BOX - BLUE BOX", "note": "ON 12/24 AND 12/31, THIS BOX MAY BE COLLECTED AS EARLY AS 12 NOON.", "ref": "6041900017"}, "type": "Feature"}
{"geometry": {"coordinates": [-87.5839103, 41.622981], "type": "Point"}, "id": "zGeomDu49uIeNCV2IygUymmNFj8=", "properties": {"@spider": "usps_collection_boxes", "addr:city": "DOLTON", "addr:country": "US", "addr:full": "1350 E SIBLEY BLVD", "addr:postcode": "60419", "addr:state": "IL", "brand": "USPS", "collection_times": "Mo-Fr 16:45; Sa 11:00", "name": "USPS COLLECTION BOX - EXPRESS", "note": "ON 12/24 AND 12/31, THIS BOX MAY BE COLLECTED AS EARLY AS 12 NOON.", "ref": "6041900018"}, "type": "Feature"}
{"geometry": {"coordinates": [-87.597916862, 41.636847516], "type": "Point"}, "id": "Ixvr3r-jiKnVT2rN1_G3Lx-N1Gk=", "properties": {"@spider": "usps_collection_boxes", "addr:city": "DOLTON", "addr:country": "US", "addr:full": "14212 COTTAGE GROVE AVE", "addr:postcode": "60419", "addr:state": "IL", "brand": "USPS", "collection_times": "Mo-Fr 17:00; Sa 15:00", "name": "USPS COLLECTION BOX - BLUE BOX", "note": "ON 12/24 AND 12/31, THIS BOX MAY BE COLLECTED AS EARLY AS 12 NOON.", "ref": "6041900024"}, "type": "Feature"}
{"geometry": {"coordinates": [-87.597916862, 41.636847516], "type": "Point"}, "id": "25nA2ApWMrCpU9URBjAz4_6B5Bo=", "properties": {"@spider": "usps_collection_boxes", "addr:city": "DOLTON", "addr:country": "US", "addr:full": "14212 COTTAGE GROVE AVE", "addr:postcode": "60419", "addr:state": "IL", "brand": "USPS", "collection_times": "Mo-Fr 17:00; Sa 15:00", "name": "USPS COLLECTION BOX - EXPRESS", "note": "ON 12/24 AND 12/31, THIS BOX MAY BE COLLECTED AS EARLY AS 12 NOON.", "ref": "6041900026"}, "type": "Feature"}
{"geometry": {"coordinates": [-87.597916862, 41.636847516], "type": "Point"}, "id": "KBlhJ9wV2ixVES768Gh9dPGGoSg=", "properties": {"@spider": "usps_collection_boxes", "addr:city": "DOLTON", "addr:country": "US", "addr:full": "14212 COTTAGE GROVE AVE", "addr:postcode": "60419", "addr:state": "IL", "brand": "USPS", "collection_times": "Mo-Fr 17:00; Sa 15:00", "name": "USPS COLLECTION BOX - PO LOBBY", "note": "ON 12/24 AND 12/31, THIS BOX MAY BE COLLECTED AS EARLY AS 12 NOON.", "ref": "6041900028"}, "type": "Feature"}
{"geometry": {"coordinates": [-87.597916862, 41.636847516], "type": "Point"}, "id": "Vmau8dXFfdzEEsxR8uqWmsua2MA=", "properties": {"@spider": "usps_collection_boxes", "addr:city": "DOLTON", "addr:country": "US", "addr:full": "14212 COTTAGE GROVE AVE", "addr:postcode": "60419", "addr:state": "IL", "brand": "USPS", "collection_times": "Mo-Fr 17:00; Sa 14:00", "name": "USPS COLLECTION BOX - PO LOBBY", "note": "ON 12/24 AND 12/31, THIS BOX MAY BE COLLECTED AS EARLY AS 12 NOON.", "ref": "6041900030"}, "type": "Feature"}
{"geometry": {"coordinates": [-88.428808387, 41.094112537], "type": "Point"}, "id": "sVnpiw4B7uqF-qMuv8VyMCPocYE=", "properties": {"@spider": "usps_collection_boxes", "addr:city": "DWIGHT", "addr:country": "US", "addr:full": "100 E MAZON AVE", "addr:postcode": "60420", "addr:state": "IL", "brand": "USPS", "collection_times": "Mo-Fr 16:45; Sa 15:30", "name": "USPS COLLECTION BOX - BLUE BOX", "note": "ON 12/24 AND 12/31, THIS BOX MAY BE COLLECTED AS EARLY AS 12 NOON.", "ref": "6042000002"}, "type": "Feature"}
{"geometry": {"coordinates": [-88.428808387, 41.094112537], "type": "Point"}, "id": "JCe35VXzE_MRyCdgp2ROvy5k8g4=", "properties": {"@spider": "usps_collection_boxes", "addr:city": "DWIGHT", "addr:country": "US", "addr:full": "100 E MAZON AVE", "addr:postcode": "60420", "addr:state": "IL", "brand": "USPS", "collection_times": "Mo-Fr 16:45; Sa 15:30", "name": "USPS COLLECTION BOX - BLUE BOX", "note": "ON 12/24 AND 12/31, THIS BOX MAY BE COLLECTED AS EARLY AS 12 NOON.", "ref": "6042000003"}, "type": "Feature"}
{"geometry": {"coordinates": [-88.428808387, 41.094112537], "type": "Point"}, "id": "Ut1m5_Qyj33APM9JlNgPLxNQkyE=", "properties": {"@spider": "usps_collection_boxes", "addr:city": "DWIGHT", "addr:country": "US", "addr:full": "100 E MAZON AVE", "addr:postcode": "60420", "addr:state": "IL", "brand": "USPS", "collection_times": "Mo-Fr 16:45; Sa 15:30", "name": "USPS COLLECTION BOX - BLUE BOX", "note": "ON 12/24 AND 12/31, THIS BOX MAY BE COLLECTED AS EARLY AS 12 NOON.", "ref": "6042000004"}, "type": "Feature"}
{"geometry": {"coordinates": [-88.4282989, 41.092926], "type": "Point"}, "id": "v2mX5AXv_MzS_llKhorHRdMrWPo=", "properties": {"@spider": "usps_collection_boxes", "addr:city": "DWIGHT", "addr:country": "US", "addr:full": "122 W MAIN ST", "addr:postcode": "60420", "addr:state": "IL", "brand": "USPS", "collection_times": "Mo-Fr 14:00; Sa 13:00", "name": "USPS COLLECTION BOX - BLUE BOX", "note": "ON 12/24 AND 12/31, THIS BOX MAY BE COLLECTED AS EARLY AS 12 NOON.", "ref": "6042000007"}, "type": "Feature"}
{"geometry": {"coordinates": [-88.4270052, 41.092688], "type": "Point"}, "id": "aESBq90m1d8NOoyTkdZGRzwVnF0=", "properties": {"@spider": "usps_collection_boxes", "addr:city": "DWIGHT", "addr:country": "US", "addr:full": "132 E MAIN ST", "addr:postcode": "60420", "addr:state": "IL", "brand": "USPS", "collection_times": "Mo-Sa 09:00", "name": "USPS COLLECTION BOX - BLUE BOX", "ref": "6042000012"}, "type": "Feature"}
{"geometry": {"coordinates": [-88.4368647, 41.095925], "type": "Point"}, "id": "UhtiiQ7muWlpumrurT1AUZwwgVE=", "properties": {"@spider": "usps_collection_boxes", "addr:city": "DWIGHT", "addr:country": "US", "addr:full": "317 W WAUPANSIE ST", "addr:postcode": "60420", "addr:state": "IL", "brand": "USPS", "collection_times": "Mo-Sa 09:30", "name": "USPS COLLECTION BOX - BLUE BOX", "ref": "6042000013"}, "type": "Feature"}
{"geometry": {"coordinates": [-88.428808387, 41.094112537], "type": "Point"}, "id": "G2WU19WpoylLgLQP6ETn5o7Aicg=", "properties": {"@spider": "usps_collection_boxes", "addr:city": "DWIGHT", "addr:country": "US", "addr:full": "100 E MAZON AVE", "addr:postcode": "60420", "addr:state": "IL", "brand": "USPS", "collection_times": "Mo-Fr 16:45; Sa 15:30", "name": "USPS COLLECTION BOX - PO LOBBY", "note": "ON 12/24 AND 12/31, THIS BOX MAY BE COLLECTED AS EARLY AS 12 NOON.", "ref": "6042000014"}, "type": "Feature"}
{"geometry": {"coordinates": [-88.428808387, 41.094112537], "type": "Point"}, "id": "X24skxG6rlAuWQl0wlTrIOiFemk=", "properties": {"@spider": "usps_collection_boxes", "addr:city": "DWIGHT", "addr:country": "US", "addr:full": "100 E MAZON AVE", "addr:postcode": "60420", "addr:state": "IL", "brand": "USPS", "collection_times": "Mo-Fr 16:30; Sa 12:00", "name": "USPS COLLECTION BOX - PO LOBBY", "note": "ON 12/24 AND 12/31, THIS BOX MAY BE COLLECTED AS EARLY AS 12 NOON.", "ref": "6042000017"}, "type": "Feature"}
{"geometry": {"coordinates": [-88.1071335, 41.404156479], "type": "Point"}, "id": "zv1bivBr8bYfOb56nAc_6ixjXoM=", "properties": {"@spider": "usps_collection_boxes", "addr:city": "ELWOOD", "addr:country": "US", "addr:full": "303 E MISSISSIPPI AVE", "addr:postcode": "60421", "addr:state": "IL", "brand": "USPS", "collection_times": "Mo-Fr 16:30; Sa 11:00", "name": "USPS COLLECTION BOX - PO LOBBY", "note": "ON 12/24 AND 12/31, THIS BOX MAY BE COLLECTED AS EARLY AS 12 NOON.", "ref": "6042100005"}, "type": "Feature"}
{"geometry": {"coordinates": [-88.1071335, 41.404156479], "type": "Point"}, "id": "e1Y1rLiSwzJ31KrgxvMniTipzmA=", "properties": {"@spider": "usps_collection_boxes", "addr:city": "ELWOOD", "addr:country": "US", "addr:full": "303 E MISSISSIPPI AVE", "addr:postcode": "60421", "addr:state": "IL", "brand": "USPS", "collection_times": "Mo-Fr 16:30; Sa 11:00", "name": "USPS COLLECTION BOX - BLUE BOX", "note": "ON 12/24 AND 12/31, THIS BOX MAY BE COLLECTED AS EARLY AS 12 NOON.", "ref": "6042100006"}, "type": "Feature"}
{"geometry": {"coordinates": [-88.1071335, 41.404156479], "type": "Point"}, "id": "PSR04eKqqKzSuYhtiOOMglU92y0=", "properties": {"@spider": "usps_collection_boxes", "addr:city": "ELWOOD", "addr:country": "US", "addr:full": "303 E MISSISSIPPI AVE", "addr:postcode": "60421", "addr:state": "IL", "brand": "USPS", "collection_times": "Mo-Fr 16:30; Sa 11:00", "name": "USPS COLLECTION BOX - PO LOBBY", "note": "ON 12/24 AND 12/31, THIS BOX MAY BE COLLECTED AS EARLY AS 12 NOON.", "ref": "6042100007"}, "type": "Feature"}
{"geometry": {"coordinates": [-87.679452872, 41.544232448], "type": "Point"}, "id": "jVcCTFKokLKkT2cfxRFYEj0g8UI=", "properties": {"@spider": "usps_collection_boxes", "addr:city": "FLOSSMOOR", "addr:country": "US", "addr:full": "1020 PARK DR", "addr:postcode": "60422", "addr:state": "IL", "brand": "USPS", "collection_times": "Mo-Fr 17:45; Sa 13:00", "name": "USPS COLLECTION BOX - BLUE BOX", "note": "ON 12/24 AND 12/31, THIS BOX MAY BE COLLECTED AS EARLY AS 12 NOON.", "ref": "6042200001"}, "type": "Feature"}
{"geometry": {"coordinates": [-87.679452872, 41.544232448], "type": "Point"}, "id": "Mji_e17TP4rYvFeBcqkOsbIev3I=", "properties": {"@spider": "usps_collection_boxes", "addr:city": "FLOSSMOOR", "addr:country": "US", "addr:full": "1020 PARK DR", "addr:postcode": "60422", "addr:state": "IL", "brand": "USPS", "collection_times": "Mo-Fr 17:45; Sa 13:00", "name": "USPS COLLECTION BOX - BLUE BOX", "note": "ON 12/24 AND 12/31, THIS BOX MAY BE COLLECTED AS EARLY AS 12 NOON.", "ref": "6042200003"}, "type": "Feature"}
{"geometry": {"coordinates": [-87.679452872, 41.544232448], "type": "Point"}, "id": "IpBoOUcE6Z48qhxLT9_TFE5GRnQ=", "properties": {"@spider": "usps_collection_boxes", "addr:city": "FLOSSMOOR", "addr:country": "US", "addr:full": "1020 PARK DR", "addr:postcode": "60422", "addr:state": "IL", "brand": "USPS", "collection_times": "Mo-Fr 17:45; Sa 13:00", "name": "USPS COLLECTION BOX - EXPRESS", "note": "ON 12/24 AND 12/31, THIS BOX MAY BE COLLECTED AS EARLY AS 12 NOON.", "ref": "6042200004"}, "type": "Feature"}
{"geometry": {"coordinates": [-87.6965299, 41.528305], "type": "Point"}, "id": "9lYCQ4WqnvEW096W-ZlCoBFMG48=", "properties": {"@spider": "usps_collection_boxes", "addr:city": "FLOSSMOOR", "addr:country": "US", "addr:full": "3311 VOLLMER RD", "addr:postcode": "60422", "addr:state": "IL", "brand": "USPS", "collection_times": "Mo-Sa 09:00", "name": "USPS COLLECTION BOX - BLUE BOX", "ref": "6042200010"}, "type": "Feature"}
{"geometry": {"coordinates": [-87.6852684, 41.542495], "type": "Point"}, "id": "Vo0I61h5Hq_1DU82VUs8-8lQalk=", "properties": {"@spider": "usps_collection_boxes", "addr:city": "FLOSSMOOR", "addr:country": "US", "addr:full": "2800 FLOSSMOOR RD", "addr:postcode": "60422", "addr:state": "IL", "brand": "USPS", "collection_times": "Mo-Sa 10:00", "name": "USPS COLLECTION BOX - BLUE BOX", "ref": "6042200013"}, "type": "Feature"}
{"geometry": {"coordinates": [-87.679452872, 41.544232448], "type": "Point"}, "id": "i1QDEUfHOwxqqiM-pISBnkDNnrI=", "properties": {"@spider": "usps_collection_boxes", "addr:city": "FLOSSMOOR", "addr:country": "US", "addr:full": "1020 PARK DR", "addr:postcode": "60422", "addr:state": "IL", "brand": "USPS", "collection_times": "Mo-Fr 17:00; Sa 12:00", "name": "USPS COLLECTION BOX - PO LOBBY", "note": "ON 12/24 AND 12/31, THIS BOX MAY BE COLLECTED AS EARLY AS 12 NOON.", "ref": "6042200014"}, "type": "Feature"}
{"geometry": {"coordinates": [-87.679452872, 41.544232448], "type": "Point"}, "id": "DB_rh6iJ45PyPmDxIFZH6T-p4UE=", "properties": {"@spider": "usps_collection_boxes", "addr:city": "FLOSSMOOR", "addr:country": "US", "addr:full": "1020 PARK DR", "addr:postcode": "60422", "addr:state": "IL", "brand": "USPS", "collection_times": "Mo-Fr 17:45; Sa 15:00", "name": "USPS COLLECTION BOX - PO LOBBY", "note": "ON 12/24 AND 12/31, THIS BOX MAY BE COLLECTED AS EARLY AS 12 NOON.", "ref": "6042200017"}, "type": "Feature"}
{"geometry": {"coordinates": [-87.8675355, 41.50404], "type": "Point"}, "id": "GClv6qa6L2NY_884bdLTJy_y3-0=", "properties": {"@spider": "usps_collection_boxes", "addr:city": "FRANKFORT", "addr:country": "US", "addr:full": "21201 S ELSNER RD", "addr:postcode": "60423", "addr:state": "IL", "brand": "USPS", "collection_times": "Mo-Fr 17:00; Sa 14:45", "name": "USPS COLLECTION BOX - BLUE BOX", "note": "ON 12/24 AND 12/31, THIS BOX MAY BE COLLECTED AS EARLY AS 12 NOON.", "ref": "6042300002"}, "type": "Feature"}
{"geometry": {"coordinates": [-87.8675355, 41.50404], "type": "Point"}, "id": "hQb4QnCIrm7LOmPZznZx-DU29VM=", "properties": {"@spider": "usps_collection_boxes", "addr:city": "FRANKFORT", "addr:country": "US", "addr:full": "21201 S ELSNER RD", "addr:postcode": "60423", "addr:state": "IL", "brand": "USPS", "collection_times": "Mo-Fr 17:00; Sa 14:45", "name": "USPS COLLECTION BOX - EXPRESS", "note": "ON 12/24 AND 12/31, THIS BOX MAY BE COLLECTED AS EARLY AS 12 NOON.", "ref": "6042300004"}, "type": "Feature"}
{"geometry": {"coordinates": [-87.850871015, 41.497932999], "type": "Point"}, "id": "q4Q1O-QFvlTlWSABdaxU9WgihLU=", "properties": {"@spider": "usps_collection_boxes", "addr:city": "FRANKFORT", "addr:country": "US", "addr:full": "39 W NEBRASKA ST", "addr:postcode": "60423", "addr:state": "IL", "brand": "USPS", "collection_times": "Mo-Sa 11:00", "name": "USPS COLLECTION BOX - BLUE BOX", "ref": "6042300005"}, "type": "Feature"}
{"geometry": {"coordinates": [-87.8585273, 41.506084], "type": "Point"}, "id": "CrNmh1ggXlMe4SV3vuyPBXWB0BE=", "properties": {"@spider": "usps_collection_boxes", "addr:city": "FRANKFORT", "addr:country": "US", "addr:full": "340 W LINCOLN HWY", "addr:postcode": "60423", "addr:state": "IL", "brand": "USPS", "collection_times": "Mo-Sa 11:00", "name": "USPS COLLECTION BOX - BLUE BOX", "ref": "6042300006"}, "type": "Feature"}
{"geometry": {"coordinates": [-87.8477455, 41.510532], "type": "Point"}, "id": "s8xAjB3DtulOpcTn80wWFuSdmNI=", "properties": {"@spider": "usps_collection_boxes", "addr:city": "FRANKFORT", "addr:country": "US", "addr:full": "655 N LAGRANGE RD", "addr:postcode": "60423", "addr:state": "IL", "brand": "USPS", "collection_times": "Mo-Sa 11:00", "name": "USPS COLLECTION BOX - BLUE BOX", "ref": "6042300007"}, "type": "Feature"}
{"geometry": {"coordinates": [-87.8499988, 41.510968], "type": "Point"}, "id": "ZW4ghdq7_UsWbrjlMHK0Conut1I=", "properties": {"@spider": "usps_collection_boxes", "addr:city": "FRANKFORT", "addr:country": "US", "addr:full": "690 N LAGRANGE RD", "addr:postcode": "60423", "addr:state": "IL", "brand": "USPS", "collection_times": "Mo-Sa 11:00", "name": "USPS COLLECTION BOX - BLUE BOX", "ref": "6042300008"}, "type": "Feature"}
{"geometry": {"coordinates": [-87.8529307, 41.505262], "type": "Point"}, "id": "p62tqamzaOgLam-uyiGtAUa1lr0=", "properties": {"@spider": "usps_collection_boxes", "addr:city": "FRANKFORT", "addr:country": "US", "addr:full": "354 N LAGRANGE RD", "addr:postcode": "60423", "addr:state": "IL", "brand": "USPS", "collection_times": "Mo-Sa 11:00", "name": "USPS COLLECTION BOX - BLUE BOX", "ref": "6042300009"}, "type": "Feature"}
{"geometry": {"coordinates": [-87.8028666, 41.50768], "type": "Point"}, "id": "j3jPrwqRENmJd28VHEULY-NeJ0A=", "properties": {"@spider": "usps_collection_boxes", "addr:city": "FRANKFORT", "addr:country": "US", "addr:full": "21000 S FRANKFORT SQUARE RD", "addr:postcode": "60423", "addr:state": "IL", "brand": "USPS", "collection_times": "Mo-Sa 11:00", "name": "USPS COLLECTION BOX - BLUE BOX", "ref": "6042300010"}, "type": "Feature"}
{"geometry": {"coordinates": [-87.850033998, 41.499070004], "type": "Point"}, "id": "hAB37HkUKw-zFJcRUoA-1GL6iFg=", "properties": {"@spider": "usps_collection_boxes", "addr:city": "FRANKFORT", "addr:country": "US", "addr:full": "6 ELWOOD ST", "addr:postcode": "60423", "addr:state": "IL", "brand": "USPS", "collection_times": "Mo-Sa 11:00", "name": "USPS COLLECTION BOX - BLUE BOX", "ref": "6042300013"}, "type": "Feature"}
{"geometry": {"coordinates": [-87.8022199, 41.520774], "type": "Point"}, "id": "YMUvO6GspRq0lzfXUC6kB_lAh80=", "properties": {"@spider": "usps_collection_boxes", "addr:city": "FRANKFORT", "addr:country": "US", "addr:full": "7655 W SAINT FRANCIS RD", "addr:postcode": "60423", "addr:state": "IL", "brand": "USPS", "collection_times": "Mo-Sa 11:00", "name": "USPS COLLECTION BOX - BLUE BOX", "ref": "6042300014"}, "type": "Feature"}
{"geometry": {"coordinates": [-87.8477263, 41.51051], "type": "Point"}, "id": "9Re4i15hfCwzRWls_DtUQzxui68=", "properties": {"@spider": "usps_collection_boxes", "addr:city": "FRANKFORT", "addr:country": "US", "addr:full": "655 N LA GRANGE RD", "addr:postcode": "60423", "addr:state": "IL", "brand": "USPS", "collection_times": "Mo-Sa 11:00", "name": "USPS COLLECTION BOX - EXPRESS", "ref": "6042300015"}, "type": "Feature"}
{"geometry": {"coordinates": [-87.8893217, 41.542079], "type": "Point"}, "id": "abo-N_wYMIvbKgUbpYbRp4Gfi5k=", "properties": {"@spider": "usps_collection_boxes", "addr:city": "FRANKFORT", "addr:country": "US", "addr:full": "19101 WOLF RD", "addr:postcode": "60423", "addr:state": "IL", "brand": "USPS", "collection_times": "Mo-Sa 11:00", "name": "USPS COLLECTION BOX - BLUE BOX", "ref": "6042300016"}, "type": "Feature"}
{"geometry": {"coordinates": [-87.8459305, 41.542206], "type": "Point"}, "id": "HRSEiUAgVJqrlMDG6a9Lspoz4IM=", "properties": {"@spider": "usps_collection_boxes", "addr:city": "FRANKFORT", "addr:country": "US", "addr:full": "19131 HENRY DR", "addr:postcode": "60423", "addr:state": "IL", "brand": "USPS", "collection_times": "Mo-Sa 11:00", "name": "USPS COLLECTION BOX - BLUE BOX", "ref": "6042300024"}, "type": "Feature"}
{"geometry": {"coordinates": [-87.86879432, 41.504021141], "type": "Point"}, "id": "WQjkxX1c5Fh1V7LW3qn5B2M9f1s=", "properties": {"@spider": "usps_collection_boxes", "addr:city": "FRANKFORT", "addr:country": "US", "addr:full": "21201 S ELSNER RD", "addr:postcode": "60423", "addr:state": "IL", "brand": "USPS", "collection_times": "Mo-Fr 17:00; Sa 14:45", "name": "USPS COLLECTION BOX - PO LOBBY", "note": "ON 12/24 AND 12/31, THIS BOX MAY BE COLLECTED AS EARLY AS 12 NOON.", "ref": "6042300026"}, "type": "Feature"}
{"geometry": {"coordinates": [-87.8433594, 41.48437], "type": "Point"}, "id": "-WcXNWgoO2s0OxACKzGLa6WbvoU=", "properties": {"@spider": "usps_collection_boxes", "addr:city": "FRANKFORT", "addr:country": "US", "addr:full": "9375 W LARAWAY RD", "addr:postcode": "60423", "addr:state": "IL", "brand": "USPS", "collection_times": "Mo-Sa 11:00", "name": "USPS COLLECTION BOX - BLUE BOX", "ref": "6042300027"}, "type": "Feature"}
{"geometry": {"coordinates": [-87.86879432, 41.504021141], "type": "Point"}, "id": "3Z_zf2ut7OrfN15tt4S11-wekIY=", "properties": {"@spider": "usps_collection_boxes", "addr:city": "FRANKFORT", "addr:country": "US", "addr:full": "21201 S ELSNER RD", "addr:postcode": "60423", "addr:state": "IL", "brand": "USPS", "collection_times": "Mo-Fr 17:00; Sa 14:45", "name": "USPS COLLECTION BOX - APC", "note": "ON 12/24 AND 12/31, THIS BOX MAY BE COLLECTED AS EARLY AS 12 NOON.", "ref": "6042300028"}, "type": "Feature"}
{"geometry": {"coordinates": [-87.86879432, 41.504021141], "type": "Point"}, "id": "CBxIrG0oFxJ2XQ1ODHQSgVAn3Hk=", "properties": {"@spider": "usps_collection_boxes", "addr:city": "FRANKFORT", "addr:country": "US", "addr:full": "21201 S ELSNER RD", "addr:postcode": "60423", "addr:state": "IL", "brand": "USPS", "collection_times": "Mo-Fr 17:00; Sa 15:00", "name": "USPS COLLECTION BOX - PO LOBBY", "note": "ON 12/24 AND 12/31, THIS BOX MAY BE COLLECTED AS EARLY AS 12 NOON.", "ref": "6042300033"}, "type": "Feature"}
{"geometry": {"coordinates": [-88.307990885, 41.187374488], "type": "Point"}, "id": "4LnXRTPq4ug7WUoo2clkWN3aMfg=", "properties": {"@spider": "usps_collection_boxes", "addr:city": "GARDNER", "addr:country": "US", "addr:full": "106 E JEFFERSON ST", "addr:postcode": "60424", "addr:state": "IL", "brand": "USPS", "collection_times": "Mo-Fr 16:30; Sa 14:00", "name": "USPS COLLECTION BOX - BLUE BOX", "note": "ON 12/24 AND 12/31, THIS BOX MAY BE COLLECTED AS EARLY AS 12 NOON.", "ref": "6042400005"}, "type": "Feature"}
{"geometry": {"coordinates": [-88.307990885, 41.187374488], "type": "Point"}, "id": "WCbopqO5rS6cflfhWJaKBAHT98U=", "properties": {"@spider": "usps_collection_boxes", "addr:city": "GARDNER", "addr:country": "US", "addr:full": "106 E JEFFERSON ST", "addr:postcode": "60424", "addr:state": "IL", "brand": "USPS", "collection_times": "Mo-Fr 16:30; Sa 14:00", "name": "USPS COLLECTION BOX - PO LOBBY", "note": "ON 12/24 AND 12/31, THIS BOX MAY BE COLLECTED AS EARLY AS 12 NOON.", "ref": "6042400007"}, "type": "Feature"}
{"geometry": {"coordinates": [-88.307990885, 41.187374488], "type": "Point"}, "id": "7C1DRu2bQxkngap1mf86h3WwdT8=", "properties": {"@spider": "usps_collection_boxes", "addr:city": "GARDNER", "addr:country": "US", "addr:full": "106 E JEFFERSON ST", "addr:postcode": "60424", "addr:state": "IL", "brand": "USPS", "collection_times": "Mo-Fr 16:30; Sa 10:30", "name": "USPS COLLECTION BOX - PO LOBBY", "note": "ON 12/24 AND 12/31, THIS BOX MAY BE COLLECTED AS EARLY AS 12 NOON.", "ref": "6042400008"}, "type": "Feature"}
{"geometry": {"coordinates": [-87.61337307, 41.544096808], "type": "Point"}, "id": "LvlHqR8DoICnvcECboYD6xZc1VA=", "properties": {"@spider": "usps_collection_boxes", "addr:city": "GLENWOOD", "addr:country": "US", "addr:full": "19 W MAIN ST", "addr:postcode": "60425", "addr:state": "IL", "brand": "USPS", "collection_times": "Mo-Fr 17:30; Sa 13:00", "name": "USPS COLLECTION BOX - BLUE BOX", "note": "ON 12/24 AND 12/31, THIS BOX MAY BE COLLECTED AS EARLY AS 12 NOON.", "ref": "6042500001"}, "type": "Feature"}
{"geometry": {"coordinates": [-87.61337307, 41.544096808], "type": "Point"}, "id": "siKVddks1t-ufuPkej1FeiiocEI=", "properties": {"@spider": "usps_collection_boxes", "addr:city": "GLENWOOD", "addr:country": "US", "addr:full": "19 W MAIN ST", "addr:postcode": "60425", "addr:state": "IL", "brand": "USPS", "collection_times": "Mo-Fr 17:30; Sa 13:00", "name": "USPS COLLECTION BOX - EXPRESS", "note": "ON 12/24 AND 12/31, THIS BOX MAY BE COLLECTED AS EARLY AS 12 NOON.", "ref": "6042500002"}, "type": "Feature"}
{"geometry": {"coordinates": [-87.6360132534, 41.5569775284], "type": "Point"}, "id": "yaeEWarykmY0zaVawTjR3J9C4OM=", "properties": {"@spider": "usps_collection_boxes", "addr:city": "GLENWOOD", "addr:country": "US", "addr:full": "18301 S HALSTED ST", "addr:postcode": "60425", "addr:state": "IL", "brand": "USPS", "collection_times": "Mo-Sa 09:00", "name": "USPS COLLECTION BOX - BLUE BOX", "ref": "6042500005"}, "type": "Feature"}
{"geometry": {"coordinates": [-87.6320308, 41.53926], "type": "Point"}, "id": "VAgfYTr4i0f-jATkeMlGaZADcSQ=", "properties": {"@spider": "usps_collection_boxes", "addr:city": "GLENWOOD", "addr:country": "US", "addr:full": "701 W HOLBROOK RD", "addr:postcode": "60425", "addr:state": "IL", "brand": "USPS", "collection_times": "Mo-Fr 17:30; Sa 13:00", "name": "USPS COLLECTION BOX - BLUE BOX", "note": "ON 12/24 AND 12/31, THIS BOX MAY BE COLLECTED AS EARLY AS 12 NOON.", "ref": "6042500017"}, "type": "Feature"}
{"geometry": {"coordinates": [-87.61337307, 41.544096808], "type": "Point"}, "id": "WA2Jczjklq9bo2G1_BVb82tJJ8Y=", "properties": {"@spider": "usps_collection_boxes", "addr:city": "GLENWOOD", "addr:country": "US", "addr:full": "19 W MAIN ST", "addr:postcode": "60425", "addr:state": "IL", "brand": "USPS", "collection_times": "Mo-Fr 16:30; Sa 12:00", "name": "USPS COLLECTION BOX - PO LOBBY", "note": "ON 12/24 AND 12/31, THIS BOX MAY BE COLLECTED AS EARLY AS 12 NOON.", "ref": "6042500019"}, "type": "Feature"}
{"geometry": {"coordinates": [-87.61337307, 41.544096808], "type": "Point"}, "id": "-UrNQKl807u0VYrZi-kSEsDuRi8=", "properties": {"@spider": "usps_collection_boxes", "addr:city": "GLENWOOD", "addr:country": "US", "addr:full": "19 W MAIN ST", "addr:postcode": "60425", "addr:state": "IL", "brand": "USPS", "collection_times": "Mo-Fr 16:30; Sa 12:00", "name": "USPS COLLECTION BOX - PO LOBBY", "note": "ON 12/24 AND 12/31, THIS BOX MAY BE COLLECTED AS EARLY AS 12 NOON.", "ref": "6042500021"}, "type": "Feature"}
{"geometry": {"coordinates": [-87.646145638, 41.609164121], "type": "Point"}, "id": "XeetMEzRFYkXui1Lbl5pDs7Qrwc=", "properties": {"@spider": "usps_collection_boxes", "addr:city": "HARVEY", "addr:country": "US", "addr:full": "15441 CENTER AVE", "addr:postcode": "60426", "addr:state": "IL", "brand": "USPS", "collection_times": "Mo-Fr 17:00; Sa 15:00", "name": "USPS COLLECTION BOX - BLUE BOX", "note": "ON 12/24 AND 12/31, THIS BOX MAY BE COLLECTED AS EARLY AS 12 NOON.", "ref": "6042600004"}, "type": "Feature"}
{"geometry": {"coordinates": [-87.6369721, 41.588459], "type": "Point"}, "id": "lQFbfitFfR-QlGunr1X5NPUn0J0=", "properties": {"@spider": "usps_collection_boxes", "addr:city": "HARVEY", "addr:country": "US", "addr:full": "16540 HALSTED ST", "addr:postcode": "60426", "addr:state": "IL", "brand": "USPS", "collection_times": "Mo-Sa 09:10", "name": "USPS COLLECTION BOX - BLUE BOX", "ref": "6042600014"}, "type": "Feature"}
{"geometry": {"coordinates": [-87.6597213, 41.608047], "type": "Point"}, "id": "8FROzx0pmX5F-odahLOSeuckL6I=", "properties": {"@spider": "usps_collection_boxes", "addr:city": "HARVEY", "addr:country": "US", "addr:full": "1 INGALLS DR", "addr:postcode": "60426", "addr:state": "IL", "brand": "USPS", "collection_times": "Mo-Sa 09:30", "name": "USPS COLLECTION BOX - BLUE BOX", "ref": "6042600030"}, "type": "Feature"}
{"geometry": {"coordinates": [-87.6318577, 41.615312], "type": "Point"}, "id": "a-DfMeYFiuGyGwU13gCH9LQtw5Q=", "properties": {"@spider": "usps_collection_boxes", "addr:city": "HARVEY", "addr:country": "US", "addr:full": "633 E 151ST ST", "addr:postcode": "60426", "addr:state": "IL", "brand": "USPS", "collection_times": "Mo-Sa 10:00", "name": "USPS COLLECTION BOX - BLUE BOX", "ref": "6042600039"}, "type": "Feature"}
{"geometry": {"coordinates": [-87.646145638, 41.609164121], "type": "Point"}, "id": "6WFqRIGEG2WKk2R0M48WLQTv7qs=", "properties": {"@spider": "usps_collection_boxes", "addr:city": "HARVEY", "addr:country": "US", "addr:full": "15441 CENTER AVE", "addr:postcode": "60426", "addr:state": "IL", "brand": "USPS", "collection_times": "Mo-Fr 17:00; Sa 15:00", "name": "USPS COLLECTION BOX - EXPRESS", "note": "ON 12/24 AND 12/31, THIS BOX MAY BE COLLECTED AS EARLY AS 12 NOON.", "ref": "6042600049"}, "type": "Feature"}
{"geometry": {"coordinates": [-87.6741581, 41.621678], "type": "Point"}, "id": "5Ri4EvKmMrFECtEs5EqE0ejO1LQ=", "properties": {"@spider": "usps_collection_boxes", "addr:city": "HARVEY", "addr:country": "US", "addr:full": "14725 DIXIE HWY", "addr:postcode": "60426", "addr:state": "IL", "brand": "USPS", "collection_times": "Mo-Sa 09:30", "name": "USPS COLLECTION BOX - BLUE BOX", "ref": "6042600058"}, "type": "Feature"}
{"geometry": {"coordinates": [-87.646145638, 41.609164121], "type": "Point"}, "id": "rqTCHYNJ-JK-uQhsW3xwqUUhJbo=", "properties": {"@spider": "usps_collection_boxes", "addr:city": "HARVEY", "addr:country": "US", "addr:full": "15441 CENTER AVE", "addr:postcode": "60426", "addr:state": "IL", "brand": "USPS", "collection_times": "Mo-Fr 17:00; Sa 15:00", "name": "USPS COLLECTION BOX - PO LOBBY", "note": "ON 12/24 AND 12/31, THIS BOX MAY BE COLLECTED AS EARLY AS 12 NOON.", "ref": "6042600063"}, "type": "Feature"}
{"geometry": {"coordinates": [-87.6411655, 41.622325], "type": "Point"}, "id": "MUZjt-pE5wlU-jGdOeDV4lLvgfw=", "properties": {"@spider": "usps_collection_boxes", "addr:city": "HARVEY", "addr:country": "US", "addr:full": "14701 HALSTED ST", "addr:postcode": "60426", "addr:state": "IL", "brand": "USPS", "collection_times": "Mo-Sa 09:45", "name": "USPS COLLECTION BOX - BLUE BOX", "ref": "6042600064"}, "type": "Feature"}
{"geometry": {"coordinates": [-87.646145638, 41.609164121], "type": "Point"}, "id": "fijFSCwWLqbaqZ_drfUn_lyFofk=", "properties": {"@spider": "usps_collection_boxes", "addr:city": "HARVEY", "addr:country": "US", "addr:full": "15441 CENTER AVE", "addr:postcode": "60426", "addr:state": "IL", "brand": "USPS", "collection_times": "Mo-Fr 17:00; Sa 15:00", "name": "USPS COLLECTION BOX - BLUE BOX", "note": "ON 12/24 AND 12/31, THIS BOX MAY BE COLLECTED AS EARLY AS 12 NOON.", "ref": "6042600065"}, "type": "Feature"}
{"geometry": {"coordinates": [-87.6601209, 41.606405], "type": "Point"}, "id": "4joSNGZ6zysNbrTqjmdJHKwK0ZU=", "properties": {"@spider": "usps_collection_boxes", "addr:city": "HARVEY", "addr:country": "US", "addr:full": "71 W 156TH ST", "addr:postcode": "60426", "addr:state": "IL", "brand": "USPS", "collection_times": "Mo-Sa 09:30", "name": "USPS COLLECTION BOX - BLUE BOX", "ref": "6042600066"}, "type": "Feature"}
{"geometry": {"coordinates": [-87.6659399, 41.625973], "type": "Point"}, "id": "BvBmVhCgyhQ9alYk9jYOSPF9WFc=", "properties": {"@spider": "usps_collection_boxes", "addr:city": "HARVEY", "addr:country": "US", "addr:full": "170 W 145TH ST", "addr:postcode": "60426", "addr:state": "IL", "brand": "USPS", "collection_times": "Mo-Sa 12:00", "name": "USPS COLLECTION BOX - EXPRESS", "ref": "6042600067"},