{"geometry": {"coordinates": [-90.096272, 42.503459], "type": "Point"}, "id": "xH0CEs7Fr2RtQyykbZqH0Cd3DPs=", "properties": {"@spider": "usps_collection_boxes", "addr:city": "APPLE RIVER", "addr:country": "US", "addr:full": "110 W RAILROAD ST", "addr:postcode": "61001", "addr:state": "IL", "brand": "USPS", "collection_times": "Mo-Fr 15:30; Sa 11:00", "name": "USPS COLLECTION BOX - BLUE BOX", "note": "ON 12/24 AND 12/31, THIS BOX MAY BE COLLECTED AS EARLY AS 12 NOON.", "ref": "6100100001"}, "type": "Feature"}
{"geometry": {"coordinates": [-90.096172, 42.503437], "type": "Point"}, "id": "Y5y5ie6wuUyjniAIRSu4V0S5ScA=", "properties": {"@spider": "usps_collection_boxes", "addr:city": "APPLE RIVER", "addr:country": "US", "addr:full": "110 W RAILROAD ST", "addr:postcode": "61001", "addr:state": "IL", "brand": "USPS", "collection_times": "Mo-Fr 16:00; Sa 11:00", "name": "USPS COLLECTION BOX - PO LOBBY", "note": "ON 12/24 AND 12/31, THIS BOX MAY BE COLLECTED AS EARLY AS 12 NOON.", "ref": "6100100002"}, "type": "Feature"}
{"geometry": {"coordinates": [-90.096172, 42.503437], "type": "Point"}, "id": "CZEZIiCeAGKTHfwPtSXVnz9EWnw=", "properties": {"@spider": "usps_collection_boxes", "addr:city": "APPLE RIVER", "addr:country": "US", "addr:full": "110 W RAILROAD ST", "addr:postcode": "61001", "addr:state": "IL", "brand": "USPS", "collection_times": "Mo-Fr 16:00; Sa 11:00", "name": "USPS COLLECTION BOX - PO LOBBY", "note": "ON 12/24 AND 12/31, THIS BOX MAY BE COLLECTED AS EARLY AS 12 NOON.", "ref": "6100100003"}, "type": "Feature"}
{"geometry": {"coordinates": [-90.096241911, 42.503496341], "type": "Point"}, "id": "_8XtLQZ8SaqwRn8S16vwuqqY8uY=", "properties": {"@spider": "usps_collection_boxes", "addr:city": "APPLE RIVER", "addr:country": "US", "addr:full": "110 W RAILROAD ST", "addr:postcode": "61001", "addr:state": "IL", "brand": "USPS", "collection_times": "Mo-Fr 16:00; Sa 11:00", "name": "USPS COLLECTION BOX - PO LOBBY", "note": "ON 12/24 AND 12/31, THIS BOX MAY BE COLLECTED AS EARLY AS 12 NOON.", "ref": "6100100004"}, "type": "Feature"}
{"geometry": {"coordinates": [-89.219416, 41.866311], "type": "Point"}, "id": "gFrVL6nrlB5IgDd4-Hg8ewTQF2I=", "properties": {"@spider": "usps_collection_boxes", "addr:city": "ASHTON", "addr:country": "US", "addr:full": "605 BROWN AVE", "addr:postcode": "61006", "addr:state": "IL", "brand": "USPS", "collection_times": "Mo-Fr 16:15; Sa 12:15", "name": "USPS COLLECTION BOX - BLUE BOX", "note": "ON 12/24 AND 12/31, THIS BOX MAY BE COLLECTED AS EARLY AS 12 NOON.", "ref": "6100600001"}, "type": "Feature"}
{"geometry": {"coordinates": [-89.21938, 41.866228], "type": "Point"}, "id": "l51eT8LkGbZ8PATlpqfUY1mH0aM=", "properties": {"@spider": "usps_collection_boxes", "addr:city": "ASHTON", "addr:country": "US", "addr:full": "605 BROWN AVE", "addr:postcode": "61006", "addr:state": "IL", "brand": "USPS", "collection_times": "Mo-Fr 16:15; Sa 12:15", "name": "USPS COLLECTION BOX - PO LOBBY", "note": "ON 12/24 AND 12/31, THIS BOX MAY BE COLLECTED AS EARLY AS 12 NOON.", "ref": "6100600002"}, "type": "Feature"}
{"geometry": {"coordinates": [-89.21938, 41.866228], "type": "Point"}, "id": "AxjzO_AdgdBuVvSdJizrMDt2NzE=", "properties": {"@spider": "usps_collection_boxes", "addr:city": "ASHTON", "addr:country": "US", "addr:full": "605 BROWN AVE", "addr:postcode": "61006", "addr:state": "IL", "brand": "USPS", "collection_times": "Mo-Fr 16:15; Sa 12:15", "name": "USPS COLLECTION BOX - PO LOBBY", "note": "ON 12/24 AND 12/31, THIS BOX MAY BE COLLECTED AS EARLY AS 12 NOON.", "ref": "6100600003"}, "type": "Feature"}
{"geometry": {"coordinates": [-89.219449396, 41.866496581], "type": "Point"}, "id": "vxQfZ78NysSs_Qpa98_Df7iT4dM=", "properties": {"@spider": "usps_collection_boxes", "addr:city": "ASHTON", "addr:country": "US", "addr:full": "605 BROWN AVE", "addr:postcode": "61006", "addr:state": "IL", "brand": "USPS", "collection_times": "Mo-Fr 16:15; Sa 12:15", "name": "USPS COLLECTION BOX - PO LOBBY", "note": "ON 12/24 AND 12/31, THIS BOX MAY BE COLLECTED AS EARLY AS 12 NOON.", "ref": "6100600005"}, "type": "Feature"}
{"geometry": {"coordinates": [-89.592862, 42.196853], "type": "Point"}, "id": "RY0O0f37wg9Ugt4Lo94OiVbpS5A=", "properties": {"@spider": "usps_collection_boxes", "addr:city": "BAILEYVILLE", "addr:country": "US", "addr:full": "100 S COMMERCIAL ST", "addr:postcode": "61007", "addr:state": "IL", "brand": "USPS", "collection_times": "Mo-Fr 16:30; Sa 11:30", "name": "USPS COLLECTION BOX - BLUE BOX", "note": "ON 12/24 AND 12/31, THIS BOX MAY BE COLLECTED AS EARLY AS 12 NOON.", "ref": "6100700001"}, "type": "Feature"}
{"geometry": {"coordinates": [-89.59274, 42.194402], "type": "Point"}, "id": "RcWU19yR6VULXblHTvpuZSPq6fU=", "properties": {"@spider": "usps_collection_boxes", "addr:city": "BAILEYVILLE", "addr:country": "US", "addr:full": "100 S COMMERICAL ST", "addr:postcode": "61007", "addr:state": "IL", "brand": "USPS", "collection_times": "Mo-Fr 16:30; Sa 11:30", "name": "USPS COLLECTION BOX - PO LOBBY", "note": "ON 12/24 AND 12/31, THIS BOX MAY BE COLLECTED AS EARLY AS 12 NOON.", "ref": "6100700002"}, "type": "Feature"}
{"geometry": {"coordinates": [-89.592858071, 42.196751801], "type": "Point"}, "id": "M1dN8JQ1Q_-baC4dPStVF9Hz9Fk=", "properties": {"@spider": "usps_collection_boxes", "addr:city": "BAILEYVILLE", "addr:country": "US", "addr:full": "100 S COMMERCIAL ST", "addr:postcode": "61007", "addr:state": "IL", "brand": "USPS", "collection_times": "Mo-Fr 16:30; Sa 11:30", "name": "USPS COLLECTION BOX - PO LOBBY", "note": "ON 12/24 AND 12/31, THIS BOX MAY BE COLLECTED AS EARLY AS 12 NOON.", "ref": "6100700003"}, "type": "Feature"}
{"geometry": {"coordinates": [-88.8511609, 42.257242], "type": "Point"}, "id": "s_UIGUMs3VJkY2tgI2PZvToCZBg=", "properties": {"@spider": "usps_collection_boxes", "addr:city": "BELVIDERE", "addr:country": "US", "addr:full": "628 W LINCOLN AVE", "addr:postcode": "61008", "addr:state": "IL", "brand": "USPS", "collection_times": "Mo-Sa 09:00", "name": "USPS COLLECTION BOX - BLUE BOX", "ref": "6100800004"}, "type": "Feature"}
{"geometry": {"coordinates": [-88.8248973, 42.253708], "type": "Point"}, "id": "H1mltGNFbiUylAbgHf67Fxah13o=", "properties": {"@spider": "usps_collection_boxes", "addr:city": "BELVIDERE", "addr:country": "US", "addr:full": "1212 LOGAN AVE", "addr:postcode": "61008", "addr:state": "IL", "brand": "USPS", "collection_times": "Mo-Fr 16:15; Sa 15:15", "name": "USPS COLLECTION BOX - BLUE BOX", "note": "ON 12/24 AND 12/31, THIS BOX MAY BE COLLECTED AS EARLY AS 12 NOON.", "ref": "6100800006"}, "type": "Feature"}
{"geometry": {"coordinates": [-88.8640908, 42.275008], "type": "Point"}, "id": "a_ZHwv0STBKy75xPNcvZJ6svuhs=", "properties": {"@spider": "usps_collection_boxes", "addr:city": "BELVIDERE", "addr:country": "US", "addr:full": "1800 DOC WOLF DR", "addr:postcode": "61008", "addr:state": "IL", "brand": "USPS", "collection_times": "Mo-Fr 17:00; Sa 16:00", "name": "USPS COLLECTION BOX - APC", "note": "ON 12/24 AND 12/31, THIS BOX MAY BE COLLECTED AS EARLY AS 12 NOON.", "ref": "6100800009"}, "type": "Feature"}
{"geometry": {"coordinates": [-88.8569195, 42.273968], "type": "Point"}, "id": "KmpLelxzOSbedV9_yVPG53eFCLs=", "properties": {"@spider": "usps_collection_boxes", "addr:city": "BELVIDERE", "addr:country": "US", "addr:full": "1400 BIG THUNDER BLVD", "addr:postcode": "61008", "addr:state": "IL", "brand": "USPS", "collection_times": "Mo-Fr 16:45; Sa 16:00", "name": "USPS COLLECTION BOX - BLUE BOX", "note": "ON 12/24 AND 12/31, THIS BOX MAY BE COLLECTED AS EARLY AS 12 NOON.", "ref": "6100800010"}, "type": "Feature"}
{"geometry": {"coordinates": [-88.8385757, 42.255201], "type": "Point"}, "id": "G2oARdhwjJypSsUblHgArTAAXGs=", "properties": {"@spider": "usps_collection_boxes", "addr:city": "BELVIDERE", "addr:country": "US", "addr:full": "530 S STATE ST", "addr:postcode": "61008", "addr:state": "IL", "brand": "USPS", "collection_times": "Mo-Fr 16:45; Sa 16:00", "name": "USPS COLLECTION BOX - BLUE BOX", "note": "ON 12/24 AND 12/31, THIS BOX MAY BE COLLECTED AS EARLY AS 12 NOON.", "ref": "6100800012"}, "type": "Feature"}
{"geometry": {"coordinates": [-88.8386934, 42.25748], "type": "Point"}, "id": "DF-jGXOfJY21d9mF0g_2meN7n-4=", "properties": {"@spider": "usps_collection_boxes", "addr:city": "BELVIDERE", "addr:country": "US", "addr:full": "401 WHITNEY BLVD", "addr:postcode": "61008", "addr:state": "IL", "brand": "USPS", "collection_times": "Mo-Fr 16:30; Sa 16:00", "name": "USPS COLLECTION BOX - BLUE BOX", "note": "ON 12/24 AND 12/31, THIS BOX MAY BE COLLECTED AS EARLY AS 12 NOON.", "ref": "6100800014"}, "type": "Feature"}
{"geometry": {"coordinates": [-88.8386934, 42.257472], "type": "Point"}, "id": "0XViJINCl3qJecGDauwuZFYF3Cs=", "properties": {"@spider": "usps_collection_boxes", "addr:city": "BELVIDERE", "addr:country": "US", "addr:full": "401 WHITNEY BLVD", "addr:postcode": "61008", "addr:state": "IL", "brand": "USPS", "collection_times": "Mo-Fr 16:30; Sa 16:00", "name": "USPS COLLECTION BOX - BLUE BOX", "note": "ON 12/24 AND 12/31, THIS BOX MAY BE COLLECTED AS EARLY AS 12 NOON.", "ref": "6100800015"}, "type": "Feature"}
{"geometry": {"coordinates": [-88.841562, 42.257851], "type": "Point"}, "id": "0jaHwFn7uAJdzj2XlLdqOe6oOB8=", "properties": {"@spider": "usps_collection_boxes", "addr:city": "BELVIDERE", "addr:country": "US", "addr:full": "200 S STATE ST", "addr:postcode": "61008", "addr:state": "IL", "brand": "USPS", "collection_times": "Mo-Fr 16:30; Sa 16:00", "name": "USPS COLLECTION BOX - BLUE BOX", "note": "ON 12/24 AND 12/31, THIS BOX MAY BE COLLECTED AS EARLY AS 12 NOON.", "ref": "6100800017"}, "type": "Feature"}
{"geometry": {"coordinates": [-88.8437779, 42.241736], "type": "Point"}, "id": "bYOun3qdVuTcaBBFH5Ed-vPyrck=", "properties": {"@spider": "usps_collection_boxes", "addr:city": "BELVIDERE", "addr:country": "US", "addr:full": "413 FRONTAGE RD", "addr:postcode": "61008", "addr:state": "IL", "brand": "USPS", "collection_times": "Mo-Fr 16:00; Sa 15:15", "name": "USPS COLLECTION BOX - BLUE BOX", "note": "ON 12/24 AND 12/31, THIS BOX MAY BE COLLECTED AS EARLY AS 12 NOON.", "ref": "6100800019"}, "type": "Feature"}
{"geometry": {"coordinates": [-88.8426762, 42.2396], "type": "Point"}, "id": "63mOT1ajv3SCQrILy4sMbWJEF6U=", "properties": {"@spider": "usps_collection_boxes", "addr:city": "BELVIDERE", "addr:country": "US", "addr:full": "372 W CHRYSLER DR", "addr:postcode": "61008", "addr:state": "IL", "brand": "USPS", "collection_times": "Mo-Fr 16:00; Sa 15:15", "name": "USPS COLLECTION BOX - BLUE BOX", "note": "ON 12/24 AND 12/31, THIS BOX MAY BE COLLECTED AS EARLY AS 12 NOON.", "ref": "6100800020"}, "type": "Feature"}
{"geometry": {"coordinates": [-88.8354295, 42.247728], "type": "Point"}, "id": "qe58PrRkmYyqU-JjJOX3npci7Yw=", "properties": {"@spider": "usps_collection_boxes", "addr:city": "BELVIDERE", "addr:country": "US", "addr:full": "353 E 6TH ST", "addr:postcode": "61008", "addr:state": "IL", "brand": "USPS", "collection_times": "Mo-Sa 13:00", "name": "USPS COLLECTION BOX - BLUE BOX", "note": "ON 12/24 AND 12/31, THIS BOX MAY BE COLLECTED AS EARLY AS 12 NOON.", "ref": "6100800021"}, "type": "Feature"}
{"geometry": {"coordinates": [-88.8451891, 42.264711], "type": "Point"}, "id": "Ol1lOQ33O_ZburC_iPYxCfoEND0=", "properties": {"@spider": "usps_collection_boxes", "addr:city": "BELVIDERE", "addr:country": "US", "addr:full": "601 N MAIN ST", "addr:postcode": "61008", "addr:state": "IL", "brand": "USPS", "collection_times": "Mo-Fr 16:30; Sa 15:30", "name": "USPS COLLECTION BOX - BLUE BOX", "note": "ON 12/24 AND 12/31, THIS BOX MAY BE COLLECTED AS EARLY AS 12 NOON.", "ref": "6100800023"}, "type": "Feature"}
{"geometry": {"coordinates": [-88.8456704, 42.242341], "type": "Point"}, "id": "z4_Uzn0j21eXxKKNE3nZBdjM3dE=", "properties": {"@spider": "usps_collection_boxes", "addr:city": "BELVIDERE", "addr:country": "US", "addr:full": "1800 MAPLE AVE", "addr:postcode": "61008", "addr:state": "IL", "brand": "USPS", "collection_times": "Mo-Sa 09:30", "name": "USPS COLLECTION BOX - BLUE BOX", "ref": "6100800030"}, "type": "Feature"}
{"geometry": {"coordinates": [-88.8466639, 42.247789], "type": "Point"}, "id": "lxI7ae8j20zZ1GUkRSVhgdAnSTI=", "properties": {"@spider": "usps_collection_boxes", "addr:city": "BELVIDERE", "addr:country": "US", "addr:full": "1201 5TH AVE", "addr:postcode": "61008", "addr:state": "IL", "brand": "USPS", "collection_times": "Mo-Fr 16:00; Sa 15:15", "name": "USPS COLLECTION BOX - BLUE BOX", "note": "ON 12/24 AND 12/31, THIS BOX MAY BE COLLECTED AS EARLY AS 12 NOON.", "ref": "6100800032"}, "type": "Feature"}
{"geometry": {"coordinates": [-88.8640582, 42.275023], "type": "Point"}, "id": "YM2WGOn10i6FoXtDPAJV3TizMNM=", "properties": {"@spider": "usps_collection_boxes", "addr:city": "BELVIDERE", "addr:country": "US", "addr:full": "1800 DOC WOLF DR", "addr:postcode": "61008", "addr:state": "IL", "brand": "USPS", "collection_times": "Mo-Fr 17:00; Sa 16:00", "name": "USPS COLLECTION BOX - PO LOBBY", "note": "ON 12/24 AND 12/31, THIS BOX MAY BE COLLECTED AS EARLY AS 12 NOON.", "ref": "6100800034"}, "type": "Feature"}
{"geometry": {"coordinates": [-88.8641447, 42.27511], "type": "Point"}, "id": "Zf6O0pkjAlB6iNVCuFpCTyHXguA=", "properties": {"@spider": "usps_collection_boxes", "addr:city": "BELVIDERE", "addr:country": "US", "addr:full": "1800 DOC WOLF DR", "addr:postcode": "61008", "addr:state": "IL", "brand": "USPS", "collection_times": "Mo-Fr 17:00; Sa 16:00", "name": "USPS COLLECTION BOX - PO LOBBY", "note": "ON 12/24 AND 12/31, THIS BOX MAY BE COLLECTED AS EARLY AS 12 NOON.", "ref": "6100800035"}, "type": "Feature"}
{"geometry": {"coordinates": [-88.8636463, 42.274645], "type": "Point"}, "id": "PidA7ribN0VcHpNMvc67nZwHDgA=", "properties": {"@spider": "usps_collection_boxes", "addr:city": "BELVIDERE", "addr:country": "US", "addr:full": "1800 DOC WOLF DR", "addr:postcode": "61008", "addr:state": "IL", "brand": "USPS", "collection_times": "Mo-Fr 17:00; Sa 16:00", "name": "USPS COLLECTION BOX - BLUE BOX", "note": "ON 12/24 AND 12/31, THIS BOX MAY BE COLLECTED AS EARLY AS 12 NOON.", "ref": "6100800036"}, "type": "Feature"}
{"geometry": {"coordinates": [-88.8636387, 42.27465], "type": "Point"}, "id": "Bdeb1pqhDKY_Gv53k94OEKNhc8A=", "properties": {"@spider": "usps_collection_boxes", "addr:city": "BELVIDERE", "addr:country": "US", "addr:full": "1800 DOC WOLF DR", "addr:postcode": "61008", "addr:state": "IL", "brand": "USPS", "collection_times": "Mo-Fr 17:00; Sa 16:00", "name": "USPS COLLECTION BOX - BLUE BOX", "note": "ON 12/24 AND 12/31, THIS BOX MAY BE COLLECTED AS EARLY AS 12 NOON.", "ref": "6100800037"}, "type": "Feature"}
{"geometry": {"coordinates": [-88.8408771, 42.254624], "type": "Point"}, "id": "xqHC3Y15_w4yViqh5863oqI1HtU=", "properties": {"@spider": "usps_collection_boxes", "addr:city": "BELVIDERE", "addr:country": "US", "addr:full": "520 PEARL ST", "addr:postcode": "61008", "addr:state": "IL", "brand": "USPS", "collection_times": "Mo-Fr 16:00; Sa 15:15", "name": "USPS COLLECTION BOX - BLUE BOX", "note": "ON 12/24 AND 12/31, THIS BOX MAY BE COLLECTED AS EARLY AS 12 NOON.", "ref": "6100800039"}, "type": "Feature"}
{"geometry": {"coordinates": [-88.8636462, 42.274635], "type": "Point"}, "id": "2oWGhnVt-3WJAPnuGXr5Xc9V_GU=", "properties": {"@spider": "usps_collection_boxes", "addr:city": "BELVIDERE", "addr:country": "US", "addr:full": "1800 DOC WOLF DR", "addr:postcode": "61008", "addr:state": "IL", "brand": "USPS", "collection_times": "Mo-Fr 17:00; Sa 16:00", "name": "USPS COLLECTION BOX - BLUE BOX", "note": "ON 12/24 AND 12/31, THIS BOX MAY BE COLLECTED AS EARLY AS 12 NOON.", "ref": "6100800040"}, "type": "Feature"}
{"geometry": {"coordinates": [-88.8211517, 42.252518], "type": "Point"}, "id": "s1gy6dXCoiA5T0G-e_JmUuH47Mo=", "properties": {"@spider": "usps_collection_boxes", "addr:city": "BELVIDERE", "addr:country": "US", "addr:full": "1776 LOGAN AVE", "addr:postcode": "61008", "addr:state": "IL", "brand": "USPS", "collection_times": "Mo-Fr 16:15; Sa 15:15", "name": "USPS COLLECTION BOX - BLUE BOX", "note": "ON 12/24 AND 12/31, THIS BOX MAY BE COLLECTED AS EARLY AS 12 NOON.", "ref": "6100800041"}, "type": "Feature"}
{"geometry": {"coordinates": [-88.86344754, 42.274598938], "type": "Point"}, "id": "zFQ4lkl_ZP8g9fFZCcIG44TkEz4=", "properties": {"@spider": "usps_collection_boxes", "addr:city": "BELVIDERE", "addr:country": "US", "addr:full": "1800 DOC WOLF DR", "addr:postcode": "61008", "addr:state": "IL", "brand": "USPS", "collection_times": "Mo-Fr 17:00; Sa 16:00", "name": "USPS COLLECTION BOX - PO LOBBY", "note": "ON 12/24 AND 12/31, THIS BOX MAY BE COLLECTED AS EARLY AS 12 NOON.", "ref": "6100800045"}, "type": "Feature"}
{"geometry": {"coordinates": [-89.256026, 42.127091], "type": "Point"}, "id": "ZL2sqFDifILrhupwtKpPUONLELM=", "properties": {"@spider": "usps_collection_boxes", "addr:city": "BYRON", "addr:country": "US", "addr:full": "232 N UNION ST", "addr:postcode": "61010", "addr:state": "IL", "brand": "USPS", "collection_times": "Mo-Fr 17:00; Sa 12:00", "name": "USPS COLLECTION BOX - BLUE BOX", "note": "ON 12/24 AND 12/31, THIS BOX MAY BE COLLECTED AS EARLY AS 12 NOON.", "ref": "6101000001"}, "type": "Feature"}
{"geometry": {"coordinates": [-89.255988, 42.127061], "type": "Point"}, "id": "tRdvKypi8sXGLR-ihLYp7feYAp0=", "properties": {"@spider": "usps_collection_boxes", "addr:city": "BYRON", "addr:country": "US", "addr:full": "232 N UNION ST", "addr:postcode": "61010", "addr:state": "IL", "brand": "USPS", "collection_times": "Mo-Fr 17:00; Sa 12:00", "name": "USPS COLLECTION BOX - PO LOBBY", "note": "ON 12/24 AND 12/31, THIS BOX MAY BE COLLECTED AS EARLY AS 12 NOON.", "ref": "6101000004"}, "type": "Feature"}
{"geometry": {"coordinates": [-89.255988, 42.127061], "type": "Point"}, "id": "jvd_dspukPhoOROg-SxzDSAcjNM=", "properties": {"@spider": "usps_collection_boxes", "addr:city": "BYRON", "addr:country": "US", "addr:full": "232 N UNION ST", "addr:postcode": "61010", "addr:state": "IL", "brand": "USPS", "collection_times": "Mo-Fr 17:00; Sa 12:00", "name": "USPS COLLECTION BOX - PO LOBBY", "note": "ON 12/24 AND 12/31, THIS BOX MAY BE COLLECTED AS EARLY AS 12 NOON.", "ref": "6101000005"}, "type": "Feature"}
{"geometry": {"coordinates": [-89.255988, 42.127061], "type": "Point"}, "id": "1tYNAtNH0daCSUywOwk7kyigZvw=", "properties": {"@spider": "usps_collection_boxes", "addr:city": "BYRON", "addr:country": "US", "addr:full": "232 N UNION ST", "addr:postcode": "61010", "addr:state": "IL", "brand": "USPS", "collection_times": "Mo-Fr 17:00; Sa 12:00", "name": "USPS COLLECTION BOX - BLUE BOX", "note": "ON 12/24 AND 12/31, THIS BOX MAY BE COLLECTED AS EARLY AS 12 NOON.", "ref": "6101000006"}, "type": "Feature"}
{"geometry": {"coordinates": [-89.256050425, 42.12749613], "type": "Point"}, "id": "qDNBnWieWZ-9lirgsMpYYvQCtFg=", "properties": {"@spider": "usps_collection_boxes", "addr:city": "BYRON", "addr:country": "US", "addr:full": "232 N UNION ST", "addr:postcode": "61010", "addr:state": "IL", "brand": "USPS", "collection_times": "Mo-Fr 17:00; Sa 12:00", "name": "USPS COLLECTION BOX - PO LOBBY", "note": "ON 12/24 AND 12/31, THIS BOX MAY BE COLLECTED AS EARLY AS 12 NOON.", "ref": "6101000008"}, "type": "Feature"}
{"geometry": {"coordinates": [-88.899167, 42.370645], "type": "Point"}, "id": "EZB6bBXnaU00h2hxPtEhojC93eU=", "properties": {"@spider": "usps_collection_boxes", "addr:city": "CALEDONIA", "addr:country": "US", "addr:full": "2201 IL ROUTE 173", "addr:postcode": "61011", "addr:state": "IL", "brand": "USPS", "collection_times": "Mo-Fr 16:15; Sa 11:30", "name": "USPS COLLECTION BOX - BLUE BOX", "note": "ON 12/24 AND 12/31, THIS BOX MAY BE COLLECTED AS EARLY AS 12 NOON.", "ref": "6101100001"}, "type": "Feature"}
{"geometry": {"coordinates": [-88.89929, 42.370671], "type": "Point"}, "id": "yUGZWOyoyKzPXLEROOLma8GgSD0=", "properties": {"@spider": "usps_collection_boxes", "addr:city": "CALEDONIA", "addr:country": "US", "addr:full": "2201 IL ROUTE 173", "addr:postcode": "61011", "addr:state": "IL", "brand": "USPS", "collection_times": "Mo-Fr 16:15; Sa 11:30", "name": "USPS COLLECTION BOX - PO LOBBY", "note": "ON 12/24 AND 12/31, THIS BOX MAY BE COLLECTED AS EARLY AS 12 NOON.", "ref": "6101100002"}, "type": "Feature"}
{"geometry": {"coordinates": [-88.89929, 42.370671], "type": "Point"}, "id": "k7lmenj-T7GXixEsWLO8IqOhg-s=", "properties": {"@spider": "usps_collection_boxes", "addr:city": "CALEDONIA", "addr:country": "US", "addr:full": "2201 IL ROUTE 173", "addr:postcode": "61011", "addr:state": "IL", "brand": "USPS", "collection_times": "Mo-Fr 16:15; Sa 11:30", "name": "USPS COLLECTION BOX - PO LOBBY", "note": "ON 12/24 AND 12/31, THIS BOX MAY BE COLLECTED AS EARLY AS 12 NOON.", "ref": "6101100003"}, "type": "Feature"}
{"geometry": {"coordinates": [-88.896581665, 42.370674499], "type": "Point"}, "id": "iPhnv2A3AajWkMKg8DwYBf1ZOYY=", "properties": {"@spider": "usps_collection_boxes", "addr:city": "CALEDONIA", "addr:country": "US", "addr:full": "2201 IL ROUTE 173", "addr:postcode": "61011", "addr:state": "IL", "brand": "USPS", "collection_times": "Mo-Fr 16:15; Sa 11:30", "name": "USPS COLLECTION BOX - PO LOBBY", "note": "ON 12/24 AND 12/31, THIS BOX MAY BE COLLECTED AS EARLY AS 12 NOON.", "ref": "6101100004"}, "type": "Feature"}
{"geometry": {"coordinates": [-88.7411839, 42.3993], "type": "Point"}, "id": "DyhEPRvCFSzbIZUP-iX0NWhxinI=", "properties": {"@spider": "usps_collection_boxes", "addr:city": "CAPRON", "addr:country": "US", "addr:full": "120 W MAIN ST", "addr:postcode": "61012", "addr:state": "IL", "brand": "USPS", "collection_times": "Mo-Fr 14:45; Sa 11:30", "name": "USPS COLLECTION BOX - BLUE BOX", "note": "ON 12/24 AND 12/31, THIS BOX MAY BE COLLECTED AS EARLY AS 12 NOON.", "ref": "6101200001"}, "type": "Feature"}
{"geometry": {"coordinates": [-88.741196, 42.399191], "type": "Point"}, "id": "0ZBe9xRV1Qdpc-TpnjUjh8xPVLM=", "properties": {"@spider": "usps_collection_boxes", "addr:city": "CAPRON", "addr:country": "US", "addr:full": "120 W MAIN ST", "addr:postcode": "61012", "addr:state": "IL", "brand": "USPS", "collection_times": "Mo-Fr 14:45; Sa 11:30", "name": "USPS COLLECTION BOX - PO LOBBY", "note": "ON 12/24 AND 12/31, THIS BOX MAY BE COLLECTED AS EARLY AS 12 NOON.", "ref": "6101200002"}, "type": "Feature"}
{"geometry": {"coordinates": [-88.741196, 42.399191], "type": "Point"}, "id": "0Oz9-YqGIPvNWo1FmS9_I3EclWw=", "properties": {"@spider": "usps_collection_boxes", "addr:city": "CAPRON", "addr:country": "US", "addr:full": "120 W MAIN ST", "addr:postcode": "61012", "addr:state": "IL", "brand": "USPS", "collection_times": "Mo-Fr 14:45; Sa 11:30", "name": "USPS COLLECTION BOX - PO LOBBY", "note": "ON 12/24 AND 12/31, THIS BOX MAY BE COLLECTED AS EARLY AS 12 NOON.", "ref": "6101200003"}, "type": "Feature"}
{"geometry": {"coordinates": [-88.741093332, 42.399378547], "type": "Point"}, "id": "2JVdw-c3X57-H265IIt67NZ-pE4=", "properties": {"@spider": "usps_collection_boxes", "addr:city": "CAPRON", "addr:country": "US", "addr:full": "120 W MAIN ST", "addr:postcode": "61012", "addr:state": "IL", "brand": "USPS", "collection_times": "Mo-Fr 14:45; Sa 11:30", "name": "USPS COLLECTION BOX - PO LOBBY", "note": "ON 12/24 AND 12/31, THIS BOX MAY BE COLLECTED AS EARLY AS 12 NOON.", "ref": "6101200005"}, "type": "Feature"}
{"geometry": {"coordinates": [-89.634832, 42.374208], "type": "Point"}, "id": "LLMkeOX_X4L9KkR7-2rQEyQHsQI=", "properties": {"@spider": "usps_collection_boxes", "addr:city": "CEDARVILLE", "addr:country": "US", "addr:full": "125 W WASHINGTON ST", "addr:postcode": "61013", "addr:state": "IL", "brand": "USPS", "collection_times": "Mo-Fr 15:45; Sa 11:15", "name": "USPS COLLECTION BOX - BLUE BOX", "note": "ON 12/24 AND 12/31, THIS BOX MAY BE COLLECTED AS EARLY AS 12 NOON.", "ref": "6101300001"}, "type": "Feature"}
{"geometry": {"coordinates": [-89.634773, 42.374238], "type": "Point"}, "id": "VoRCKQBGEUMJyWgWmpFsH9SR87E=", "properties": {"@spider": "usps_collection_boxes", "addr:city": "CEDARVILLE", "addr:country": "US", "addr:full": "125 W WASHINGTON ST", "addr:postcode": "61013", "addr:state": "IL", "brand": "USPS", "collection_times": "Mo-Fr 15:45; Sa 11:15", "name": "USPS COLLECTION BOX - PO LOBBY", "note": "ON 12/24 AND 12/31, THIS BOX MAY BE COLLECTED AS EARLY AS 12 NOON.", "ref": "6101300002"}, "type": "Feature"}
{"geometry": {"coordinates": [-89.634773, 42.374238], "type": "Point"}, "id": "4CKyOgR68ypJfi4xhzlH0afzon0=", "properties": {"@spider": "usps_collection_boxes", "addr:city": "CEDARVILLE", "addr:country": "US", "addr:full": "125 W WASHINGTON ST", "addr:postcode": "61013", "addr:state": "IL", "brand": "USPS", "collection_times": "Mo-Fr 15:45; Sa 11:15", "name": "USPS COLLECTION BOX - PO LOBBY", "note": "ON 12/24 AND 12/31, THIS BOX MAY BE COLLECTED AS EARLY AS 12 NOON.", "ref": "6101300003"}, "type": "Feature"}
{"geometry": {"coordinates": [-89.634978775, 42.374195488], "type": "Point"}, "id": "iGG7bb2CrC0LSCV-4bwKrvdJRLc=", "properties": {"@spider": "usps_collection_boxes", "addr:city": "CEDARVILLE", "addr:country": "US", "addr:full": "125 W WASHINGTON ST", "addr:postcode": "61013", "addr:state": "IL", "brand": "USPS", "collection_times": "Mo-Fr 15:45; Sa 11:15", "name": "USPS COLLECTION BOX - PO LOBBY", "note": "ON 12/24 AND 12/31, THIS BOX MAY BE COLLECTED AS EARLY AS 12 NOON.", "ref": "6101300005"}, "type": "Feature"}
{"geometry": {"coordinates": [-89.890903, 42.013638], "type": "Point"}, "id": "Hw8j5wq3hkjiJYEo5oxMbREUtYs=", "properties": {"@spider": "usps_collection_boxes", "addr:city": "CHADWICK", "addr:country": "US", "addr:full": "218 N MAIN ST", "addr:postcode": "61014", "addr:state": "IL", "brand": "USPS", "collection_times": "Mo-Fr 16:00; Sa 11:00", "name": "USPS COLLECTION BOX - BLUE BOX", "note": "ON 12/24 AND 12/31, THIS BOX MAY BE COLLECTED AS EARLY AS 12 NOON.", "ref": "6101400001"}, "type": "Feature"}
{"geometry": {"coordinates": [-89.890868, 42.013581], "type": "Point"}, "id": "UcxHzOzhHZ2mtQF3K1qNBXhBuuM=", "properties": {"@spider": "usps_collection_boxes", "addr:city": "CHADWICK", "addr:country": "US", "addr:full": "218 N MAIN ST", "addr:postcode": "61014", "addr:state": "IL", "brand": "USPS", "collection_times": "Mo-Fr 16:00; Sa 11:00", "name": "USPS COLLECTION BOX - PO LOBBY", "note": "ON 12/24 AND 12/31, THIS BOX MAY BE COLLECTED AS EARLY AS 12 NOON.", "ref": "6101400002"}, "type": "Feature"}
{"geometry": {"coordinates": [-89.890868, 42.013581], "type": "Point"}, "id": "429vgWVRJJPuXK6zwblbFCLBCv8=", "properties": {"@spider": "usps_collection_boxes", "addr:city": "CHADWICK", "addr:country": "US", "addr:full": "218 N MAIN ST", "addr:postcode": "61014", "addr:state": "IL", "brand": "USPS", "collection_times": "Mo-Fr 16:00; Sa 11:00", "name": "USPS COLLECTION BOX - PO LOBBY", "note": "ON 12/24 AND 12/31, THIS BOX MAY BE COLLECTED AS EARLY AS 12 NOON.", "ref": "6101400003"}, "type": "Feature"}
{"geometry": {"coordinates": [-89.221526, 41.980132], "type": "Point"}, "id": "DyxtQlVTDTHp7-OfgKl8iYQe3tU=", "properties": {"@spider": "usps_collection_boxes", "addr:city": "CHANA", "addr:country": "US", "addr:full": "300 MAIN ST UNIT 0", "addr:postcode": "61015", "addr:state": "IL", "brand": "USPS", "collection_times": "Mo-Fr 16:15; Sa 12:00", "name": "USPS COLLECTION BOX - BLUE BOX", "note": "ON 12/24 AND 12/31, THIS BOX MAY BE COLLECTED AS EARLY AS 12 NOON.", "ref": "6101500001"}, "type": "Feature"}
{"geometry": {"coordinates": [-89.221539, 41.979992], "type": "Point"}, "id": "RNu_WtWoHjYOTIcueNfJ1zm0wp8=", "properties": {"@spider": "usps_collection_boxes", "addr:city": "CHANA", "addr:country": "US", "addr:full": "300 MAIN ST UNIT 0", "addr:postcode": "61015", "addr:state": "IL", "brand": "USPS", "collection_times": "Mo-Fr 16:15; Sa 12:00", "name": "USPS COLLECTION BOX - PO LOBBY", "note": "ON 12/24 AND 12/31, THIS BOX MAY BE COLLECTED AS EARLY AS 12 NOON.", "ref": "6101500002"}, "type": "Feature"}
{"geometry": {"coordinates": [-89.22153748, 41.979986864], "type": "Point"}, "id": "8mqVqAZKvyr8BP1FkSdq_S-TY5c=", "properties": {"@spider": "usps_collection_boxes", "addr:city": "CHANA", "addr:country": "US", "addr:full": "300 MAIN ST UNIT 0", "addr:postcode": "61015", "addr:state": "IL", "brand": "USPS", "collection_times": "Mo-Fr 16:15; Sa 12:00", "name": "USPS COLLECTION BOX - PO LOBBY", "note": "ON 12/24 AND 12/31, THIS BOX MAY BE COLLECTED AS EARLY AS 12 NOON.", "ref": "6101500004"}, "type": "Feature"}
{"geometry": {"coordinates": [-88.95257, 42.235399], "type": "Point"}, "id": "BlPf1nySDM-RXVvdS_Rw8qFkWOA=", "properties": {"@spider": "usps_collection_boxes", "addr:city": "CHERRY VALLEY", "addr:country": "US", "addr:full": "210 E STATE ST", "addr:postcode": "61016", "addr:state": "IL", "brand": "USPS", "collection_times": "Mo-Fr 16:45; Sa 11:45", "name": "USPS COLLECTION BOX - BLUE BOX", "note": "ON 12/24 AND 12/31, THIS BOX MAY BE COLLECTED AS EARLY AS 12 NOON.", "ref": "6101600001"}, "type": "Feature"}
{"geometry": {"coordinates": [-88.95257, 42.23537], "type": "Point"}, "id": "nRpCMUzBewxS-YdW_tHZmJ4CmCI=", "properties": {"@spider": "usps_collection_boxes", "addr:city": "CHERRY VALLEY", "addr:country": "US", "addr:full": "210 E STATE ST", "addr:postcode": "61016", "addr:state": "IL", "brand": "USPS", "collection_times": "Mo-Fr 16:45; Sa 11:45", "name": "USPS COLLECTION BOX - PO LOBBY", "note": "ON 12/24 AND 12/31, THIS BOX MAY BE COLLECTED AS EARLY AS 12 NOON.", "ref": "6101600002"}, "type": "Feature"}
{"geometry": {"coordinates": [-88.952315894, 42.235319932], "type": "Point"}, "id": "b4Xn-daqCUWn7RPqRGmGyvdSE5Q=", "properties": {"@spider": "usps_collection_boxes", "addr:city": "CHERRY VALLEY", "addr:country": "US", "addr:full": "210 E STATE ST", "addr:postcode": "61016", "addr:state": "IL", "brand": "USPS", "collection_times": "Mo-Fr 16:45; Sa 11:45", "name": "USPS COLLECTION BOX - PO LOBBY", "note": "ON 12/24 AND 12/31, THIS BOX MAY BE COLLECTED AS EARLY AS 12 NOON.", "ref": "6101600003"}, "type": "Feature"}
{"geometry": {"coordinates": [-89.525801, 42.388813], "type": "Point"}, "id": "iEybgJeRkwS9Jd57D4BoEln68KA=", "properties": {"@spider": "usps_collection_boxes", "addr:city": "DAKOTA", "addr:country": "US", "addr:full": "139 W MAIN ST", "addr:postcode": "61018", "addr:state": "IL", "brand": "USPS", "collection_times": "Mo-Sa 11:15", "name": "USPS COLLECTION BOX - BLUE BOX", "ref": "6101800001"}, "type": "Feature"}
{"geometry": {"coordinates": [-89.525768, 42.38884], "type": "Point"}, "id": "hOpUHlNBRynWabifqHvL7A7l8tk=", "properties": {"@spider": "usps_collection_boxes", "addr:city": "DAKOTA", "addr:country": "US", "addr:full": "139 W MAIN ST", "addr:postcode": "61018", "addr:state": "IL", "brand": "USPS", "collection_times": "Mo-Sa 11:15", "name": "USPS COLLECTION BOX - PO LOBBY", "ref": "6101800003"}, "type": "Feature"}
{"geometry": {"coordinates": [-89.526204, 42.388812547], "type": "Point"}, "id": "8AdU-mWj3rN9jJ8TJYgd_aCbcas=", "properties": {"@spider": "usps_collection_boxes", "addr:city": "DAKOTA", "addr:country": "US", "addr:full": "139 W MAIN ST", "addr:postcode": "61018", "addr:state": "IL", "brand": "USPS", "collection_times": "Mo-Sa 11:15", "name": "USPS COLLECTION BOX - PO LOBBY", "ref": "6101800005"}, "type": "Feature"}
{"geometry": {"coordinates": [-89.41398, 42.421991], "type": "Point"}, "id": "hP4WGq2xTC8q-ZZJh3HmOGXJ8-A=", "properties": {"@spider": "usps_collection_boxes", "addr:city": "DAVIS", "addr:country": "US", "addr:full": "420 N STANTON ST", "addr:postcode": "61019", "addr:state": "IL", "brand": "USPS", "collection_times": "Mo-Fr 16:45; Sa 11:30", "name": "USPS COLLECTION BOX - BLUE BOX", "note": "ON 12/24 AND 12/31, THIS BOX MAY BE COLLECTED AS EARLY AS 12 NOON.", "ref": "6101900001"}, "type": "Feature"}
{"geometry": {"coordinates": [-89.3810161, 42.454517], "type": "Point"}, "id": "euNDfTaucwLRh39oainzs0tESNk=", "properties": {"@spider": "usps_collection_boxes", "addr:city": "DAVIS", "addr:country": "US", "addr:full": "13965 BEST RD", "addr:postcode": "61019", "addr:state": "IL", "brand": "USPS", "collection_times": "Mo-Sa 13:00", "name": "USPS COLLECTION BOX - BLUE BOX", "note": "ON 12/24 AND 12/31, THIS BOX MAY BE COLLECTED AS EARLY AS 12 NOON.", "ref": "6101900002"}, "type": "Feature"}
{"geometry": {"coordinates": [-89.413941, 42.421939], "type": "Point"}, "id": "PzeaG1hVflfpIW8EjJf_9dFNMfE=", "properties": {"@spider": "usps_collection_boxes", "addr:city": "DAVIS", "addr:country": "US", "addr:full": "420 N STANTON ST", "addr:postcode": "61019", "addr:state": "IL", "brand": "USPS", "collection_times": "Mo-Fr 16:45; Sa 11:30", "name": "USPS COLLECTION BOX - PO LOBBY", "note": "ON 12/24 AND 12/31, THIS BOX MAY BE COLLECTED AS EARLY AS 12 NOON.", "ref": "6101900003"}, "type": "Feature"}
{"geometry": {"coordinates": [-89.4174317, 42.418972], "type": "Point"}, "id": "mQFFKRYu73dKHUW9-Wy8EkJRZTw=", "properties": {"@spider": "usps_collection_boxes", "addr:city": "DAVIS", "addr:country": "US", "addr:full": "100 IL ROUTE 75 E", "addr:postcode": "61019", "addr:state": "IL", "brand": "USPS", "collection_times": "Mo-Sa 13:00", "name": "USPS COLLECTION BOX - BLUE BOX", "note": "ON 12/24 AND 12/31, THIS BOX MAY BE COLLECTED AS EARLY AS 12 NOON.", "ref": "6101900004"}, "type": "Feature"}
{"geometry": {"coordinates": [-89.413989253, 42.422562], "type": "Point"}, "id": "RwVrHujTSbFoPYUWkBvPcl3TG7E=", "properties": {"@spider": "usps_collection_boxes", "addr:city": "DAVIS", "addr:country": "US", "addr:full": "420 N STANTON ST", "addr:postcode": "61019", "addr:state": "IL", "brand": "USPS", "collection_times": "Mo-Fr 16:45; Sa 11:30", "name": "USPS COLLECTION BOX - PO LOBBY", "note": "ON 12/24 AND 12/31, THIS BOX MAY BE COLLECTED AS EARLY AS 12 NOON.", "ref": "6101900006"}, "type": "Feature"}
{"geometry": {"coordinates": [-89.099647, 42.101401], "type": "Point"}, "id": "0yCyRuXxxJgJh_UXUeNglnZQ5sU=", "properties": {"@spider": "usps_collection_boxes", "addr:city": "DAVIS JUNCTION", "addr:country": "US", "addr:full": "402 W CHICAGO AVE", "addr:postcode": "61020", "addr:state": "IL", "brand": "USPS", "collection_times": "Mo-Fr 15:00; Sa 11:30", "name": "USPS COLLECTION BOX - BLUE BOX", "note": "ON 12/24 AND 12/31, THIS BOX MAY BE COLLECTED AS EARLY AS 12 NOON.", "ref": "6102000001"}, "type": "Feature"}
{"geometry": {"coordinates": [-89.099768, 42.101374], "type": "Point"}, "id": "7Hy6EgnUgon-rqeOyKbdUNcw938=", "properties": {"@spider": "usps_collection_boxes", "addr:city": "DAVIS JUNCTION", "addr:country": "US", "addr:full": "402 W CHICAGO AVE", "addr:postcode": "61020", "addr:state": "IL", "brand": "USPS", "collection_times": "Mo-Fr 15:00; Sa 11:30", "name": "USPS COLLECTION BOX - PO LOBBY", "note": "ON 12/24 AND 12/31, THIS BOX MAY BE COLLECTED AS EARLY AS 12 NOON.", "ref": "6102000002"}, "type": "Feature"}
{"geometry": {"coordinates": [-89.099085257, 42.10129298], "type": "Point"}, "id": "ZnFclAhUhPuz4R4DLdnPQ4d2kW0=", "properties": {"@spider": "usps_collection_boxes", "addr:city": "DAVIS JUNCTION", "addr:country": "US", "addr:full": "402 W CHICAGO AVE", "addr:postcode": "61020", "addr:state": "IL", "brand": "USPS", "collection_times": "Mo-Fr 15:00; Sa 11:30", "name": "USPS COLLECTION BOX - PO LOBBY", "note": "ON 12/24 AND 12/31, THIS BOX MAY BE COLLECTED AS EARLY AS 12 NOON.", "ref": "6102000004"}, "type": "Feature"}
{"geometry": {"coordinates": [-89.5043599, 41.848193], "type": "Point"}, "id": "YEjy5iCJPuOoVtzP-t95OZe3cVw=", "properties": {"@spider": "usps_collection_boxes", "addr:city": "DIXON", "addr:country": "US", "addr:full": "666 VETERANS PKWY", "addr:postcode": "61021", "addr:state": "IL", "brand": "USPS", "collection_times": "Mo-Sa 16:15", "name": "USPS COLLECTION BOX - BLUE BOX", "note": "ON 12/24 AND 12/31, THIS BOX MAY BE COLLECTED AS EARLY AS 12 NOON.", "ref": "6102100002"}, "type": "Feature"}
{"geometry": {"coordinates": [-89.4980455, 41.863704], "type": "Point"}, "id": "5Qqn0TzCoVHgnkHv4TyiXijizMs=", "properties": {"@spider": "usps_collection_boxes", "addr:city": "DIXON", "addr:country": "US", "addr:full": "1380 N GALENA AVE", "addr:postcode": "61021", "addr:state": "IL", "brand": "USPS", "collection_times": "Mo-Sa 16:30", "name": "USPS COLLECTION BOX - BLUE BOX", "note": "ON 12/24 AND 12/31, THIS BOX MAY BE COLLECTED AS EARLY AS 12 NOON.", "ref": "6102100003"}, "type": "Feature"}
{"geometry": {"coordinates": [-89.4874847, 41.858017], "type": "Point"}, "id": "omVFfj-ruqTUmCqe354lolAGDX8=", "properties": {"@spider": "usps_collection_boxes", "addr:city": "DIXON", "addr:country": "US", "addr:full": "144 N COURT ST", "addr:postcode": "61021", "addr:state": "IL", "brand": "USPS", "collection_times": "Mo-Sa 16:30", "name": "USPS COLLECTION BOX - BLUE BOX", "note": "ON 12/24 AND 12/31, THIS BOX MAY BE COLLECTED AS EARLY AS 12 NOON.", "ref": "6102100004"}, "type": "Feature"}
{"geometry": {"coordinates": [-89.4834845, 41.848898], "type": "Point"}, "id": "m_JqJbjlOVmgdm7qWTCOYKiF-y0=", "properties": {"@spider": "usps_collection_boxes", "addr:city": "DIXON", "addr:country": "US", "addr:full": "207 EVERETT ST", "addr:postcode": "61021", "addr:state": "IL", "brand": "USPS", "collection_times": "Mo-Sa 16:30", "name": "USPS COLLECTION BOX - BLUE BOX", "note": "ON 12/24 AND 12/31, THIS BOX MAY BE COLLECTED AS EARLY AS 12 NOON.", "ref": "6102100005"}, "type": "Feature"}
{"geometry": {"coordinates": [-89.486589, 41.848971], "type": "Point"}, "id": "kfPB6gO2C7LXyymc-7VFCkgnre0=", "properties": {"@spider": "usps_collection_boxes", "addr:city": "DIXON", "addr:country": "US", "addr:full": "204 LINCOLN WAY", "addr:postcode": "61021", "addr:state": "IL", "brand": "USPS", "collection_times": "Mo-Sa 16:30", "name": "USPS COLLECTION BOX - BLUE BOX", "note": "ON 12/24 AND 12/31, THIS BOX MAY BE COLLECTED AS EARLY AS 12 NOON.", "ref": "6102100006"}, "type": "Feature"}
{"geometry": {"coordinates": [-89.4789481, 41.844517], "type": "Point"}, "id": "8fWJJANgBeQJEdZf2D6aDoAzuVY=", "properties": {"@spider": "usps_collection_boxes", "addr:city": "DIXON", "addr:country": "US", "addr:full": "403 E 1ST ST", "addr:postcode": "61021", "addr:state": "IL", "brand": "USPS", "collection_times": "Mo-Sa 16:45", "name": "USPS COLLECTION BOX - BLUE BOX", "note": "ON 12/24 AND 12/31, THIS BOX MAY BE COLLECTED AS EARLY AS 12 NOON.", "ref": "6102100007"}, "type": "Feature"}
{"geometry": {"coordinates": [-89.4805751, 41.844082], "type": "Point"}, "id": "piDt9CK3nnckNgjZaudzGpxg3pw=", "properties": {"@spider": "usps_collection_boxes", "addr:city": "DIXON", "addr:country": "US", "addr:full": "215 E 1ST ST", "addr:postcode": "61021", "addr:state": "IL", "brand": "USPS", "collection_times": "Mo-Sa 16:45", "name": "USPS COLLECTION BOX - BLUE BOX", "note": "ON 12/24 AND 12/31, THIS BOX MAY BE COLLECTED AS EARLY AS 12 NOON.", "ref": "6102100008"}, "type": "Feature"}
{"geometry": {"coordinates": [-89.4828346, 41.843561], "type": "Point"}, "id": "oxuTX0rES1_iLqvf9AC5fZ5ayyk=", "properties": {"@spider": "usps_collection_boxes", "addr:city": "DIXON", "addr:country": "US", "addr:full": "101 W 1ST ST", "addr:postcode": "61021", "addr:state": "IL", "brand": "USPS", "collection_times": "Mo-Sa 16:45", "name": "USPS COLLECTION BOX - BLUE BOX", "note": "ON 12/24 AND 12/31, THIS BOX MAY BE COLLECTED AS EARLY AS 12 NOON.", "ref": "6102100009"}, "type": "Feature"}
{"geometry": {"coordinates": [-89.4811381, 41.841961], "type": "Point"}, "id": "uVkZv-XrlxeQ0f1UiUJmNMVqq_g=", "properties": {"@spider": "usps_collection_boxes", "addr:city": "DIXON", "addr:country": "US", "addr:full": "113 E 3RD ST", "addr:postcode": "61021", "addr:state": "IL", "brand": "USPS", "collection_times": "Mo-Sa 17:00", "name": "USPS COLLECTION BOX - BLUE BOX", "note": "ON 12/24 AND 12/31, THIS BOX MAY BE COLLECTED AS EARLY AS 12 NOON.", "ref": "6102100010"}, "type": "Feature"}
{"geometry": {"coordinates": [-89.486228, 41.841887], "type": "Point"}, "id": "chWDJlFFkZOd3LbTAuyrFIe-h3E=", "properties": {"@spider": "usps_collection_boxes", "addr:city": "DIXON", "addr:country": "US", "addr:full": "405 W 2ND ST", "addr:postcode": "61021", "addr:state": "IL", "brand": "USPS", "collection_times": "Mo-Sa 17:15", "name": "USPS COLLECTION BOX - BLUE BOX", "note": "ON 12/24 AND 12/31, THIS BOX MAY BE COLLECTED AS EARLY AS 12 NOON.", "ref": "6102100013"}, "type": "Feature"}
{"geometry": {"coordinates": [-89.487001, 41.841854], "type": "Point"}, "id": "SRt3_tj1QQQXlyHnjfWEt8USAmc=", "properties": {"@spider": "usps_collection_boxes", "addr:city": "DIXON", "addr:country": "US", "addr:full": "405 W 2ND ST", "addr:postcode": "61021", "addr:state": "IL", "brand": "USPS", "collection_times": "Mo-Sa 17:15", "name": "USPS COLLECTION BOX - BLUE BOX", "note": "ON 12/24 AND 12/31, THIS BOX MAY BE COLLECTED AS EARLY AS 12 NOON.", "ref": "6102100014"}, "type": "Feature"}
{"geometry": {"coordinates": [-89.486266, 41.841838], "type": "Point"}, "id": "JssGJj4IlyFgAKdbS2GTnVxB4wU=", "properties": {"@spider": "usps_collection_boxes", "addr:city": "DIXON", "addr:country": "US", "addr:full": "405 W 2ND ST", "addr:postcode": "61021", "addr:state": "IL", "brand": "USPS", "collection_times": "Mo-Sa 17:15", "name": "USPS COLLECTION BOX - BLUE BOX", "note": "ON 12/24 AND 12/31, THIS BOX MAY BE COLLECTED AS EARLY AS 12 NOON.", "ref": "6102100015"}, "type": "Feature"}
{"geometry": {"coordinates": [-89.4767278, 41.83784], "type": "Point"}, "id": "wh0xfv8xC7xjNIBGwjm2fFe-XcA=", "properties": {"@spider": "usps_collection_boxes", "addr:city": "DIXON", "addr:country": "US", "addr:full": "728 CRAWFORD AVE", "addr:postcode": "61021", "addr:state": "IL", "brand": "USPS", "collection_times": "Mo-Sa 13:30", "name": "USPS COLLECTION BOX - BLUE BOX", "note": "ON 12/24 AND 12/31, THIS BOX MAY BE COLLECTED AS EARLY AS 12 NOON.", "ref": "6102100017"}, "type": "Feature"}
{"geometry": {"coordinates": [-89.4845594, 41.854782], "type": "Point"}, "id": "UFd9ohY7qAqgMg8SrxJBBoemejk=", "properties": {"@spider": "usps_collection_boxes", "addr:city": "DIXON", "addr:country": "US", "addr:full": "748 N BRINTON AVE", "addr:postcode": "61021", "addr:state": "IL", "brand": "USPS", "collection_times": "Mo-Sa 13:30", "name": "USPS COLLECTION BOX - BLUE BOX", "note": "ON 12/24 AND 12/31, THIS BOX MAY BE COLLECTED AS EARLY AS 12 NOON.", "ref": "6102100018"}, "type": "Feature"}
{"geometry": {"coordinates": [-89.487001, 41.841854], "type": "Point"}, "id": "ul8Nt8KqEIWvTlOMj0K7iVYrMFM=", "properties": {"@spider": "usps_collection_boxes", "addr:city": "DIXON", "addr:country": "US", "addr:full": "405 W 2ND ST", "addr:postcode": "61021", "addr:state": "IL", "brand": "USPS", "collection_times": "Mo-Sa 17:15", "name": "USPS COLLECTION BOX - PO LOBBY", "note": "ON 12/24 AND 12/31, THIS BOX MAY BE COLLECTED AS EARLY AS 12 NOON.", "ref": "6102100020"}, "type": "Feature"}
{"geometry": {"coordinates": [-89.487001, 41.841854], "type": "Point"}, "id": "TJHMuYAyWzPqmNnhneTKlUbCQww=", "properties": {"@spider": "usps_collection_boxes", "addr:city": "DIXON", "addr:country": "US", "addr:full": "405 W 2ND ST", "addr:postcode": "61021", "addr:state": "IL", "brand": "USPS", "collection_times": "Mo-Sa 17:15", "name": "USPS COLLECTION BOX - PO LOBBY", "note": "ON 12/24 AND 12/31, THIS BOX MAY BE COLLECTED AS EARLY AS 12 NOON.", "ref": "6102100021"}, "type": "Feature"}
{"geometry": {"coordinates": [-89.4820874, 41.840838], "type": "Point"}, "id": "6zZandtCaIsD56SxHevfaKYKq7Y=", "properties": {"@spider": "usps_collection_boxes", "addr:city": "DIXON", "addr:country": "US", "addr:full": "309 S GALENA AVE", "addr:postcode": "61021", "addr:state": "IL", "brand": "USPS", "collection_times": "Mo-Sa 17:00", "name": "USPS COLLECTION BOX - BLUE BOX", "note": "ON 12/24 AND 12/31, THIS BOX MAY BE COLLECTED AS EARLY AS 12 NOON.", "ref": "6102100022"}, "type": "Feature"}
{"geometry": {"coordinates": [-89.4725174, 41.827188], "type": "Point"}, "id": "G6L0GkAe23Jln3B092o8yTFXKzk=", "properties": {"@spider": "usps_collection_boxes", "addr:city": "DIXON", "addr:country": "US", "addr:full": "1640 S GALENA AVE", "addr:postcode": "61021", "addr:state": "IL", "brand": "USPS", "collection_times": "Mo-Sa 10:00", "name": "USPS COLLECTION BOX - BLUE BOX", "ref": "6102100023"}, "type": "Feature"}
{"geometry": {"coordinates": [-89.4611239, 41.834983], "type": "Point"}, "id": "Lb6WuiGBFxUp-Bf1q7bgYV0tVHo=", "properties": {"@spider": "usps_collection_boxes", "addr:city": "DIXON", "addr:country": "US", "addr:full": "1012 CARONDELET RD", "addr:postcode": "61021", "addr:state": "IL", "brand": "USPS", "collection_times": "Mo-Sa 09:30", "name": "USPS COLLECTION BOX - BLUE BOX", "ref": "6102100024"}, "type": "Feature"}
{"geometry": {"coordinates": [-89.486526677, 41.841650041], "type": "Point"}, "id": "2XxV92YVhsgnH8OYuSSRWIp09D4=", "properties": {"@spider": "usps_collection_boxes", "addr:city": "DIXON", "addr:country": "US", "addr:full": "405 W 2ND ST", "addr:postcode": "61021", "addr:state": "IL", "brand": "USPS", "collection_times": "Mo-Sa 17:15", "name": "USPS COLLECTION BOX - PO LOBBY", "note": "ON 12/24 AND 12/31, THIS BOX MAY BE COLLECTED AS EARLY AS 12 NOON.", "ref": "6102100026"}, "type": "Feature"}
{"geometry": {"coordinates": [-89.331796, 42.434457], "type": "Point"}, "id": "WyICSQGBPZWFkmQ7_zIXbhcp9LM=", "properties": {"@spider": "usps_collection_boxes", "addr:city": "DURAND", "addr:country": "US", "addr:full": "211 N CENTER ST", "addr:postcode": "61024", "addr:state": "IL", "brand": "USPS", "collection_times": "Mo-Fr 16:30; Sa 11:45", "name": "USPS COLLECTION BOX - BLUE BOX", "note": "ON 12/24 AND 12/31, THIS BOX MAY BE COLLECTED AS EARLY AS 12 NOON.", "ref": "6102400001"}, "type": "Feature"}
{"geometry": {"coordinates": [-89.331832, 42.434385], "type": "Point"}, "id": "erIKPnhF7FARhAGHBtQbIHoXaVw=", "properties": {"@spider": "usps_collection_boxes", "addr:city": "DURAND", "addr:country": "US", "addr:full": "211 N CENTER ST", "addr:postcode": "61024", "addr:state": "IL", "brand": "USPS", "collection_times": "Mo-Fr 16:30; Sa 11:45", "name": "USPS COLLECTION BOX - PO LOBBY", "note": "ON 12/24 AND 12/31, THIS BOX MAY BE COLLECTED AS EARLY AS 12 NOON.", "ref": "6102400002"}, "type": "Feature"}
{"geometry": {"coordinates": [-89.3323442, 42.428262], "type": "Point"}, "id": "9ACmxnAVd2ZJd2Wu0A1VB7nzN7I=", "properties": {"@spider": "usps_collection_boxes", "addr:city": "DURAND", "addr:country": "US", "addr:full": "502 S CENTER ST", "addr:postcode": "61024", "addr:state": "IL", "brand": "USPS", "collection_times": "Mo-Sa 10:45", "name": "USPS COLLECTION BOX - BLUE BOX", "ref": "6102400004"}, "type": "Feature"}
{"geometry": {"coordinates": [-89.33177522, 42.434426752], "type": "Point"}, "id": "JLFte5hGLCdLvQuLDvGSbRzKbYQ=", "properties": {"@spider": "usps_collection_boxes", "addr:city": "DURAND", "addr:country": "US", "addr:full": "211 N CENTER ST", "addr:postcode": "61024", "addr:state": "IL", "brand": "USPS", "collection_times": "Mo-Fr 16:30; Sa 11:45", "name": "USPS COLLECTION BOX - PO LOBBY", "note": "ON 12/24 AND 12/31, THIS BOX MAY BE COLLECTED AS EARLY AS 12 NOON.", "ref": "6102400005"}, "type": "Feature"}
{"geometry": {"coordinates": [-90.6418031, 42.492598], "type": "Point"}, "id": "XHKjBCkvNyt47PLyNpn9WHfAwAs=", "properties": {"@spider": "usps_collection_boxes", "addr:city": "EAST DUBUQUE", "addr:country": "US", "addr:full": "122 WISCONSIN AVE", "addr:postcode": "61025", "addr:state": "IL", "brand": "USPS", "collection_times": "Mo-Sa 10:00", "name": "USPS COLLECTION BOX - BLUE BOX", "ref": "6102500007"}, "type": "Feature"}
{"geometry": {"coordinates": [-90.644309, 42.492502], "type": "Point"}, "id": "ahBJGCBHKrWQLvzV-tDVIeE6LQk=", "properties": {"@spider": "usps_collection_boxes", "addr:city": "EAST DUBUQUE", "addr:country": "US", "addr:full": "200 WALL ST", "addr:postcode": "61025", "addr:state": "IL", "brand": "USPS", "collection_times": "Mo-Fr 16:15; Sa 12:00", "name": "USPS COLLECTION BOX - PO LOBBY", "note": "ON 12/24 AND 12/31, THIS BOX MAY BE COLLECTED AS EARLY AS 12 NOON.", "ref": "6102500009"}, "type": "Feature"}
{"geometry": {"coordinates": [-90.644379, 42.49258], "type": "Point"}, "id": "wW1hiL94sLcKXhZN-C-AN_LPe6s=", "properties": {"@spider": "usps_collection_boxes", "addr:city": "EAST DUBUQUE", "addr:country": "US", "addr:full": "200 WALL ST", "addr:postcode": "61025", "addr:state": "IL", "brand": "USPS", "collection_times": "Mo-Fr 16:15; Sa 12:00", "name": "USPS COLLECTION BOX - PO LOBBY", "note": "ON 12/24 AND 12/31, THIS BOX MAY BE COLLECTED AS EARLY AS 12 NOON.", "ref": "6102500010"}, "type": "Feature"}
{"geometry": {"coordinates": [-90.644379, 42.49258], "type": "Point"}, "id": "XF02qu89253dGyYnVfgtxBfAoyE=", "properties": {"@spider": "usps_collection_boxes", "addr:city": "EAST DUBUQUE", "addr:country": "US", "addr:full": "200 WALL ST", "addr:postcode": "61025", "addr:state": "IL", "brand": "USPS", "collection_times": "Mo-Fr 16:15; Sa 12:00", "name": "USPS COLLECTION BOX - BLUE BOX", "note": "ON 12/24 AND 12/31, THIS BOX MAY BE COLLECTED AS EARLY AS 12 NOON.", "ref": "6102500011"}, "type": "Feature"}
{"geometry": {"coordinates": [-90.6306864, 42.487768], "type": "Point"}, "id": "3lgFJfTK5AuS6xBEGoxdIbamTUw=", "properties": {"@spider": "usps_collection_boxes", "addr:city": "EAST DUBUQUE", "addr:country": "US", "addr:full": "7796 TIMMERMAN DR", "addr:postcode": "61025", "addr:state": "IL", "brand": "USPS", "collection_times": "Mo-Sa 09:00", "name": "USPS COLLECTION BOX - BLUE BOX", "ref": "6102500012"}, "type": "Feature"}
{"geometry": {"coordinates": [-90.6443853802, 42.4924677039], "type": "Point"}, "id": "0iPGPa0sBv0QW-U4YOt3OaS15aI=", "properties": {"@spider": "usps_collection_boxes", "addr:city": "EAST DUBUQUE", "addr:country": "US", "addr:full": "200 WALL ST", "addr:postcode": "61025", "addr:state": "IL", "brand": "USPS", "collection_times": "Mo-Fr 16:15; Sa 12:00", "name": "USPS COLLECTION BOX - PO LOBBY", "note": "ON 12/24 AND 12/31, THIS BOX MAY BE COLLECTED AS EARLY AS 12 NOON.", "ref": "6102500013"}, "type": "Feature"}
{"geometry": {"coordinates": [-89.760595, 42.333206], "type": "Point"}, "id": "zBrE02wK_bVXzyIwARXld_P7pLU=", "properties": {"@spider": "usps_collection_boxes", "addr:city": "ELEROY", "addr:country": "US", "addr:full": "316 N BRIDGE ST", "addr:postcode": "61027", "addr:state": "IL", "brand": "USPS", "collection_times": "Mo-Sa 10:15", "name": "USPS COLLECTION BOX - BLUE BOX", "ref": "6102700001"}, "type": "Feature"}
{"geometry": {"coordinates": [-89.760586, 42.33314], "type": "Point"}, "id": "u4hRiKcmwdpoLcDKkeFSm5pOVdc=", "properties": {"@spider": "usps_collection_boxes", "addr:city": "ELEROY", "addr:country": "US", "addr:full": "316 N BRIDGE ST", "addr:postcode": "61027", "addr:state": "IL", "brand": "USPS", "collection_times": "Mo-Sa 10:15", "name": "USPS COLLECTION BOX - PO LOBBY", "ref": "6102700002"}, "type": "Feature"}
{"geometry": {"coordinates": [-89.7604157241, 42.3336062931], "type": "Point"}, "id": "IzgfyVS2Upabzx4IRStTALfSSGI=", "properties": {"@spider": "usps_collection_boxes", "addr:city": "ELEROY", "addr:country": "US", "addr:full": "316 N BRIDGE ST", "addr:postcode": "61027", "addr:state": "IL", "brand": "USPS", "collection_times": "Mo-Sa 10:15", "name": "USPS COLLECTION BOX - PO LOBBY", "ref": "6102700003"}, "type": "Feature"}
{"geometry": {"coordinates": [-90.22357, 42.317011], "type": "Point"}, "id": "TSnvB5F-RwcZCj7P8e0ZLrxE7II=", "properties": {"@spider": "usps_collection_boxes", "addr:city": "ELIZABETH", "addr:country": "US", "addr:full": "102 E MYRTLE ST", "addr:postcode": "61028", "addr:state": "IL", "brand": "USPS", "collection_times": "Mo-Fr 16:00; Sa 11:45", "name": "USPS COLLECTION BOX - BLUE BOX", "note": "ON 12/24 AND 12/31, THIS BOX MAY BE COLLECTED AS EARLY AS 12 NOON.", "ref": "6102800002"}, "type": "Feature"}
{"geometry": {"coordinates": [-90.22366, 42.31695], "type": "Point"}, "id": "HChgUumQ0aIQOeB7nfxBLM1w4zo=", "properties": {"@spider": "usps_collection_boxes", "addr:city": "ELIZABETH", "addr:country": "US", "addr:full": "102 E MYRTLE ST", "addr:postcode": "61028", "addr:state": "IL", "brand": "USPS", "collection_times": "Mo-Fr 16:00; Sa 11:45", "name": "USPS COLLECTION BOX - PO LOBBY", "note": "ON 12/24 AND 12/31, THIS BOX MAY BE COLLECTED AS EARLY AS 12 NOON.", "ref": "6102800003"}, "type": "Feature"}
{"geometry": {"coordinates": [-90.223620674, 42.317041161], "type": "Point"}, "id": "cPlEA1xKJ84hJNE7GYD5cjwLqpI=", "properties": {"@spider": "usps_collection_boxes", "addr:city": "ELIZABETH", "addr:country": "US", "addr:full": "102 E MYRTLE ST", "addr:postcode": "61028", "addr:state": "IL", "brand": "USPS", "collection_times": "Mo-Fr 16:00; Sa 11:45", "name": "USPS COLLECTION BOX - PO LOBBY", "note": "ON 12/24 AND 12/31, THIS BOX MAY BE COLLECTED AS EARLY AS 12 NOON.", "ref": "6102800004"}, "type": "Feature"}
{"geometry": {"coordinates": [-89.57833, 42.126366], "type": "Point"}, "id": "6KJj3Ihpeuqyn5CW-NTVs91iXPc=", "properties": {"@spider": "usps_collection_boxes", "addr:city": "FORRESTON", "addr:country": "US", "addr:full": "210 E MAIN ST", "addr:postcode": "61030", "addr:state": "IL", "brand": "USPS", "collection_times": "Mo-Fr 16:30; Sa 11:45", "name": "USPS COLLECTION BOX - BLUE BOX", "note": "ON 12/24 AND 12/31, THIS BOX MAY BE COLLECTED AS EARLY AS 12 NOON.", "ref": "6103000001"}, "type": "Feature"}
{"geometry": {"coordinates": [-89.57833, 42.126366], "type": "Point"}, "id": "qstGFg12UMhU3ydeJCVYBkLwP5s=", "properties": {"@spider": "usps_collection_boxes", "addr:city": "FORRESTON", "addr:country": "US", "addr:full": "210 E MAIN ST", "addr:postcode": "61030", "addr:state": "IL", "brand": "USPS", "collection_times": "Mo-Fr 16:30; Sa 11:45", "name": "USPS COLLECTION BOX - PO LOBBY", "note": "ON 12/24 AND 12/31, THIS BOX MAY BE COLLECTED AS EARLY AS 12 NOON.", "ref": "6103000002"}, "type": "Feature"}
{"geometry": {"coordinates": [-89.57833, 42.126366], "type": "Point"}, "id": "XqVDFIaZeMR9S-4GVHf-0ZylGL0=", "properties": {"@spider": "usps_collection_boxes", "addr:city": "FORRESTON", "addr:country": "US", "addr:full": "210 E MAIN ST", "addr:postcode": "61030", "addr:state": "IL", "brand": "USPS", "collection_times": "Mo-Fr 16:30; Sa 11:45", "name": "USPS COLLECTION BOX - PO LOBBY", "note": "ON 12/24 AND 12/31, THIS BOX MAY BE COLLECTED AS EARLY AS 12 NOON.", "ref": "6103000003"}, "type": "Feature"}
{"geometry": {"coordinates": [-89.578306178, 42.126447295], "type": "Point"}, "id": "EgIz9ebLWLxxoLSZxxVIMuZY7wo=", "properties": {"@spider": "usps_collection_boxes", "addr:city": "FORRESTON", "addr:country": "US", "addr:full": "210 E MAIN ST", "addr:postcode": "61030", "addr:state": "IL", "brand": "USPS", "collection_times": "Mo-Fr 16:30; Sa 11:45", "name": "USPS COLLECTION BOX - PO LOBBY", "note": "ON 12/24 AND 12/31, THIS BOX MAY BE COLLECTED AS EARLY AS 12 NOON.", "ref": "6103000005"}, "type": "Feature"}
{"geometry": {"coordinates": [-89.29952, 41.839459], "type": "Point"}, "id": "6xZD4x8LkU1C0-KbZwDJY03NQH4=", "properties": {"@spider": "usps_collection_boxes", "addr:city": "FRANKLIN GROVE", "addr:country": "US", "addr:full": "113 S ELM ST", "addr:postcode": "61031", "addr:state": "IL", "brand": "USPS", "collection_times": "Mo-Fr 13:45; Sa 11:00", "name": "USPS COLLECTION BOX - BLUE BOX", "note": "ON 12/24 AND 12/31, THIS BOX MAY BE COLLECTED AS EARLY AS 12 NOON.", "ref": "6103100001"}, "type": "Feature"}
{"geometry": {"coordinates": [-89.299484, 41.839447], "type": "Point"}, "id": "eGmQ_dULTDDwu9XbpwhwUrw44jI=", "properties": {"@spider": "usps_collection_boxes", "addr:city": "FRANKLIN GROVE", "addr:country": "US", "addr:full": "113 S ELM ST", "addr:postcode": "61031", "addr:state": "IL", "brand": "USPS", "collection_times": "Mo-Fr 13:45; Sa 11:00", "name": "USPS COLLECTION BOX - PO LOBBY", "note": "ON 12/24 AND 12/31, THIS BOX MAY BE COLLECTED AS EARLY AS 12 NOON.", "ref": "6103100002"}, "type": "Feature"}
{"geometry": {"coordinates": [-89.299484, 41.839447], "type": "Point"}, "id": "LtQLl7BmeAInhuEY0oo5BrZNZDQ=", "properties": {"@spider": "usps_collection_boxes", "addr:city": "FRANKLIN GROVE", "addr:country": "US", "addr:full": "113 S ELM ST", "addr:postcode": "61031", "addr:state": "IL", "brand": "USPS", "collection_times": "Mo-Fr 13:45; Sa 11:00", "name": "USPS COLLECTION BOX - PO LOBBY", "note": "ON 12/24 AND 12/31, THIS BOX MAY BE COLLECTED AS EARLY AS 12 NOON.", "ref": "6103100003"}, "type": "Feature"}
{"geometry": {"coordinates": [-89.29957046, 41.839453145], "type": "Point"}, "id": "BawOcHvyz9pEZOgqnJtXaSeqHjM=", "properties": {"@spider": "usps_collection_boxes", "addr:city": "FRANKLIN GROVE", "addr:country": "US", "addr:full": "113 S ELM ST", "addr:postcode": "61031", "addr:state": "IL", "brand": "USPS", "collection_times": "Mo-Fr 13:45; Sa 11:00", "name": "USPS COLLECTION BOX - PO LOBBY", "note": "ON 12/24 AND 12/31, THIS BOX MAY BE COLLECTED AS EARLY AS 12 NOON.", "ref": "6103100004"}, "type": "Feature"}
{"geometry": {"coordinates": [-89.6504942, 42.30443], "type": "Point"}, "id": "O69iPaIWTAFXd-8baOCUy-FTwkQ=", "properties": {"@spider": "usps_collection_boxes", "addr:city": "FREEPORT", "addr:country": "US", "addr:full": "2002 W GALENA AVE", "addr:postcode": "61032", "addr:state": "IL", "brand": "USPS", "collection_times": "Mo-Fr 16:30; Sa 16:00", "name": "USPS COLLECTION BOX - BLUE BOX", "note": "ON 12/24 AND 12/31, THIS BOX MAY BE COLLECTED AS EARLY AS 12 NOON.", "ref": "6103200005"}, "type": "Feature"}
{"geometry": {"coordinates": [-89.6340887, 42.27493], "type": "Point"}, "id": "xGPrzR3Mj9cbMAVny5qMQHH8Das=", "properties": {"@spider": "usps_collection_boxes", "addr:city": "FREEPORT", "addr:country": "US", "addr:full": "1844 S WEST AVE", "addr:postcode": "61032", "addr:state": "IL", "brand": "USPS", "collection_times": "Mo-Fr 16:45; Sa 16:15", "name": "USPS COLLECTION BOX - BLUE BOX", "note": "ON 12/24 AND 12/31, THIS BOX MAY BE COLLECTED AS EARLY AS 12 NOON.", "ref": "6103200006"}, "type": "Feature"}
{"geometry": {"coordinates": [-89.6299053, 42.279546], "type": "Point"}, "id": "V0BLNVAVFLLmQLStD2fHTbsqE6s=", "properties": {"@spider": "usps_collection_boxes", "addr:city": "FREEPORT", "addr:country": "US", "addr:full": "721 W SOUTH ST", "addr:postcode": "61032", "addr:state": "IL", "brand": "USPS", "collection_times": "Mo-Fr 16:45; Sa 16:15", "name": "USPS COLLECTION BOX - BLUE BOX", "note": "ON 12/24 AND 12/31, THIS BOX MAY BE COLLECTED AS EARLY AS 12 NOON.", "ref": "6103200007"}, "type": "Feature"}
{"geometry": {"coordinates": [-89.6195209, 42.297716], "type": "Point"}, "id": "GZE5GSICxJTMrwn1kK9EwG03qBA=", "properties": {"@spider": "usps_collection_boxes", "addr:city": "FREEPORT", "addr:country": "US", "addr:full": "22 S CHICAGO AVE", "addr:postcode": "61032", "addr:state": "IL", "brand": "USPS", "collection_times": "Mo-Fr 17:00; Sa 16:30", "name": "USPS COLLECTION BOX - BLUE BOX", "note": "ON 12/24 AND 12/31, THIS BOX MAY BE COLLECTED AS EARLY AS 12 NOON.", "ref": "6103200011"}, "type": "Feature"}
{"geometry": {"coordinates": [-89.6181245, 42.298245], "type": "Point"}, "id": "iZDVGJ76C-KQz9grm3HIBHJ5kL0=", "properties": {"@spider": "usps_collection_boxes", "addr:city": "FREEPORT", "addr:country": "US", "addr:full": "27 S STATE AVE", "addr:postcode": "61032", "addr:state": "IL", "brand": "USPS", "collection_times": "Mo-Fr 17:00; Sa 16:30", "name": "USPS COLLECTION BOX - BLUE BOX", "note": "ON 12/24 AND 12/31, THIS BOX MAY BE COLLECTED AS EARLY AS 12 NOON.", "ref": "6103200013"}, "type": "Feature"}
{"geometry": {"coordinates": [-89.622663424, 42.297323596], "type": "Point"}, "id": "X9b570g3n8rMfn-eJhImkhtxyJo=", "properties": {"@spider": "usps_collection_boxes", "addr:city": "FREEPORT", "addr:country": "US", "addr:full": "223 W STEPHENSON ST", "addr:postcode": "61032", "addr:state": "IL", "brand": "USPS", "collection_times": "Mo-Fr 17:00; Sa 16:30", "name": "USPS COLLECTION BOX - BLUE BOX", "note": "ON 12/24 AND 12/31, THIS BOX MAY BE COLLECTED AS EARLY AS 12 NOON.", "ref": "6103200015"}, "type": "Feature"}
{"geometry": {"coordinates": [-89.6227582, 42.296365], "type": "Point"}, "id": "_XHCVbpGyoJdoms2hUJmXvqyibs=", "properties": {"@spider": "usps_collection_boxes", "addr:city": "FREEPORT", "addr:country": "US", "addr:full": "302 W MAIN ST", "addr:postcode": "61032", "addr:state": "IL", "brand": "USPS", "collection_times": "Mo-Fr 17:00; Sa 16:30", "name": "USPS COLLECTION BOX - BLUE BOX", "note": "ON 12/24 AND 12/31, THIS BOX MAY BE COLLECTED AS EARLY AS 12 NOON.", "ref": "6103200016"}, "type": "Feature"}
{"geometry": {"coordinates": [-89.6301573, 42.296257], "type": "Point"}, "id": "nAO5evID1MLdo3aI8bQPALqwdwI=", "properties": {"@spider": "usps_collection_boxes", "addr:city": "FREEPORT", "addr:country": "US", "addr:full": "662 W STEPHENSON ST", "addr:postcode": "61032", "addr:state": "IL", "brand": "USPS", "collection_times": "Mo-Sa 09:00", "name": "USPS COLLECTION BOX - BLUE BOX", "ref": "6103200017"}, "type": "Feature"}
{"geometry": {"coordinates": [-89.63146328, 42.294629517], "type": "Point"}, "id": "AsUC9aF8uDEqUK9LtjZXp2EWTcs=", "properties": {"@spider": "usps_collection_boxes", "addr:city": "FREEPORT", "addr:country": "US", "addr:full": "773 W LINCOLN BLVD", "addr:postcode": "61032", "addr:state": "IL", "brand": "USPS", "collection_times": "Mo-Sa 11:00", "name": "USPS COLLECTION BOX - BLUE BOX", "ref": "6103200018"}, "type": "Feature"}
{"geometry": {"coordinates": [-89.6429869, 42.300986], "type": "Point"}, "id": "hyU8Emz339FVArS5edUGGFEnsLM=", "properties": {"@spider": "usps_collection_boxes", "addr:city": "FREEPORT", "addr:country": "US", "addr:full": "1201 W GALENA AVE", "addr:postcode": "61032", "addr:state": "IL", "brand": "USPS", "collection_times": "Mo-Fr 16:30; Sa 16:00", "name": "USPS COLLECTION BOX - BLUE BOX", "note": "ON 12/24 AND 12/31, THIS BOX MAY BE COLLECTED AS EARLY AS 12 NOON.", "ref": "6103200019"}, "type": "Feature"}
{"geometry": {"coordinates": [-89.6386316, 42.295461], "type": "Point"}, "id": "i6n_YLc8NdOm4eTBpYGjq3YZPHk=", "properties": {"@spider": "usps_collection_boxes", "addr:city": "FREEPORT", "addr:country": "US", "addr:full": "1045 W STEPHENSON ST", "addr:postcode": "61032", "addr:state": "IL", "brand": "USPS", "collection_times": "Mo-Fr 16:30; Sa 16:00", "name": "USPS COLLECTION BOX - BLUE BOX", "note": "ON 12/24 AND 12/31, THIS BOX MAY BE COLLECTED AS EARLY AS 12 NOON.", "ref": "6103200020"}, "type": "Feature"}
{"geometry": {"coordinates": [-89.6327341, 42.282768], "type": "Point"}, "id": "-P5PluDGBrjpJ5r_5r8oEWTlGDI=", "properties": {"@spider": "usps_collection_boxes", "addr:city": "FREEPORT", "addr:country": "US", "addr:full": "1512 S WEST AVE", "addr:postcode": "61032", "addr:state": "IL", "brand": "USPS", "collection_times": "Mo-Fr 16:30; Sa 16:00", "name": "USPS COLLECTION BOX - BLUE BOX", "note": "ON 12/24 AND 12/31, THIS BOX MAY BE COLLECTED AS EARLY AS 12 NOON.", "ref": "6103200021"}, "type": "Feature"}
{"geometry": {"coordinates": [-89.6197033, 42.299346], "type": "Point"}, "id": "PZDcTAQCbuTqB0hn7hT9WpnP7tA=", "properties": {"@spider": "usps_collection_boxes", "addr:city": "FREEPORT", "addr:country": "US", "addr:full": "103 N CHICAGO AVE", "addr:postcode": "61032", "addr:state": "IL", "brand": "USPS", "collection_times": "Mo-Fr 17:45; Sa 17:15", "name": "USPS COLLECTION BOX - BLUE BOX", "note": "ON 12/24 AND 12/31, THIS BOX MAY BE COLLECTED AS EARLY AS 12 NOON.", "ref": "6103200029"}, "type": "Feature"}
{"geometry": {"coordinates": [-89.6207618, 42.299514], "type": "Point"}, "id": "FvdZK87V5AoWFGukwm3N2DFjhI0=", "properties": {"@spider": "usps_collection_boxes", "addr:city": "FREEPORT", "addr:country": "US", "addr:full": "103 N CHICAGO AVE", "addr:postcode": "61032", "addr:state": "IL", "brand": "USPS", "collection_times": "Mo-Fr 17:45; Sa 17:15", "name": "USPS COLLECTION BOX - BLUE BOX", "note": "ON 12/24 AND 12/31, THIS BOX MAY BE COLLECTED AS EARLY AS 12 NOON.", "ref": "6103200030"}, "type": "Feature"}
{"geometry": {"coordinates": [-89.6496079, 42.287098], "type": "Point"}, "id": "MKkll-vlbEO1AnEjbs24ee3JRvs=", "properties": {"@spider": "usps_collection_boxes", "addr:city": "FREEPORT", "addr:country": "US", "addr:full": "1223 S BENSON BLVD", "addr:postcode": "61032", "addr:state": "IL", "brand": "USPS", "collection_times": "Mo-Sa 11:00", "name": "USPS COLLECTION BOX - BLUE BOX", "ref": "6103200031"}, "type": "Feature"}
{"geometry": {"coordinates": [-89.6711457, 42.291304], "type": "Point"}, "id": "KACSRtRAPGC39iAexnN65XwgKWc=", "properties": {"@spider": "usps_collection_boxes", "addr:city": "FREEPORT", "addr:country": "US", "addr:full": "750 KIWANIS DR", "addr:postcode": "61032", "addr:state": "IL", "brand": "USPS", "collection_times": "Mo-Sa 13:00", "name": "USPS COLLECTION BOX - BLUE BOX", "note": "ON 12/24 AND 12/31, THIS BOX MAY BE COLLECTED AS EARLY AS 12 NOON.", "ref": "6103200032"}, "type": "Feature"}
{"geometry": {"coordinates": [-89.6561249, 42.307041], "type": "Point"}, "id": "jO6gcZdKDnCqHag0B-Tz6JCSUOc=", "properties": {"@spider": "usps_collection_boxes", "addr:city": "FREEPORT", "addr:country": "US", "addr:full": "101 MARCIA DR", "addr:postcode": "61032", "addr:state": "IL", "brand": "USPS", "collection_times": "Mo-Sa 09:30", "name": "USPS COLLECTION BOX - BLUE BOX", "ref": "6103200035"}, "type": "Feature"}
{"geometry": {"coordinates": [-89.6039336, 42.289285], "type": "Point"}, "id": "po0r4xLjIM9uuhBBeaGaR4L1nic=", "properties": {"@spider": "usps_collection_boxes", "addr:city": "FREEPORT", "addr:country": "US", "addr:full": "939 S CHIPPEWA AVE", "addr:postcode": "61032", "addr:state": "IL", "brand": "USPS", "collection_times": "Mo-Sa 13:00", "name": "USPS COLLECTION BOX - BLUE BOX", "note": "ON 12/24 AND 12/31, THIS BOX MAY BE COLLECTED AS EARLY AS 12 NOON.", "ref": "6103200042"}, "type": "Feature"}
{"geometry": {"coordinates": [-89.6417413, 42.294214], "type": "Point"}, "id": "I1OX8Cl5pm5RofLj6m3bVlPJP8A=", "properties": {"@spider": "usps_collection_boxes", "addr:city": "FREEPORT", "addr:country": "US", "addr:full": "1203 W LINCOLN ST", "addr:postcode": "61032", "addr:state": "IL", "brand": "USPS", "collection_times": "Mo-Sa 13:00", "name": "USPS COLLECTION BOX - BLUE BOX", "note": "ON 12/24 AND 12/31, THIS BOX MAY BE COLLECTED AS EARLY AS 12 NOON.", "ref": "6103200044"}, "type": "Feature"}
{"geometry": {"coordinates": [-89.6501859, 42.294466], "type": "Point"}, "id": "CzgxZnT5L3X3BjcEicPfDNMF4IA=", "properties": {"@spider": "usps_collection_boxes", "addr:city": "FREEPORT", "addr:country": "US", "addr:full": "1550 W STEPHENSON ST", "addr:postcode": "61032", "addr:state": "IL", "brand": "USPS", "collection_times": "Mo-Sa 13:00", "name": "USPS COLLECTION BOX - BLUE BOX", "note": "ON 12/24 AND 12/31, THIS BOX MAY BE COLLECTED AS EARLY AS 12 NOON.", "ref": "6103200045"}, "type": "Feature"}
{"geometry": {"coordinates": [-89.6197499, 42.299324], "type": "Point"}, "id": "veXUbbMeckT6UhU04ic-Cd6kXhU=", "properties": {"@spider": "usps_collection_boxes", "addr:city": "FREEPORT", "addr:country": "US", "addr:full": "103 N CHICAGO AVE", "addr:postcode": "61032", "addr:state": "IL", "brand": "USPS", "collection_times": "Mo-Fr 17:45; Sa 17:15", "name": "USPS COLLECTION BOX - BLUE BOX", "note": "ON 12/24 AND 12/31, THIS BOX MAY BE COLLECTED AS EARLY AS 12 NOON.", "ref": "6103200048"}, "type": "Feature"}
{"geometry": {"coordinates": [-89.6207609, 42.299527], "type": "Point"}, "id": "WdEnLtq6mEduxrVa3FEFyKUYjbY=", "properties": {"@spider": "usps_collection_boxes", "addr:city": "FREEPORT", "addr:country": "US", "addr:full": "103 N CHICAGO AVE", "addr:postcode": "61032", "addr:state": "IL", "brand": "USPS", "collection_times": "Mo-Fr 17:45; Sa 17:15", "name": "USPS COLLECTION BOX - BLUE BOX", "note": "ON 12/24 AND 12/31, THIS BOX MAY BE COLLECTED AS EARLY AS 12 NOON.", "ref": "6103200049"}, "type": "Feature"}
{"geometry": {"coordinates": [-89.6207654, 42.299515], "type": "Point"}, "id": "4-ZOoLaq9yp0bYy4xrG1aDibdQ0=", "properties": {"@spider": "usps_collection_boxes", "addr:city": "FREEPORT", "addr:country": "US", "addr:full": "103 N CHICAGO AVE", "addr:postcode": "61032", "addr:state": "IL", "brand": "USPS", "collection_times": "Mo-Fr 17:45; Sa 17:15", "name": "USPS COLLECTION BOX - BLUE BOX", "note": "ON 12/24 AND 12/31, THIS BOX MAY BE COLLECTED AS EARLY AS 12 NOON.", "ref": "6103200050"}, "type": "Feature"}
{"geometry": {"coordinates": [-89.6291271, 42.26406], "type": "Point"}, "id": "3t_2QEC10ldxYskPXYhm0toxu4o=", "properties": {"@spider": "usps_collection_boxes", "addr:city": "FREEPORT", "addr:country": "US", "addr:full": "2545 IL ROUTE 26 S", "addr:postcode": "61032", "addr:state": "IL", "brand": "USPS", "collection_times": "Mo-Fr 16:45; Sa 16:15", "name": "USPS COLLECTION BOX - BLUE BOX", "note": "ON 12/24 AND 12/31, THIS BOX MAY BE COLLECTED AS EARLY AS 12 NOON.", "ref": "6103200052"}, "type": "Feature"}
{"geometry": {"coordinates": [-89.628622722, 42.280389512], "type": "Point"}, "id": "aTUYfvrS9UoyA8HkxakNNQAXkUQ=", "properties": {"@spider": "usps_collection_boxes", "addr:city": "FREEPORT", "addr:country": "US", "addr:full": "640 W SOUTH ST", "addr:postcode": "61032", "addr:state": "IL", "brand": "USPS", "collection_times": "Mo-Fr 16:45; Sa 16:15", "name": "USPS COLLECTION BOX - BLUE BOX", "note": "ON 12/24 AND 12/31, THIS BOX MAY BE COLLECTED AS EARLY AS 12 NOON.", "ref": "6103200053"}, "type": "Feature"}
{"geometry": {"coordinates": [-89.6201459, 42.299353], "type": "Point"}, "id": "VOBgGuufSljUVdbWNuQzmpzOx6s=", "properties": {"@spider": "usps_collection_boxes", "addr:city": "FREEPORT", "addr:country": "US", "addr:full": "103 N CHICAGO AVE", "addr:postcode": "61032", "addr:state": "IL", "brand": "USPS", "collection_times": "Mo-Fr 17:45; Sa 17:15", "name": "USPS COLLECTION BOX - PO LOBBY", "note": "ON 12/24 AND 12/31, THIS BOX MAY BE COLLECTED AS EARLY AS 12 NOON.", "ref": "6103200054"}, "type": "Feature"}
{"geometry": {"coordinates": [-89.6202691, 42.299233], "type": "Point"}, "id": "b7hJY2F35s8U3J-anchRJ_l6Ox0=", "properties": {"@spider": "usps_collection_boxes", "addr:city": "FREEPORT", "addr:country": "US", "addr:full": "103 N CHICAGO AVE", "addr:postcode": "61032", "addr:state": "IL", "brand": "USPS", "collection_times": "Mo-Fr 17:45; Sa 17:15", "name": "USPS COLLECTION BOX - PO LOBBY", "note": "ON 12/24 AND 12/31, THIS BOX MAY BE COLLECTED AS EARLY AS 12 NOON.", "ref": "6103200055"}, "type": "Feature"}
{"geometry": {"coordinates": [-89.6137410351, 42.3009634348], "type": "Point"}, "id": "axSpanRwICGHZsqcKcBa677scPA=", "properties": {"@spider": "usps_collection_boxes", "addr:city": "FREEPORT", "addr:country": "US", "addr:full": "315 E STEPHENSON ST", "addr:postcode": "61032", "addr:state": "IL", "brand": "USPS", "collection_times": "Mo-Sa 13:00", "name": "USPS COLLECTION BOX - BLUE BOX", "note": "ON 12/24 AND 12/31, THIS BOX MAY BE COLLECTED AS EARLY AS 12 NOON.", "ref": "6103200057"}, "type": "Feature"}
{"geometry": {"coordinates": [-89.6189279, 42.298818], "type": "Point"}, "id": "ubhp2BAL3wFpg6D-d3SJr8hz5Kc=", "properties": {"@spider": "usps_collection_boxes", "addr:city": "FREEPORT", "addr:country": "US", "addr:full": "29 E STEPHENSON ST", "addr:postcode": "61032", "addr:state": "IL", "brand": "USPS", "collection_times": "Mo-Fr 17:00; Sa 16:30", "name": "USPS COLLECTION BOX - BLUE BOX", "note": "ON 12/24 AND 12/31, THIS BOX MAY BE COLLECTED AS EARLY AS 12 NOON.", "ref": "6103200058"}, "type": "Feature"}
{"geometry": {"coordinates": [-89.6203199, 42.29913], "type": "Point"}, "id": "RCl_ycn5Lh4p7uiWVkENiNmg348=", "properties": {"@spider": "usps_collection_boxes", "addr:city": "FREEPORT", "addr:country": "US", "addr:full": "103 N CHICAGO AVE", "addr:postcode": "61032", "addr:state": "IL", "brand": "USPS", "collection_times": "Mo-Fr 17:45; Sa 16:15", "name": "USPS COLLECTION BOX - BLUE BOX", "note": "ON 12/24 AND 12/31, THIS BOX MAY BE COLLECTED AS EARLY AS 12 NOON.", "ref": "6103200059"}, "type": "Feature"}
{"geometry": {"coordinates": [-89.6213768, 42.298014], "type": "Point"}, "id": "ug0mhKFdg_40SLX-c_1jCvPgSWg=", "properties": {"@spider": "usps_collection_boxes", "addr:city": "FREEPORT", "addr:country": "US", "addr:full": "101 W STEPHENSON ST", "addr:postcode": "61032", "addr:state": "IL", "brand": "USPS", "collection_times": "Mo-Fr 17:00; Sa 16:30", "name": "USPS COLLECTION BOX - BLUE BOX", "note": "ON 12/24 AND 12/31, THIS BOX MAY BE COLLECTED AS EARLY AS 12 NOON.", "ref": "6103200060"}, "type": "Feature"}
{"geometry": {"coordinates": [-89.6220338, 42.301217], "type": "Point"}, "id": "2ucJ3CzeypLri2j39q20LFcOKZE=", "properties": {"@spider": "usps_collection_boxes", "addr:city": "FREEPORT", "addr:country": "US", "addr:full": "4 E LINDEN ST", "addr:postcode": "61032", "addr:state": "IL", "brand": "USPS", "collection_times": "Mo-Sa 09:00", "name": "USPS COLLECTION BOX - BLUE BOX", "ref": "6103200062"}, "type": "Feature"}
{"geometry": {"coordinates": [-89.6205355703, 42.29921637], "type": "Point"}, "id": "56nto4JY3d6zbcW7gjXKhetMuwc=", "properties": {"@spider": "usps_collection_boxes", "addr:city": "FREEPORT", "addr:country": "US", "addr:full": "103 N CHICAGO AVE", "addr:postcode": "61032", "addr:state": "IL", "brand": "USPS", "collection_times": "Mo-Fr 17:45; Sa 17:15", "name": "USPS COLLECTION BOX - PO LOBBY", "note": "ON 12/24 AND 12/31, THIS BOX MAY BE COLLECTED AS EARLY AS 12 NOON.", "ref": "6103200067"}, "type": "Feature"}
{"geometry": {"coordinates": [-90.4255463, 42.41828], "type": "Point"}, "id": "TVrWTPR-DAe81HCu-18IPUVdYAo=", "properties": {"@spider": "usps_collection_boxes", "addr:city": "GALENA", "addr:country": "US", "addr:full": "330 N BENCH ST", "addr:postcode": "61036", "addr:state": "IL", "brand": "USPS", "collection_times": "Mo-Sa 14:15", "name": "USPS COLLECTION BOX - BLUE BOX", "note": "ON 12/24 AND 12/31, THIS BOX MAY BE COLLECTED AS EARLY AS 12 NOON.", "ref": "6103600001"}, "type": "Feature"}
{"geometry": {"coordinates": [-90.429129, 42.414176], "type": "Point"}, "id": "vIK_lJJPG2WsilWZTgIIg64lBrc=", "properties": {"@spider": "usps_collection_boxes", "addr:city": "GALENA", "addr:country": "US", "addr:full": "110 GREEN ST", "addr:postcode": "61036", "addr:state": "IL", "brand": "USPS", "collection_times": "Mo-Fr 14:30; Sa 15:00", "name": "USPS COLLECTION BOX - BLUE BOX", "note": "ON 12/24 AND 12/31, THIS BOX MAY BE COLLECTED AS EARLY AS 12 NOON.", "ref": "6103600002"}, "type": "Feature"}
{"geometry": {"coordinates": [-90.4273527, 42.416384], "type": "Point"}, "id": "mgh6c1tVi_l666MXd25mtTlYByw=", "properties": {"@spider": "usps_collection_boxes", "addr:city": "GALENA", "addr:country": "US", "addr:full": "200 PERRY ST", "addr:postcode": "61036", "addr:state": "IL", "brand": "USPS", "collection_times": "Mo-Sa 14:15", "name": "USPS COLLECTION BOX - BLUE BOX", "note": "ON 12/24 AND 12/31, THIS BOX MAY BE COLLECTED AS EARLY AS 12 NOON.", "ref": "6103600003"}, "type": "Feature"}
{"geometry": {"coordinates": [-90.4284826, 42.416265], "type": "Point"}, "id": "2lfO2wts5y30GL6UUEqwyXR86PU=", "properties": {"@spider": "usps_collection_boxes", "addr:city": "GALENA", "addr:country": "US", "addr:full": "100 N MAIN ST", "addr:postcode": "61036", "addr:state": "IL", "brand": "USPS", "collection_times": "Mo-Sa 14:15", "name": "USPS COLLECTION BOX - BLUE BOX", "note": "ON 12/24 AND 12/31, THIS BOX MAY BE COLLECTED AS EARLY AS 12 NOON.", "ref": "6103600005"}, "type": "Feature"}
{"geometry": {"coordinates": [-90.4281742, 42.412102], "type": "Point"}, "id": "wdjr7SpWBXR_kP5LWQArDdE-jw4=", "properties": {"@spider": "usps_collection_boxes", "addr:city": "GALENA", "addr:country": "US", "addr:full": "754 PARK AVE", "addr:postcode": "61036", "addr:state": "IL", "brand": "USPS", "collection_times": "Mo-Sa 12:30", "name": "USPS COLLECTION BOX - BLUE BOX", "note": "ON 12/24 AND 12/31, THIS BOX MAY BE COLLECTED AS EARLY AS 12 NOON.", "ref": "6103600006"}, "type": "Feature"}
{"geometry": {"coordinates": [-90.4280539, 42.419455], "type": "Point"}, "id": "RnA0TXjDNd8nxe0bvGxz94ODdFQ=", "properties": {"@spider": "usps_collection_boxes", "addr:city": "GALENA", "addr:country": "US", "addr:full": "399 FRANKLIN ST", "addr:postcode": "61036", "addr:state": "IL", "brand": "USPS", "collection_times": "Mo-Sa 12:15", "name": "USPS COLLECTION BOX - BLUE BOX", "note": "ON 12/24 AND 12/31, THIS BOX MAY BE COLLECTED AS EARLY AS 12 NOON.", "ref": "6103600008"}, "type": "Feature"}
{"geometry": {"coordinates": [-90.4300311, 42.418228], "type": "Point"}, "id": "0RP1yrqD-hANycF-k_p8YJY0QnU=", "properties": {"@spider": "usps_collection_boxes", "addr:city": "GALENA", "addr:country": "US", "addr:full": "319 HILL ST", "addr:postcode": "61036", "addr:state": "IL", "brand": "USPS", "collection_times": "Mo-Sa 11:30", "name": "USPS COLLECTION BOX - BLUE BOX", "ref": "6103600009"}, "type": "Feature"}
{"geometry": {"coordinates": [-90.4334072, 42.420045], "type": "Point"}, "id": "2sCArUjbRlmGQACDpNI6nxN03FQ=", "properties": {"@spider": "usps_collection_boxes", "addr:city": "GALENA", "addr:country": "US", "addr:full": "515 MARS AVE", "addr:postcode": "61036", "addr:state": "IL", "brand": "USPS", "collection_times": "Mo-Sa 14:00", "name": "USPS COLLECTION BOX - BLUE BOX", "note": "ON 12/24 AND 12/31, THIS BOX MAY BE COLLECTED AS EARLY AS 12 NOON.", "ref": "6103600011"}, "type": "Feature"}
{"geometry": {"coordinates": [-90.4417176, 42.423357], "type": "Point"}, "id": "jHYKo6iqU5gHkW-00B0unNo-oSI=", "properties": {"@spider": "usps_collection_boxes", "addr:city": "GALENA", "addr:country": "US", "addr:full": "997 GALENA SQUARE DR", "addr:postcode": "61036", "addr:state": "IL", "brand": "USPS", "collection_times": "Mo-Sa 14:00", "name": "USPS COLLECTION BOX - BLUE BOX", "note": "ON 12/24 AND 12/31, THIS BOX MAY BE COLLECTED AS EARLY AS 12 NOON.", "ref": "6103600013"}, "type": "Feature"}
{"geometry": {"coordinates": [-90.429118, 42.414202], "type": "Point"}, "id": "IncZIjrc-k-EOPGsJnHLNcDzcbw=", "properties": {"@spider": "usps_collection_boxes", "addr:city": "GALENA", "addr:country": "US", "addr:full": "110 GREEN ST", "addr:postcode": "61036", "addr:state": "IL", "brand": "USPS", "collection_times": "Mo-Fr 14:30; Sa 15:00", "name": "USPS COLLECTION BOX - BLUE BOX", "note": "ON 12/24 AND 12/31, THIS BOX MAY BE COLLECTED AS EARLY AS 12 NOON.", "ref": "6103600016"}, "type": "Feature"}
{"geometry": {"coordinates": [-90.44248, 42.421415], "type": "Point"}, "id": "Otj3hLdHTupuG_5Y38Y-UQLH9-A=", "properties": {"@spider": "usps_collection_boxes", "addr:city": "GALENA", "addr:country": "US", "addr:full": "901 GALENA SQUARE DR", "addr:postcode": "61036", "addr:state": "IL", "brand": "USPS", "collection_times": "Mo-Fr 16:30; Sa 15:00", "name": "USPS COLLECTION BOX - BLUE BOX", "note": "ON 12/24 AND 12/31, THIS BOX MAY BE COLLECTED AS EARLY AS 12 NOON.", "ref": "6103600017"}, "type": "Feature"}
{"geometry": {"coordinates": [-90.4425, 42.421323], "type": "Point"}, "id": "PGvQ9wouFCzI18RuG9Y30nm8gEQ=", "properties": {"@spider": "usps_collection_boxes", "addr:city": "GALENA", "addr:country": "US", "addr:full": "901 GALENA SQUARE DR", "addr:postcode": "61036", "addr:state": "IL", "brand": "USPS", "collection_times": "Mo-Fr 16:30; Sa 15:00", "name": "USPS COLLECTION BOX - BLUE BOX", "note": "ON 12/24 AND 12/31, THIS BOX MAY BE COLLECTED AS EARLY AS 12 NOON.", "ref": "6103600018"}, "type": "Feature"}
{"geometry": {"coordinates": [-90.429118, 42.414202], "type": "Point"}, "id": "I-6vKmFuxpzqKM1i7VuyOtQhc3M=", "properties": {"@spider": "usps_collection_boxes", "addr:city": "GALENA", "addr:country": "US", "addr:full": "110 GREEN ST", "addr:postcode": "61036", "addr:state": "IL", "brand": "USPS", "collection_times": "Mo-Fr 14:30; Sa 15:00", "name": "USPS COLLECTION BOX - PO LOBBY", "note": "ON 12/24 AND 12/31, THIS BOX MAY BE COLLECTED AS EARLY AS 12 NOON.", "ref": "6103600019"}, "type": "Feature"}
{"geometry": {"coordinates": [-90.429118, 42.414202], "type": "Point"}, "id": "klaRQEcpGNOLPppnIax4788yJSQ=", "properties": {"@spider": "usps_collection_boxes", "addr:city": "GALENA", "addr:country": "US", "addr:full": "110 GREEN ST", "addr:postcode": "61036", "addr:state": "IL", "brand": "USPS", "collection_times": "Mo-Fr 14:30; Sa 15:00", "name": "USPS COLLECTION BOX - PO LOBBY", "note": "ON 12/24 AND 12/31, THIS BOX MAY BE COLLECTED AS EARLY AS 12 NOON.", "ref": "6103600020"}, "type": "Feature"}
{"geometry": {"coordinates": [-90.3362799, 42.403826], "type": "Point"}, "id": "w1dakghR_LpYNexSaIV72PxFxRE=", "properties": {"@spider": "usps_collection_boxes", "addr:city": "GALENA", "addr:country": "US", "addr:full": "425 EAGLE RIDGE DR", "addr:postcode": "61036", "addr:state": "IL", "brand": "USPS", "collection_times": "Mo-Sa 12:00", "name": "USPS COLLECTION BOX - BLUE BOX", "ref": "6103600021"}, "type": "Feature"}
{"geometry": {"coordinates": [-90.418274, 42.407733], "type": "Point"}, "id": "EA4RJdcoXZCvX6LQtICwEs6czX8=", "properties": {"@spider": "usps_collection_boxes", "addr:city": "GALENA", "addr:country": "US", "addr:full": "9816 W US ROUTE 20", "addr:postcode": "61036", "addr:state": "IL", "brand": "USPS", "collection_times": "Mo-Sa 12:00", "name": "USPS COLLECTION BOX - BLUE BOX", "ref": "6103600022"}, "type": "Feature"}
{"geometry": {"coordinates": [-90.4425, 42.421323], "type": "Point"}, "id": "cdBD9VEOKGPpB6fa2UcCGNNC33A=", "properties": {"@spider": "usps_collection_boxes", "addr:city": "GALENA", "addr:country": "US", "addr:full": "901 GALENA SQUARE DR", "addr:postcode": "61036", "addr:state": "IL", "brand": "USPS", "collection_times": "Mo-Fr 16:30; Sa 15:00", "name": "USPS COLLECTION BOX - PO LOBBY", "note": "ON 12/24 AND 12/31, THIS BOX MAY BE COLLECTED AS EARLY AS 12 NOON.", "ref": "6103600023"}, "type": "Feature"}
{"geometry": {"coordinates": [-90.4425, 42.421323], "type": "Point"}, "id": "93dsvmThaED_mN2gStv0rVhH0QM=", "properties": {"@spider": "usps_collection_boxes", "addr:city": "GALENA", "addr:country": "US", "addr:full": "901 GALENA SQUARE DR", "addr:postcode": "61036", "addr:state": "IL", "brand": "USPS", "collection_times": "Mo-Fr 16:30; Sa 15:00", "name": "USPS COLLECTION BOX - PO LOBBY", "note": "ON 12/24 AND 12/31, THIS BOX MAY BE COLLECTED AS EARLY AS 12 NOON.", "ref": "6103600024"}, "type": "Feature"}
{"geometry": {"coordinates": [-90.4449206, 42.420758], "type": "Point"}, "id": "Ca1b6s7XsfN_PAfrcJMNIAFj9uw=", "properties": {"@spider": "usps_collection_boxes", "addr:city": "GALENA", "addr:country": "US", "addr:full": "971 GEAR ST", "addr:postcode": "61036", "addr:state": "IL", "brand": "USPS", "collection_times": "Mo-Sa 12:30", "name": "USPS COLLECTION BOX - BLUE BOX", "note": "ON 12/24 AND 12/31, THIS BOX MAY BE COLLECTED AS EARLY AS 12 NOON.", "ref": "6103600025"}, "type": "Feature"}
{"geometry": {"coordinates": [-90.452662606, 42.436580761], "type": "Point"}, "id": "hIA4YtFJ5iDgZV8BJAkaC5hb6rA=", "properties": {"@spider": "usps_collection_boxes", "addr:city": "GALENA", "addr:country": "US", "addr:full": "11359 INDUSTRIAL DR", "addr:postcode": "61036", "addr:state": "IL", "brand": "USPS", "collection_times": "Mo-Sa 12:30", "name": "USPS COLLECTION BOX - BLUE BOX", "note": "ON 12/24 AND 12/31, THIS BOX MAY BE COLLECTED AS EARLY AS 12 NOON.", "ref": "6103600026"}, "type": "Feature"}
{"geometry": {"coordinates": [-90.429196521, 42.414268904], "type": "Point"}, "id": "s49Xb7YvCBG_3wzVRluVcLwfzFI=", "properties": {"@spider": "usps_collection_boxes", "addr:city": "GALENA", "addr:country": "US", "addr:full": "110 GREEN ST", "addr:postcode": "61036", "addr:state": "IL", "brand": "USPS", "collection_times": "Mo-Fr 14:30; Sa 15:00", "name": "USPS COLLECTION BOX - PO LOBBY", "note": "ON 12/24 AND 12/31, THIS BOX MAY BE COLLECTED AS EARLY AS 12 NOON.", "ref": "6103600029"}, "type": "Feature"}
{"geometry": {"coordinates": [-90.4424962818, 42.4214982609], "type": "Point"}, "id": "CU1nXfNvPEa6rRyuzQn6XYUTn10=", "properties": {"@spider": "usps_collection_boxes", "addr:city": "GALENA", "addr:country": "US", "addr:full": "901 GALENA SQUARE DR", "addr:postcode": "61036", "addr:state": "IL", "brand": "USPS", "collection_times": "Mo-Fr 16:30; Sa 15:00", "name": "USPS COLLECTION BOX - PO LOBBY", "note": "ON 12/24 AND 12/31, THIS BOX MAY BE COLLECTED AS EARLY AS 12 NOON.", "ref": "6103600030"}, "type": "Feature"}
{"geometry": {"coordinates": [-89.7624371831, 41.7892888165], "type": "Point"}, "id": "WRmK5qAzlNzVJBTQv4ycaLUCwmc=", "properties": {"@spider": "usps_collection_boxes", "addr:city": "GALT", "addr:country": "US", "addr:full": "411 GALT RD", "addr:postcode": "61037", "addr:state": "IL", "brand": "USPS", "collection_times": "Mo-Fr 15:00; Sa 11:45", "name": "USPS COLLECTION BOX - BLUE BOX", "note": "ON 12/24 AND 12/31, THIS BOX MAY BE COLLECTED AS EARLY AS 12 NOON.", "ref": "6103700001"}, "type": "Feature"}
{"geometry": {"coordinates": [-89.7624371831, 41.7892888165], "type": "Point"}, "id": "pRYFPAtnmKA2XWuD1_tKdcW6Gbg=", "properties": {"@spider": "usps_collection_boxes", "addr:city": "GALT", "addr:country": "US", "addr:full": "411 GALT RD", "addr:postcode": "61037", "addr:state": "IL", "brand": "USPS", "collection_times": "Mo-Fr 15:00; Sa 11:45", "name": "USPS COLLECTION BOX - PO LOBBY", "note": "ON 12/24 AND 12/31, THIS BOX MAY BE COLLECTED AS EARLY AS 12 NOON.", "ref": "6103700002"}, "type": "Feature"}
{"geometry": {"coordinates": [-89.7624371831, 41.7892888165], "type": "Point"}, "id": "tMUDOq2ODjTU0x69c7hAv8EQBow=", "properties": {"@spider": "usps_collection_boxes", "addr:city": "GALT", "addr:country": "US", "addr:full": "411 GALT RD", "addr:postcode": "61037", "addr:state": "IL", "brand": "USPS", "collection_times": "Mo-Fr 15:00; Sa 11:45", "name": "USPS COLLECTION BOX - PO LOBBY", "note": "ON 12/24 AND 12/31, THIS BOX MAY BE COLLECTED AS EARLY AS 12 NOON.", "ref": "6103700003"}, "type": "Feature"}
{"geometry": {"coordinates": [-89.762119327, 41.789844], "type": "Point"}, "id": "OwpxRuS810GJXW8ZH5Zqdk5TjV8=", "properties": {"@spider": "usps_collection_boxes", "addr:city": "GALT", "addr:country": "US", "addr:full": "411 GALT RD", "addr:postcode": "61037", "addr:state": "IL", "brand": "USPS", "collection_times": "Mo-Fr 15:00; Sa 11:45", "name": "USPS COLLECTION BOX - PO LOBBY", "note": "ON 12/24 AND 12/31, THIS BOX MAY BE COLLECTED AS EARLY AS 12 NOON.", "ref": "6103700005"}, "type": "Feature"}
{"geometry": {"coordinates": [-88.72279, 42.253365], "type": "Point"}, "id": "RSejFveG0zSL_OtNbJhTOnyAJMk=", "properties": {"@spider": "usps_collection_boxes", "addr:city": "GARDEN PRAIRIE", "addr:country": "US", "addr:full": "6820 PLEASANT ST", "addr:postcode": "61038", "addr:state": "IL", "brand": "USPS", "collection_times": "Mo-Sa 10:30", "name": "USPS COLLECTION BOX - BLUE BOX", "ref": "6103800001"}, "type": "Feature"}
{"geometry": {"coordinates": [-88.72304, 42.25374], "type": "Point"}, "id": "pvMcCJlpBbLliY-i12ya11ZyaqQ=", "properties": {"@spider": "usps_collection_boxes", "addr:city": "GARDEN PRAIRIE", "addr:country": "US", "addr:full": "6828 PLEASANT ST", "addr:postcode": "61038", "addr:state": "IL", "brand": "USPS", "collection_times": "Mo-Sa 10:30", "name": "USPS COLLECTION BOX - PO LOBBY", "ref": "6103800002"}, "type": "Feature"}
{"geometry": {"coordinates": [-88.722791118, 42.2537406706], "type": "Point"}, "id": "i1ioYvq-5L7vv9PzxCyM_RyCY_I=", "properties": {"@spider": "usps_collection_boxes", "addr:city": "GARDEN PRAIRIE", "addr:country": "US", "addr:full": "6828 PLEASANT ST", "addr:postcode": "61038", "addr:state": "IL", "brand": "USPS", "collection_times": "Mo-Sa 10:30", "name": "USPS COLLECTION BOX - PO LOBBY", "ref": "6103800003"}, "type": "Feature"}
{"geometry": {"coordinates": [-89.474478, 42.215197], "type": "Point"}, "id": "ZgW5gl4e0Dr6cMUXBin7tGWhY3c=", "properties": {"@spider": "usps_collection_boxes", "addr:city": "GERMAN VALLEY", "addr:country": "US", "addr:full": "35 CHURCH ST", "addr:postcode": "61039", "addr:state": "IL", "brand": "USPS", "collection_times": "Mo-Fr 16:00; Sa 11:30", "name": "USPS COLLECTION BOX - BLUE BOX", "note": "ON 12/24 AND 12/31, THIS BOX MAY BE COLLECTED AS EARLY AS 12 NOON.", "ref": "6103900001"}, "type": "Feature"}
{"geometry": {"coordinates": [-89.474441, 42.215224], "type": "Point"}, "id": "HNB3AlAQYAjI9AA3P1Dx7bvutyM=", "properties": {"@spider": "usps_collection_boxes", "addr:city": "GERMAN VALLEY", "addr:country": "US", "addr:full": "35 CHURCH ST", "addr:postcode": "61039", "addr:state": "IL", "brand": "USPS", "collection_times": "Mo-Fr 16:00; Sa 11:30", "name": "USPS COLLECTION BOX - PO LOBBY", "note": "ON 12/24 AND 12/31, THIS BOX MAY BE COLLECTED AS EARLY AS 12 NOON.", "ref": "6103900002"}, "type": "Feature"}
{"geometry": {"coordinates": [-89.474441, 42.215224], "type": "Point"}, "id": "mMRKz56m-ovYIB9-qS3UEBOXlUs=", "properties": {"@spider": "usps_collection_boxes", "addr:city": "GERMAN VALLEY", "addr:country": "US", "addr:full": "35 CHURCH ST", "addr:postcode": "61039", "addr:state": "IL", "brand": "USPS", "collection_times": "Mo-Fr 16:00; Sa 11:30", "name": "USPS COLLECTION BOX - PO LOBBY", "note": "ON 12/24 AND 12/31, THIS BOX MAY BE COLLECTED AS EARLY AS 12 NOON.", "ref": "6103900003"}, "type": "Feature"}
{"geometry": {"coordinates": [-89.474544, 42.215191492], "type": "Point"}, "id": "azQKqQnn464oCSaX5wKhfacEGy4=", "properties": {"@spider": "usps_collection_boxes", "addr:city": "GERMAN VALLEY", "addr:country": "US", "addr:full": "35 CHURCH ST", "addr:postcode": "61039", "addr:state": "IL", "brand": "USPS", "collection_times": "Mo-Fr 16:00; Sa 11:30", "name": "USPS COLLECTION BOX - PO LOBBY", "note": "ON 12/24 AND 12/31, THIS BOX MAY BE COLLECTED AS EARLY AS 12 NOON.", "ref": "6103900005"}, "type": "Feature"}
{"geometry": {"coordinates": [-90.28352, 42.256662], "type": "Point"}, "id": "H6-SQXUC9HzYXsM1gyOyRE9pw1o=", "properties": {"@spider": "usps_collection_boxes", "addr:city": "HANOVER", "addr:country": "US", "addr:full": "220 JEFFERSON ST", "addr:postcode": "61041", "addr:state": "IL", "brand": "USPS", "collection_times": "Mo-Fr 14:45; Sa 12:00", "name": "USPS COLLECTION BOX - BLUE BOX", "note": "ON 12/24 AND 12/31, THIS BOX MAY BE COLLECTED AS EARLY AS 12 NOON.", "ref": "6104100001"}, "type": "Feature"}
{"geometry": {"coordinates": [-90.283587, 42.256696], "type": "Point"}, "id": "mlcHAxBdPXnk-NN0MH6TWgdIrKw=", "properties": {"@spider": "usps_collection_boxes", "addr:city": "HANOVER", "addr:country": "US", "addr:full": "220 JEFFERSON ST", "addr:postcode": "61041", "addr:state": "IL", "brand": "USPS", "collection_times": "Mo-Fr 14:45; Sa 11:45", "name": "USPS COLLECTION BOX - PO LOBBY", "note": "ON 12/24 AND 12/31, THIS BOX MAY BE COLLECTED AS EARLY AS 12 NOON.", "ref": "6104100002"}, "type": "Feature"}
{"geometry": {"coordinates": [-90.2835526143, 42.2566080244], "type": "Point"}, "id": "bjL-bFIw-PAuOsDQO0u0zGGz85s=", "properties": {"@spider": "usps_collection_boxes", "addr:city": "HANOVER", "addr:country": "US", "addr:full": "220 JEFFERSON ST", "addr:postcode": "61041", "addr:state": "IL", "brand": "USPS", "collection_times": "Mo-Fr 14:45; Sa 11:45", "name": "USPS COLLECTION BOX - PO LOBBY", "note": "ON 12/24 AND 12/31, THIS BOX MAY BE COLLECTED AS EARLY AS 12 NOON.", "ref": "6104100005"}, "type": "Feature"}
{"geometry": {"coordinates": [-89.554877, 41.721944], "type": "Point"}, "id": "vlhDCwbXVCQ0ThlIZv_etUJgorM=", "properties": {"@spider": "usps_collection_boxes", "addr:city": "HARMON", "addr:country": "US", "addr:full": "205 N 1ST ST", "addr:postcode": "61042", "addr:state": "IL", "brand": "USPS", "collection_times": "Mo-Fr 12:00; Sa 10:45", "name": "USPS COLLECTION BOX - BLUE BOX", "ref": "6104200001"}, "type": "Feature"}
{"geometry": {"coordinates": [-89.554877, 41.721944], "type": "Point"}, "id": "KEg_HE2b9In3F1_FRQ4OVy4_Z3g=", "properties": {"@spider": "usps_collection_boxes", "addr:city": "HARMON", "addr:country": "US", "addr:full": "205 N 1ST ST", "addr:postcode": "61042", "addr:state": "IL", "brand": "USPS", "collection_times": "Mo-Fr 12:00; Sa 10:45", "name": "USPS COLLECTION BOX - PO LOBBY", "ref": "6104200002"}, "type": "Feature"}
{"geometry": {"coordinates": [-89.5546098521, 41.7219665029], "type": "Point"}, "id": "9UyO6lQxb7kcWKE2g5GGMyopW1w=", "properties": {"@spider": "usps_collection_boxes", "addr:city": "HARMON", "addr:country": "US", "addr:full": "205 N 1ST ST", "addr:postcode": "61042", "addr:state": "IL", "brand": "USPS", "collection_times": "Mo-Fr 12:00; Sa 10:45", "name": "USPS COLLECTION BOX - PO LOBBY", "ref": "6104200004"}, "type": "Feature"}
{"geometry": {"coordinates": [-89.09883, 42.064463], "type": "Point"}, "id": "rYUv5IgCE2VG2rSW_XACF_zEDVU=", "properties": {"@spider": "usps_collection_boxes", "addr:city": "HOLCOMB", "addr:country": "US", "addr:full": "105 W MAIN ST", "addr:postcode": "61043", "addr:state": "IL", "brand": "USPS", "collection_times": "Mo-Fr 16:45; Sa 10:30", "name": "USPS COLLECTION BOX - BLUE BOX", "note": "ON 12/24 AND 12/31, THIS BOX MAY BE COLLECTED AS EARLY AS 12 NOON.", "ref": "6104300001"}, "type": "Feature"}
{"geometry": {"coordinates": [-89.09883, 42.064463], "type": "Point"}, "id": "irZmvf-XxhUXZf202sgtvTh8ALk=", "properties": {"@spider": "usps_collection_boxes", "addr:city": "HOLCOMB", "addr:country": "US", "addr:full": "105 W MAIN ST", "addr:postcode": "61043", "addr:state": "IL", "brand": "USPS", "collection_times": "Mo-Fr 16:45; Sa 10:30", "name": "USPS COLLECTION BOX - PO LOBBY", "note": "ON 12/24 AND 12/31, THIS BOX MAY BE COLLECTED AS EARLY AS 12 NOON.", "ref": "6104300002"}, "type": "Feature"}
{"geometry": {"coordinates": [-89.09883, 42.064463], "type": "Point"}, "id": "rz-HLOYYRWkMq9Y-0RJmEy-6PJ8=", "properties": {"@spider": "usps_collection_boxes", "addr:city": "HOLCOMB", "addr:country": "US", "addr:full": "105 W MAIN ST", "addr:postcode": "61043", "addr:state": "IL", "brand": "USPS", "collection_times": "Mo-Fr 16:45; Sa 10:30", "name": "USPS COLLECTION BOX - PO LOBBY", "note": "ON 12/24 AND 12/31, THIS BOX MAY BE COLLECTED AS EARLY AS 12 NOON.", "ref": "6104300003"}, "type": "Feature"}
{"geometry": {"coordinates": [-89.0972085893, 42.0644960226], "type": "Point"}, "id": "GleB9r-AbF2qVCq8q6Xk7uexoIU=", "properties": {"@spider": "usps_collection_boxes", "addr:city": "HOLCOMB", "addr:country": "US", "addr:full": "105 W MAIN ST", "addr:postcode": "61043", "addr:state": "IL", "brand": "USPS", "collection_times": "Mo-Fr 16:45; Sa 10:30", "name": "USPS COLLECTION BOX - PO LOBBY", "note": "ON 12/24 AND 12/31, THIS BOX MAY BE COLLECTED AS EARLY AS 12 NOON.", "ref": "6104300004"}, "type": "Feature"}
{"geometry": {"coordinates": [-89.840219, 42.096563], "type": "Point"}, "id": "_3UzvyV6lsoKsqXKqUxhvCjG0aY=", "properties": {"@spider": "usps_collection_boxes", "addr:city": "LANARK", "addr:country": "US", "addr:full": "600 W OLYMPIC DR", "addr:postcode": "61046", "addr:state": "IL", "brand": "USPS", "collection_times": "Mo-Fr 16:45; Sa 12:00", "name": "USPS COLLECTION BOX - PO LOBBY", "note": "ON 12/24 AND 12/31, THIS BOX MAY BE COLLECTED AS EARLY AS 12 NOON.", "ref": "6104600004"}, "type": "Feature"}
{"geometry": {"coordinates": [-89.840098, 42.096591], "type": "Point"}, "id": "GCXGyEQooqYfg_TzrBnOcBccrlg=", "properties": {"@spider": "usps_collection_boxes", "addr:city": "LANARK", "addr:country": "US", "addr:full": "600 W OLYMPIC DR", "addr:postcode": "61046", "addr:state": "IL", "brand": "USPS", "collection_times": "Mo-Fr 16:45; Sa 12:00", "name": "USPS COLLECTION BOX - BLUE BOX", "note": "ON 12/24 AND 12/31, THIS BOX MAY BE COLLECTED AS EARLY AS 12 NOON.", "ref": "6104600007"}, "type": "Feature"}
{"geometry": {"coordinates": [-89.8401778113, 42.0965042949], "type": "Point"}, "id": "SuE9961bSCajx9KJ-mWvvespHJU=", "properties": {"@spider": "usps_collection_boxes", "addr:city": "LANARK", "addr:country": "US", "addr:full": "600 W OLYMPIC DR", "addr:postcode": "61046", "addr:state": "IL", "brand": "USPS", "collection_times": "Mo-Fr 16:45; Sa 12:00", "name": "USPS COLLECTION BOX - PO LOBBY", "note": "ON 12/24 AND 12/31, THIS BOX MAY BE COLLECTED AS EARLY AS 12 NOON.", "ref": "6104600010"}, "type": "Feature"}
{"geometry": {"coordinates": [-89.404049, 42.127336], "type": "Point"}, "id": "51wKPCFWwj2cGBjuSJTJmlBjSsY=", "properties": {"@spider": "usps_collection_boxes", "addr:city": "LEAF RIVER", "addr:country": "US", "addr:full": "116 MAIN ST", "addr:postcode": "61047", "addr:state": "IL", "brand": "USPS", "collection_times": "Mo-Fr 16:15; Sa 10:45", "name": "USPS COLLECTION BOX - BLUE BOX", "note": "ON 12/24 AND 12/31, THIS BOX MAY BE COLLECTED AS EARLY AS 12 NOON.", "ref": "6104700001"}, "type": "Feature"}
{"geometry": {"coordinates": [-89.404049, 42.127336], "type": "Point"}, "id": "xE6OGYTuY1Z7aRvnDcGRhjVQ9xE=", "properties": {"@spider": "usps_collection_boxes", "addr:city": "LEAF RIVER", "addr:country": "US", "addr:full": "116 MAIN ST", "addr:postcode": "61047", "addr:state": "IL", "brand": "USPS", "collection_times": "Mo-Fr 16:15; Sa 10:45", "name": "USPS COLLECTION BOX - PO LOBBY", "note": "ON 12/24 AND 12/31, THIS BOX MAY BE COLLECTED AS EARLY AS 12 NOON.", "ref": "6104700002"}, "type": "Feature"}
{"geometry": {"coordinates": [-89.404049, 42.127336], "type": "Point"}, "id": "BhOULs4kq7RjFfY1QJlfACXE8rM=", "properties": {"@spider": "usps_collection_boxes", "addr:city": "LEAF RIVER", "addr:country": "US", "addr:full": "116 MAIN ST", "addr:postcode": "61047", "addr:state": "IL", "brand": "USPS", "collection_times": "Mo-Fr 16:15; Sa 10:45", "name": "USPS COLLECTION BOX - PO LOBBY", "note": "ON 12/24 AND 12/31, THIS BOX MAY BE COLLECTED AS EARLY AS 12 NOON.", "ref": "6104700003"}, "type": "Feature"}
{"geometry": {"coordinates": [-89.4034712, 42.120096], "type": "Point"}, "id": "T_i3r4GQeXAjeOGoabfbsC4fxug=", "properties": {"@spider": "usps_collection_boxes", "addr:city": "LEAF RIVER", "addr:country": "US", "addr:full": "705 MAIN ST", "addr:postcode": "61047", "addr:state": "IL", "brand": "USPS", "collection_times": "Mo-Sa 11:00", "name": "USPS COLLECTION BOX - BLUE BOX", "ref": "6104700004"}, "type": "Feature"}
{"geometry": {"coordinates": [-89.404079545, 42.12674122], "type": "Point"}, "id": "rj1Emf2gfjFCo63G9MU-YgG8Qi0=", "properties": {"@spider": "usps_collection_boxes", "addr:city": "LEAF RIVER", "addr:country": "US", "addr:full": "116 MAIN ST", "addr:postcode": "61047", "addr:state": "IL", "brand": "USPS", "collection_times": "Mo-Fr 16:15; Sa 10:45", "name": "USPS COLLECTION BOX - PO LOBBY", "note": "ON 12/24 AND 12/31, THIS BOX MAY BE COLLECTED AS EARLY AS 12 NOON.", "ref": "6104700005"}, "type": "Feature"}
{"geometry": {"coordinates": [-89.828621, 42.372512], "type": "Point"}, "id": "m638Bu8Rxcd9YYFC5kL3jNyv3Sg=", "properties": {"@spider": "usps_collection_boxes", "addr:city": "LENA", "addr:country": "US", "addr:full": "913 S LOGAN ST", "addr:postcode": "61048", "addr:state": "IL", "brand": "USPS", "collection_times": "Mo-Fr 16:00; Sa 10:45", "name": "USPS COLLECTION BOX - BLUE BOX", "note": "ON 12/24 AND 12/31, THIS BOX MAY BE COLLECTED AS EARLY AS 12 NOON.", "ref": "6104800002"}, "type": "Feature"}
{"geometry": {"coordinates": [-89.824077, 42.378124], "type": "Point"}, "id": "sI6q1UL3lyzr8mD_YMkASwMD1yY=", "properties": {"@spider": "usps_collection_boxes", "addr:city": "LENA", "addr:country": "US", "addr:full": "102 W MAIN ST", "addr:postcode": "61048", "addr:state": "IL", "brand": "USPS", "collection_times": "Mo-Fr 14:45; Sa 10:45", "name": "USPS COLLECTION BOX - BLUE BOX", "note": "ON 12/24 AND 12/31, THIS BOX MAY BE COLLECTED AS EARLY AS 12 NOON.", "ref": "6104800003"}, "type": "Feature"}
{"geometry": {"coordinates": [-89.828585, 42.3725], "type": "Point"}, "id": "FPVMOFzL1_MulhnywQ0rSitxkKw=", "properties": {"@spider": "usps_collection_boxes", "addr:city": "LENA", "addr:country": "US", "addr:full": "913 S LOGAN ST", "addr:postcode": "61048", "addr:state": "IL", "brand": "USPS", "collection_times": "Mo-Fr 16:30; Sa 10:45", "name": "USPS COLLECTION BOX - PO LOBBY", "note": "ON 12/24 AND 12/31, THIS BOX MAY BE COLLECTED AS EARLY AS 12 NOON.", "ref": "6104800004"}, "type": "Feature"}
{"geometry": {"coordinates": [-89.828585, 42.3725], "type": "Point"},