{"geometry": {"coordinates": [-89.1335963, 38.524432], "type": "Point"}, "id": "luTsudYHTBjd2YYkg1Z_Cag88Wo=", "properties": {"@spider": "usps_collection_boxes", "addr:city": "CENTRALIA", "addr:country": "US", "addr:full": "325 S POPLAR ST", "addr:postcode": "62801", "addr:state": "IL", "brand": "USPS", "collection_times": "Mo-Fr 17:00; Sa 15:00", "name": "USPS COLLECTION BOX - BLUE BOX", "note": "ON 12/24 AND 12/31, THIS BOX MAY BE COLLECTED AS EARLY AS 12 NOON.", "ref": "6280100001"}, "type": "Feature"}
{"geometry": {"coordinates": [-89.1175389, 38.528992], "type": "Point"}, "id": "TRiuTSY-rLdsicOWXLj15dI03_c=", "properties": {"@spider": "usps_collection_boxes", "addr:city": "CENTRALIA", "addr:country": "US", "addr:full": "1050 ML KING DR", "addr:postcode": "62801", "addr:state": "IL", "brand": "USPS", "collection_times": "Mo-Sa 13:00", "name": "USPS COLLECTION BOX - BLUE BOX", "note": "ON 12/24 AND 12/31, THIS BOX MAY BE COLLECTED AS EARLY AS 12 NOON.", "ref": "6280100003"}, "type": "Feature"}
{"geometry": {"coordinates": [-89.1516027, 38.528275], "type": "Point"}, "id": "u-jT8hcXHd4Jns6KAeA6h0Gr7Js=", "properties": {"@spider": "usps_collection_boxes", "addr:city": "CENTRALIA", "addr:country": "US", "addr:full": "1067 W BROADWAY", "addr:postcode": "62801", "addr:state": "IL", "brand": "USPS", "collection_times": "Mo-Sa 13:00", "name": "USPS COLLECTION BOX - BLUE BOX", "note": "ON 12/24 AND 12/31, THIS BOX MAY BE COLLECTED AS EARLY AS 12 NOON.", "ref": "6280100004"}, "type": "Feature"}
{"geometry": {"coordinates": [-89.1359679, 38.513709], "type": "Point"}, "id": "uqWQr_Rqq3kxWdsAEif5p4iJ-0Y=", "properties": {"@spider": "usps_collection_boxes", "addr:city": "CENTRALIA", "addr:country": "US", "addr:full": "1311 S POPLAR ST", "addr:postcode": "62801", "addr:state": "IL", "brand": "USPS", "collection_times": "Mo-Sa 13:00", "name": "USPS COLLECTION BOX - BLUE BOX", "note": "ON 12/24 AND 12/31, THIS BOX MAY BE COLLECTED AS EARLY AS 12 NOON.", "ref": "6280100006"}, "type": "Feature"}
{"geometry": {"coordinates": [-89.1141816, 38.525427], "type": "Point"}, "id": "rzb7ZxHyY1pMWX7cWt-_zby3ZCE=", "properties": {"@spider": "usps_collection_boxes", "addr:city": "CENTRALIA", "addr:country": "US", "addr:full": "1422 E MCCORD ST", "addr:postcode": "62801", "addr:state": "IL", "brand": "USPS", "collection_times": "Mo-Sa 13:00", "name": "USPS COLLECTION BOX - BLUE BOX", "note": "ON 12/24 AND 12/31, THIS BOX MAY BE COLLECTED AS EARLY AS 12 NOON.", "ref": "6280100009"}, "type": "Feature"}
{"geometry": {"coordinates": [-89.1332439, 38.525704], "type": "Point"}, "id": "7Q6FuI7te2EhNCWr3lM0HWT94Mw=", "properties": {"@spider": "usps_collection_boxes", "addr:city": "CENTRALIA", "addr:country": "US", "addr:full": "215 S POPLAR ST", "addr:postcode": "62801", "addr:state": "IL", "brand": "USPS", "collection_times": "Mo-Sa 13:00", "name": "USPS COLLECTION BOX - BLUE BOX", "note": "ON 12/24 AND 12/31, THIS BOX MAY BE COLLECTED AS EARLY AS 12 NOON.", "ref": "6280100010"}, "type": "Feature"}
{"geometry": {"coordinates": [-89.1301572, 38.549769], "type": "Point"}, "id": "fvdpmyB26IHGFFUFPbUcHdvgEts=", "properties": {"@spider": "usps_collection_boxes", "addr:city": "CENTRALIA", "addr:country": "US", "addr:full": "223 N COMMERCIAL ST", "addr:postcode": "62801", "addr:state": "IL", "brand": "USPS", "collection_times": "Mo-Sa 13:00", "name": "USPS COLLECTION BOX - BLUE BOX", "note": "ON 12/24 AND 12/31, THIS BOX MAY BE COLLECTED AS EARLY AS 12 NOON.", "ref": "6280100011"}, "type": "Feature"}
{"geometry": {"coordinates": [-89.1230988, 38.523917], "type": "Point"}, "id": "tPWbopIy_ZOHaIoJo2eYk8McauU=", "properties": {"@spider": "usps_collection_boxes", "addr:city": "CENTRALIA", "addr:country": "US", "addr:full": "301 MELROSE AVE", "addr:postcode": "62801", "addr:state": "IL", "brand": "USPS", "collection_times": "Mo-Sa 13:00", "name": "USPS COLLECTION BOX - BLUE BOX", "note": "ON 12/24 AND 12/31, THIS BOX MAY BE COLLECTED AS EARLY AS 12 NOON.", "ref": "6280100014"}, "type": "Feature"}
{"geometry": {"coordinates": [-89.1161222, 38.521272], "type": "Point"}, "id": "l3ayqNYT3s0zebO6NLJ7yE-Ttdw=", "properties": {"@spider": "usps_collection_boxes", "addr:city": "CENTRALIA", "addr:country": "US", "addr:full": "429 S PLEASANT AVE", "addr:postcode": "62801", "addr:state": "IL", "brand": "USPS", "collection_times": "Mo-Sa 10:30", "name": "USPS COLLECTION BOX - BLUE BOX", "ref": "6280100016"}, "type": "Feature"}
{"geometry": {"coordinates": [-89.1295511, 38.547639], "type": "Point"}, "id": "pGVG0gK2o4yYqhQ_nhnr8a4_DGA=", "properties": {"@spider": "usps_collection_boxes", "addr:city": "CENTRALIA", "addr:country": "US", "addr:full": "110 N BROADWAY", "addr:postcode": "62801", "addr:state": "IL", "brand": "USPS", "collection_times": "Mo-Sa 13:00", "name": "USPS COLLECTION BOX - BLUE BOX", "note": "ON 12/24 AND 12/31, THIS BOX MAY BE COLLECTED AS EARLY AS 12 NOON.", "ref": "6280100018"}, "type": "Feature"}
{"geometry": {"coordinates": [-89.133024992, 38.527430195], "type": "Point"}, "id": "niyC0zmu6WRFi99TOREhRxcik8w=", "properties": {"@spider": "usps_collection_boxes", "addr:city": "CENTRALIA", "addr:country": "US", "addr:full": "232 E BROADWAY", "addr:postcode": "62801", "addr:state": "IL", "brand": "USPS", "collection_times": "Mo-Sa 13:00", "name": "USPS COLLECTION BOX - BLUE BOX", "note": "ON 12/24 AND 12/31, THIS BOX MAY BE COLLECTED AS EARLY AS 12 NOON.", "ref": "6280100019"}, "type": "Feature"}
{"geometry": {"coordinates": [-89.1469458, 38.529177], "type": "Point"}, "id": "40yOD_0LD-8KRj-zJRXeXPRJZas=", "properties": {"@spider": "usps_collection_boxes", "addr:city": "CENTRALIA", "addr:country": "US", "addr:full": "100 WASHINGTON BLVD", "addr:postcode": "62801", "addr:state": "IL", "brand": "USPS", "collection_times": "Mo-Sa 13:00", "name": "USPS COLLECTION BOX - BLUE BOX", "note": "ON 12/24 AND 12/31, THIS BOX MAY BE COLLECTED AS EARLY AS 12 NOON.", "ref": "6280100020"}, "type": "Feature"}
{"geometry": {"coordinates": [-89.1341326, 38.518194], "type": "Point"}, "id": "m0E8s16R3jqvla3TCpm3uBfC4G8=", "properties": {"@spider": "usps_collection_boxes", "addr:city": "CENTRALIA", "addr:country": "US", "addr:full": "800 S ELM ST", "addr:postcode": "62801", "addr:state": "IL", "brand": "USPS", "collection_times": "Mo-Sa 09:00", "name": "USPS COLLECTION BOX - BLUE BOX", "ref": "6280100021"}, "type": "Feature"}
{"geometry": {"coordinates": [-89.1303552, 38.5308], "type": "Point"}, "id": "a8m9lEQ-wr5nJ-jo7m_OmcEpaMA=", "properties": {"@spider": "usps_collection_boxes", "addr:city": "CENTRALIA", "addr:country": "US", "addr:full": "336 N ELM ST", "addr:postcode": "62801", "addr:state": "IL", "brand": "USPS", "collection_times": "Mo-Sa 10:00", "name": "USPS COLLECTION BOX - BLUE BOX", "ref": "6280100022"}, "type": "Feature"}
{"geometry": {"coordinates": [-89.1322549215, 38.5243378185], "type": "Point"}, "id": "gw96Z84xkKFlZRq1i4_C8AmnTho=", "properties": {"@spider": "usps_collection_boxes", "addr:city": "CENTRALIA", "addr:country": "US", "addr:full": "318 S ELM ST", "addr:postcode": "62801", "addr:state": "IL", "brand": "USPS", "collection_times": "Mo-Sa 09:00", "name": "USPS COLLECTION BOX - BLUE BOX", "ref": "6280100024"}, "type": "Feature"}
{"geometry": {"coordinates": [-89.133687333, 38.524638857], "type": "Point"}, "id": "meu8_nz9wMIEEamYTKL_6kuALLk=", "properties": {"@spider": "usps_collection_boxes", "addr:city": "CENTRALIA", "addr:country": "US", "addr:full": "314 S POPLAR ST", "addr:postcode": "62801", "addr:state": "IL", "brand": "USPS", "collection_times": "Mo-Fr 17:00; Sa 15:00", "name": "USPS COLLECTION BOX - PO LOBBY", "note": "ON 12/24 AND 12/31, THIS BOX MAY BE COLLECTED AS EARLY AS 12 NOON.", "ref": "6280100032"}, "type": "Feature"}
{"geometry": {"coordinates": [-89.133687333, 38.524638857], "type": "Point"}, "id": "ETcqo_GQxbzkwRsP80BUf1M1QcE=", "properties": {"@spider": "usps_collection_boxes", "addr:city": "CENTRALIA", "addr:country": "US", "addr:full": "314 S POPLAR ST", "addr:postcode": "62801", "addr:state": "IL", "brand": "USPS", "collection_times": "Mo-Fr 17:00; Sa 12:00", "name": "USPS COLLECTION BOX - PO LOBBY", "note": "ON 12/24 AND 12/31, THIS BOX MAY BE COLLECTED AS EARLY AS 12 NOON.", "ref": "6280100035"}, "type": "Feature"}
{"geometry": {"coordinates": [-89.273177, 38.441992], "type": "Point"}, "id": "r1bMX-paLX1I80thxDRC3dkX6Ts=", "properties": {"@spider": "usps_collection_boxes", "addr:city": "HOYLETON", "addr:country": "US", "addr:full": "75 E SAINT LOUIS ST", "addr:postcode": "62803", "addr:state": "IL", "brand": "USPS", "collection_times": "Mo-Fr 11:45; Sa 09:15", "name": "USPS COLLECTION BOX - BLUE BOX", "ref": "6280300001"}, "type": "Feature"}
{"geometry": {"coordinates": [-89.273119, 38.442019], "type": "Point"}, "id": "f3SQVnuufcuI7m-ktL5hoGwg3Rs=", "properties": {"@spider": "usps_collection_boxes", "addr:city": "HOYLETON", "addr:country": "US", "addr:full": "75 E SAINT LOUIS ST", "addr:postcode": "62803", "addr:state": "IL", "brand": "USPS", "collection_times": "Mo-Fr 11:45; Sa 09:15", "name": "USPS COLLECTION BOX - PO LOBBY", "ref": "6280300002"}, "type": "Feature"}
{"geometry": {"coordinates": [-89.2731618745, 38.4419396338], "type": "Point"}, "id": "PP9sDBDkhCcG5aTUkfAlb3FaT90=", "properties": {"@spider": "usps_collection_boxes", "addr:city": "HOYLETON", "addr:country": "US", "addr:full": "75 E SAINT LOUIS ST", "addr:postcode": "62803", "addr:state": "IL", "brand": "USPS", "collection_times": "Mo-Fr 11:45; Sa 09:15", "name": "USPS COLLECTION BOX - PO LOBBY", "ref": "6280300005"}, "type": "Feature"}
{"geometry": {"coordinates": [-88.0600588, 38.377464], "type": "Point"}, "id": "xsn-dYS1RzpnC1tclCB-4QNjLvs=", "properties": {"@spider": "usps_collection_boxes", "addr:city": "ALBION", "addr:country": "US", "addr:full": "104 W MAIN ST", "addr:postcode": "62806", "addr:state": "IL", "brand": "USPS", "collection_times": "Mo-Sa 14:40", "name": "USPS COLLECTION BOX - BLUE BOX", "note": "ON 12/24 AND 12/31, THIS BOX MAY BE COLLECTED AS EARLY AS 12 NOON.", "ref": "6280600001"}, "type": "Feature"}
{"geometry": {"coordinates": [-88.0575505, 38.377696], "type": "Point"}, "id": "BBkwi89gCRz2IzC0SG0557h8Isk=", "properties": {"@spider": "usps_collection_boxes", "addr:city": "ALBION", "addr:country": "US", "addr:full": "50 E MAIN ST", "addr:postcode": "62806", "addr:state": "IL", "brand": "USPS", "collection_times": "Mo-Fr 14:40", "name": "USPS COLLECTION BOX - BLUE BOX", "note": "ON 12/24 AND 12/31, THIS BOX MAY BE COLLECTED AS EARLY AS 12 NOON.", "ref": "6280600005"}, "type": "Feature"}
{"geometry": {"coordinates": [-88.0600674, 38.377453], "type": "Point"}, "id": "Vgm3QMMGZzJdFVei8sMDZ-zX1TM=", "properties": {"@spider": "usps_collection_boxes", "addr:city": "ALBION", "addr:country": "US", "addr:full": "104 W MAIN ST", "addr:postcode": "62806", "addr:state": "IL", "brand": "USPS", "collection_times": "Mo-Sa 14:40", "name": "USPS COLLECTION BOX - BLUE BOX", "note": "ON 12/24 AND 12/31, THIS BOX MAY BE COLLECTED AS EARLY AS 12 NOON.", "ref": "6280600006"}, "type": "Feature"}
{"geometry": {"coordinates": [-88.0602349, 38.377185], "type": "Point"}, "id": "lFjTMKRVtN-WxQq82OoWv_o0R8g=", "properties": {"@spider": "usps_collection_boxes", "addr:city": "ALBION", "addr:country": "US", "addr:full": "104 W MAIN ST", "addr:postcode": "62806", "addr:state": "IL", "brand": "USPS", "collection_times": "Mo-Sa 14:40", "name": "USPS COLLECTION BOX - PO LOBBY", "note": "ON 12/24 AND 12/31, THIS BOX MAY BE COLLECTED AS EARLY AS 12 NOON.", "ref": "6280600007"}, "type": "Feature"}
{"geometry": {"coordinates": [-88.060157745, 38.377063372], "type": "Point"}, "id": "xe_QXoUxCkVjLU87Je2VWHmDFJ4=", "properties": {"@spider": "usps_collection_boxes", "addr:city": "ALBION", "addr:country": "US", "addr:full": "104 W MAIN ST", "addr:postcode": "62806", "addr:state": "IL", "brand": "USPS", "collection_times": "Mo-Sa 14:30", "name": "USPS COLLECTION BOX - PO LOBBY", "note": "ON 12/24 AND 12/31, THIS BOX MAY BE COLLECTED AS EARLY AS 12 NOON.", "ref": "6280600009"}, "type": "Feature"}
{"geometry": {"coordinates": [-88.910277, 38.721181], "type": "Point"}, "id": "k_GpVvZZNdLL8mKcAmPeewuA6NA=", "properties": {"@spider": "usps_collection_boxes", "addr:city": "ALMA", "addr:country": "US", "addr:full": "127 7TH ST", "addr:postcode": "62807", "addr:state": "IL", "brand": "USPS", "collection_times": "Mo-Fr 11:45; Sa 08:45", "name": "USPS COLLECTION BOX - BLUE BOX", "ref": "6280700001"}, "type": "Feature"}
{"geometry": {"coordinates": [-88.910262, 38.721132], "type": "Point"}, "id": "qYtrSkLZu-Pda4qcg0jvSgPXRvU=", "properties": {"@spider": "usps_collection_boxes", "addr:city": "ALMA", "addr:country": "US", "addr:full": "127 7TH ST", "addr:postcode": "62807", "addr:state": "IL", "brand": "USPS", "collection_times": "Mo-Fr 11:45; Sa 08:45", "name": "USPS COLLECTION BOX - PO LOBBY", "ref": "6280700002"}, "type": "Feature"}
{"geometry": {"coordinates": [-88.910742548, 38.721527685], "type": "Point"}, "id": "tyuG8jwNvY4152RCNfm1S8wEC2c=", "properties": {"@spider": "usps_collection_boxes", "addr:city": "ALMA", "addr:country": "US", "addr:full": "127 7TH ST", "addr:postcode": "62807", "addr:state": "IL", "brand": "USPS", "collection_times": "Mo-Fr 11:45; Sa 08:45", "name": "USPS COLLECTION BOX - PO LOBBY", "ref": "6280700004"}, "type": "Feature"}
{"geometry": {"coordinates": [-89.1887603, 38.327679], "type": "Point"}, "id": "P3--Pl11u1BwlY9tQqZ7f6fJioU=", "properties": {"@spider": "usps_collection_boxes", "addr:city": "ASHLEY", "addr:country": "US", "addr:full": "167 E JACKSON ST", "addr:postcode": "62808", "addr:state": "IL", "brand": "USPS", "collection_times": "Mo-Fr 14:30; Sa 09:15", "name": "USPS COLLECTION BOX - BLUE BOX", "note": "ON 12/24 AND 12/31, THIS BOX MAY BE COLLECTED AS EARLY AS 12 NOON.", "ref": "6280800001"}, "type": "Feature"}
{"geometry": {"coordinates": [-89.186351, 38.327356], "type": "Point"}, "id": "i1duviBEJgdT7vTtyAJI6_hDJ68=", "properties": {"@spider": "usps_collection_boxes", "addr:city": "ASHLEY", "addr:country": "US", "addr:full": "167 E JACKSON ST", "addr:postcode": "62808", "addr:state": "IL", "brand": "USPS", "collection_times": "Mo-Fr 14:30; Sa 09:15", "name": "USPS COLLECTION BOX - PO LOBBY", "note": "ON 12/24 AND 12/31, THIS BOX MAY BE COLLECTED AS EARLY AS 12 NOON.", "ref": "6280800002"}, "type": "Feature"}
{"geometry": {"coordinates": [-89.186339202, 38.327271701], "type": "Point"}, "id": "9EgDDqSVP9iwAC05v4Yy5mMXwJM=", "properties": {"@spider": "usps_collection_boxes", "addr:city": "ASHLEY", "addr:country": "US", "addr:full": "167 E JACKSON ST", "addr:postcode": "62808", "addr:state": "IL", "brand": "USPS", "collection_times": "Mo-Fr 14:30; Sa 09:15", "name": "USPS COLLECTION BOX - PO LOBBY", "note": "ON 12/24 AND 12/31, THIS BOX MAY BE COLLECTED AS EARLY AS 12 NOON.", "ref": "6280800004"}, "type": "Feature"}
{"geometry": {"coordinates": [-87.911637, 38.385582], "type": "Point"}, "id": "7BHwp-8labzsS-Yn7d70qW1s4gQ=", "properties": {"@spider": "usps_collection_boxes", "addr:city": "BELLMONT", "addr:country": "US", "addr:full": "210 MAIN ST", "addr:postcode": "62811", "addr:state": "IL", "brand": "USPS", "collection_times": "Mo-Fr 14:15; Sa 11:30", "name": "USPS COLLECTION BOX - BLUE BOX", "note": "ON 12/24 AND 12/31, THIS BOX MAY BE COLLECTED AS EARLY AS 12 NOON.", "ref": "6281100001"}, "type": "Feature"}
{"geometry": {"coordinates": [-87.911637, 38.385582], "type": "Point"}, "id": "wWWSZIH2bWmHpT7TKdUR8DK6mT4=", "properties": {"@spider": "usps_collection_boxes", "addr:city": "BELLMONT", "addr:country": "US", "addr:full": "210 MAIN ST", "addr:postcode": "62811", "addr:state": "IL", "brand": "USPS", "collection_times": "Mo-Fr 14:15; Sa 11:30", "name": "USPS COLLECTION BOX - PO LOBBY", "note": "ON 12/24 AND 12/31, THIS BOX MAY BE COLLECTED AS EARLY AS 12 NOON.", "ref": "6281100002"}, "type": "Feature"}
{"geometry": {"coordinates": [-87.911721202, 38.383155361], "type": "Point"}, "id": "hqxKW0pxeETsB6TbP9Uv4iziAo8=", "properties": {"@spider": "usps_collection_boxes", "addr:city": "BELLMONT", "addr:country": "US", "addr:full": "210 MAIN ST", "addr:postcode": "62811", "addr:state": "IL", "brand": "USPS", "collection_times": "Mo-Fr 14:15; Sa 11:30", "name": "USPS COLLECTION BOX - PO LOBBY", "note": "ON 12/24 AND 12/31, THIS BOX MAY BE COLLECTED AS EARLY AS 12 NOON.", "ref": "6281100003"}, "type": "Feature"}
{"geometry": {"coordinates": [-88.745154, 38.327031], "type": "Point"}, "id": "HnuC23-lzZxUYycqGbzv-dO3XPw=", "properties": {"@spider": "usps_collection_boxes", "addr:city": "BLUFORD", "addr:country": "US", "addr:full": "1010 W 2ND ST", "addr:postcode": "62814", "addr:state": "IL", "brand": "USPS", "collection_times": "Mo-Fr 15:30; Sa 09:00", "name": "USPS COLLECTION BOX - BLUE BOX", "note": "ON 12/24 AND 12/31, THIS BOX MAY BE COLLECTED AS EARLY AS 12 NOON.", "ref": "6281400001"}, "type": "Feature"}
{"geometry": {"coordinates": [-88.745241, 38.32698], "type": "Point"}, "id": "VKUc8_yJt1PR99Y9ktgiTQlyKrY=", "properties": {"@spider": "usps_collection_boxes", "addr:city": "BLUFORD", "addr:country": "US", "addr:full": "1010 W 2ND ST", "addr:postcode": "62814", "addr:state": "IL", "brand": "USPS", "collection_times": "Mo-Fr 15:30; Sa 12:15", "name": "USPS COLLECTION BOX - PO LOBBY", "note": "ON 12/24 AND 12/31, THIS BOX MAY BE COLLECTED AS EARLY AS 12 NOON.", "ref": "6281400002"}, "type": "Feature"}
{"geometry": {"coordinates": [-88.745241543, 38.327046478], "type": "Point"}, "id": "7UMnAg7-6g0iLEX5fAESlddce0U=", "properties": {"@spider": "usps_collection_boxes", "addr:city": "BLUFORD", "addr:country": "US", "addr:full": "1010 W 2ND ST", "addr:postcode": "62814", "addr:state": "IL", "brand": "USPS", "collection_times": "Mo-Fr 15:30; Sa 12:15", "name": "USPS COLLECTION BOX - PO LOBBY", "note": "ON 12/24 AND 12/31, THIS BOX MAY BE COLLECTED AS EARLY AS 12 NOON.", "ref": "6281400003"}, "type": "Feature"}
{"geometry": {"coordinates": [-87.9959, 38.447387], "type": "Point"}, "id": "P0SuwTb0LsG5axVjBnYBOI1WmB0=", "properties": {"@spider": "usps_collection_boxes", "addr:city": "BONE GAP", "addr:country": "US", "addr:full": "105 N STATE ST", "addr:postcode": "62815", "addr:state": "IL", "brand": "USPS", "collection_times": "Mo-Fr 11:45; Sa 09:30", "name": "USPS COLLECTION BOX - BLUE BOX", "ref": "6281500001"}, "type": "Feature"}
{"geometry": {"coordinates": [-87.995915, 38.447301], "type": "Point"}, "id": "D6rzjuTdmooLBmkDhUqX6kC7ix4=", "properties": {"@spider": "usps_collection_boxes", "addr:city": "BONE GAP", "addr:country": "US", "addr:full": "105 N STATE ST", "addr:postcode": "62815", "addr:state": "IL", "brand": "USPS", "collection_times": "Mo-Fr 11:45; Sa 09:30", "name": "USPS COLLECTION BOX - PO LOBBY", "ref": "6281500002"}, "type": "Feature"}
{"geometry": {"coordinates": [-87.995941054, 38.447372755], "type": "Point"}, "id": "pufnND27iU5vgc5E7hTAJxttfMo=", "properties": {"@spider": "usps_collection_boxes", "addr:city": "BONE GAP", "addr:country": "US", "addr:full": "105 N STATE ST", "addr:postcode": "62815", "addr:state": "IL", "brand": "USPS", "collection_times": "Mo-Fr 11:45; Sa 09:30", "name": "USPS COLLECTION BOX - PO LOBBY", "ref": "6281500003"}, "type": "Feature"}
{"geometry": {"coordinates": [-87.983317, 38.376054], "type": "Point"}, "id": "_4lrj83S1rInlA2wLqTUvECT7Ek=", "properties": {"@spider": "usps_collection_boxes", "addr:city": "BROWNS", "addr:country": "US", "addr:full": "602 HENDERSON ST", "addr:postcode": "62818", "addr:state": "IL", "brand": "USPS", "collection_times": "Mo-Fr 11:15; Sa 09:00", "name": "USPS COLLECTION BOX - BLUE BOX", "ref": "6281800002"}, "type": "Feature"}
{"geometry": {"coordinates": [-87.983203, 38.376039], "type": "Point"}, "id": "Lcl0Fh4zDtPTZZzd1O7U9P8ynpM=", "properties": {"@spider": "usps_collection_boxes", "addr:city": "BROWNS", "addr:country": "US", "addr:full": "602 HENDERSON ST", "addr:postcode": "62818", "addr:state": "IL", "brand": "USPS", "collection_times": "Mo-Fr 11:15; Sa 09:00", "name": "USPS COLLECTION BOX - PO LOBBY", "ref": "6281800003"}, "type": "Feature"}
{"geometry": {"coordinates": [-87.983283133, 38.376088778], "type": "Point"}, "id": "lZDmuXwn5R6c2eKsVLmTpyR6zkE=", "properties": {"@spider": "usps_collection_boxes", "addr:city": "BROWNS", "addr:country": "US", "addr:full": "602 HENDERSON ST", "addr:postcode": "62818", "addr:state": "IL", "brand": "USPS", "collection_times": "Mo-Fr 11:15; Sa 09:00", "name": "USPS COLLECTION BOX - PO LOBBY", "ref": "6281800004"}, "type": "Feature"}
{"geometry": {"coordinates": [-88.159186, 38.089568], "type": "Point"}, "id": "eaGP38Auy-zWxqwmVYtmzeAk_uU=", "properties": {"@spider": "usps_collection_boxes", "addr:city": "CARMI", "addr:country": "US", "addr:full": "208 E ROBINSON ST", "addr:postcode": "62821", "addr:state": "IL", "brand": "USPS", "collection_times": "Mo-Sa 14:15", "name": "USPS COLLECTION BOX - BLUE BOX", "note": "ON 12/24 AND 12/31, THIS BOX MAY BE COLLECTED AS EARLY AS 12 NOON.", "ref": "6282100013"}, "type": "Feature"}
{"geometry": {"coordinates": [-88.159381, 38.089484], "type": "Point"}, "id": "hycRfqVBrHFGUtAIFJjleqbUPls=", "properties": {"@spider": "usps_collection_boxes", "addr:city": "CARMI", "addr:country": "US", "addr:full": "201 S WALNUT ST", "addr:postcode": "62821", "addr:state": "IL", "brand": "USPS", "collection_times": "Mo-Sa 14:15", "name": "USPS COLLECTION BOX - PO LOBBY", "note": "ON 12/24 AND 12/31, THIS BOX MAY BE COLLECTED AS EARLY AS 12 NOON.", "ref": "6282100015"}, "type": "Feature"}
{"geometry": {"coordinates": [-88.159288516, 38.089466663], "type": "Point"}, "id": "RUfqMXPoxGR5y1cDqYWC30kKogE=", "properties": {"@spider": "usps_collection_boxes", "addr:city": "CARMI", "addr:country": "US", "addr:full": "201 S WALNUT ST", "addr:postcode": "62821", "addr:state": "IL", "brand": "USPS", "collection_times": "Mo-Sa 14:15", "name": "USPS COLLECTION BOX - PO LOBBY", "note": "ON 12/24 AND 12/31, THIS BOX MAY BE COLLECTED AS EARLY AS 12 NOON.", "ref": "6282100019"}, "type": "Feature"}
{"geometry": {"coordinates": [-88.435164, 38.514266], "type": "Point"}, "id": "KgNjCUxwsZTd658q6dI16_yjtV4=", "properties": {"@spider": "usps_collection_boxes", "addr:city": "CISNE", "addr:country": "US", "addr:full": "300 SIMPSON ST", "addr:postcode": "62823", "addr:state": "IL", "brand": "USPS", "collection_times": "Mo-Fr 13:40; Sa 10:15", "name": "USPS COLLECTION BOX - BLUE BOX", "note": "ON 12/24 AND 12/31, THIS BOX MAY BE COLLECTED AS EARLY AS 12 NOON.", "ref": "6282300001"}, "type": "Feature"}
{"geometry": {"coordinates": [-88.435249, 38.514333], "type": "Point"}, "id": "1DbtyRx3X8nrbY-NrebeqaVTcDY=", "properties": {"@spider": "usps_collection_boxes", "addr:city": "CISNE", "addr:country": "US", "addr:full": "300 SIMPSON ST", "addr:postcode": "62823", "addr:state": "IL", "brand": "USPS", "collection_times": "Mo-Fr 13:40; Sa 10:15", "name": "USPS COLLECTION BOX - PO LOBBY", "note": "ON 12/24 AND 12/31, THIS BOX MAY BE COLLECTED AS EARLY AS 12 NOON.", "ref": "6282300002"}, "type": "Feature"}
{"geometry": {"coordinates": [-88.435175842, 38.514262956], "type": "Point"}, "id": "8qcVdfpISXHH8rLzrM9j0U6ozxU=", "properties": {"@spider": "usps_collection_boxes", "addr:city": "CISNE", "addr:country": "US", "addr:full": "300 SIMPSON ST", "addr:postcode": "62823", "addr:state": "IL", "brand": "USPS", "collection_times": "Mo-Fr 13:45; Sa 10:15", "name": "USPS COLLECTION BOX - PO LOBBY", "note": "ON 12/24 AND 12/31, THIS BOX MAY BE COLLECTED AS EARLY AS 12 NOON.", "ref": "6282300004"}, "type": "Feature"}
{"geometry": {"coordinates": [-88.354115, 38.688206], "type": "Point"}, "id": "kEXI23-Ksg1eOgTHkgCipoZsq2Q=", "properties": {"@spider": "usps_collection_boxes", "addr:city": "CLAY CITY", "addr:country": "US", "addr:full": "332 S MAIN ST", "addr:postcode": "62824", "addr:state": "IL", "brand": "USPS", "collection_times": "Mo-Fr 14:05; Sa 09:45", "name": "USPS COLLECTION BOX - BLUE BOX", "note": "ON 12/24 AND 12/31, THIS BOX MAY BE COLLECTED AS EARLY AS 12 NOON.", "ref": "6282400001"}, "type": "Feature"}
{"geometry": {"coordinates": [-88.35408, 38.688237], "type": "Point"}, "id": "28fyTAbHnN3RwlEYqExcEnxYLTg=", "properties": {"@spider": "usps_collection_boxes", "addr:city": "CLAY CITY", "addr:country": "US", "addr:full": "332 S MAIN ST", "addr:postcode": "62824", "addr:state": "IL", "brand": "USPS", "collection_times": "Mo-Fr 14:05; Sa 09:45", "name": "USPS COLLECTION BOX - PO LOBBY", "note": "ON 12/24 AND 12/31, THIS BOX MAY BE COLLECTED AS EARLY AS 12 NOON.", "ref": "6282400002"}, "type": "Feature"}
{"geometry": {"coordinates": [-88.354119183, 38.687822026], "type": "Point"}, "id": "U8nyvj1LVmd2xB74Nyyy9rhKvYs=", "properties": {"@spider": "usps_collection_boxes", "addr:city": "CLAY CITY", "addr:country": "US", "addr:full": "332 S MAIN ST", "addr:postcode": "62824", "addr:state": "IL", "brand": "USPS", "collection_times": "Mo-Fr 14:00; Sa 09:45", "name": "USPS COLLECTION BOX - PO LOBBY", "note": "ON 12/24 AND 12/31, THIS BOX MAY BE COLLECTED AS EARLY AS 12 NOON.", "ref": "6282400004"}, "type": "Feature"}
{"geometry": {"coordinates": [-88.065374, 38.161548], "type": "Point"}, "id": "ZaRVFYMA_O-UmJIlqgXMIndL3PM=", "properties": {"@spider": "usps_collection_boxes", "addr:city": "CROSSVILLE", "addr:country": "US", "addr:full": "210 W MAIN ST", "addr:postcode": "62827", "addr:state": "IL", "brand": "USPS", "collection_times": "Mo-Fr 13:40; Sa 09:15", "name": "USPS COLLECTION BOX - BLUE BOX", "note": "ON 12/24 AND 12/31, THIS BOX MAY BE COLLECTED AS EARLY AS 12 NOON.", "ref": "6282700001"}, "type": "Feature"}
{"geometry": {"coordinates": [-88.065332, 38.161601], "type": "Point"}, "id": "7GiAnqqgT3z4yWD_cuIVqsjN3U4=", "properties": {"@spider": "usps_collection_boxes", "addr:city": "CROSSVILLE", "addr:country": "US", "addr:full": "208 W MAIN ST", "addr:postcode": "62827", "addr:state": "IL", "brand": "USPS", "collection_times": "Mo-Fr 13:40; Sa 09:15", "name": "USPS COLLECTION BOX - PO LOBBY", "note": "ON 12/24 AND 12/31, THIS BOX MAY BE COLLECTED AS EARLY AS 12 NOON.", "ref": "6282700002"}, "type": "Feature"}
{"geometry": {"coordinates": [-88.065410783, 38.161520304], "type": "Point"}, "id": "j8wm8otJhnNq9uHm7h3RLYQa-WU=", "properties": {"@spider": "usps_collection_boxes", "addr:city": "CROSSVILLE", "addr:country": "US", "addr:full": "210 W MAIN ST", "addr:postcode": "62827", "addr:state": "IL", "brand": "USPS", "collection_times": "Mo-Fr 13:45; Sa 09:15", "name": "USPS COLLECTION BOX - PO LOBBY", "note": "ON 12/24 AND 12/31, THIS BOX MAY BE COLLECTED AS EARLY AS 12 NOON.", "ref": "6282700004"}, "type": "Feature"}
{"geometry": {"coordinates": [-88.937692, 38.441879], "type": "Point"}, "id": "94PakMoTPNHFIBmRqi0-Q-aqX8s=", "properties": {"@spider": "usps_collection_boxes", "addr:city": "DIX", "addr:country": "US", "addr:full": "302 N MAIN ST", "addr:postcode": "62830", "addr:state": "IL", "brand": "USPS", "collection_times": "Mo-Fr 14:15; Sa 09:45", "name": "USPS COLLECTION BOX - BLUE BOX", "note": "ON 12/24 AND 12/31, THIS BOX MAY BE COLLECTED AS EARLY AS 12 NOON.", "ref": "6283000001"}, "type": "Feature"}
{"geometry": {"coordinates": [-88.937728, 38.441793], "type": "Point"}, "id": "aXrNwNr9SHKYiLqf843JPo0AuJw=", "properties": {"@spider": "usps_collection_boxes", "addr:city": "DIX", "addr:country": "US", "addr:full": "302 N MAIN ST", "addr:postcode": "62830", "addr:state": "IL", "brand": "USPS", "collection_times": "Mo-Fr 14:15; Sa 09:45", "name": "USPS COLLECTION BOX - PO LOBBY", "note": "ON 12/24 AND 12/31, THIS BOX MAY BE COLLECTED AS EARLY AS 12 NOON.", "ref": "6283000002"}, "type": "Feature"}
{"geometry": {"coordinates": [-88.937671169, 38.441836216], "type": "Point"}, "id": "PQwPMdatiLe3SjdFpUzG-NoKOKI=", "properties": {"@spider": "usps_collection_boxes", "addr:city": "DIX", "addr:country": "US", "addr:full": "302 N MAIN ST", "addr:postcode": "62830", "addr:state": "IL", "brand": "USPS", "collection_times": "Mo-Fr 14:15; Sa 09:45", "name": "USPS COLLECTION BOX - PO LOBBY", "note": "ON 12/24 AND 12/31, THIS BOX MAY BE COLLECTED AS EARLY AS 12 NOON.", "ref": "6283000003"}, "type": "Feature"}
{"geometry": {"coordinates": [-88.3375725872, 38.0996796597], "type": "Point"}, "id": "5jP6_IaYmbxamus7RFJNQF97M-o=", "properties": {"@spider": "usps_collection_boxes", "addr:city": "ENFIELD", "addr:country": "US", "addr:full": "114 E MAIN ST", "addr:postcode": "62835", "addr:state": "IL", "brand": "USPS", "collection_times": "Mo-Fr 14:20; Sa 09:00", "name": "USPS COLLECTION BOX - BLUE BOX", "note": "ON 12/24 AND 12/31, THIS BOX MAY BE COLLECTED AS EARLY AS 12 NOON.", "ref": "6283500002"}, "type": "Feature"}
{"geometry": {"coordinates": [-88.337534, 38.099634], "type": "Point"}, "id": "oWY8EY73CxR6GZDd0-3X_O4b_eA=", "properties": {"@spider": "usps_collection_boxes", "addr:city": "ENFIELD", "addr:country": "US", "addr:full": "114 E MAIN ST", "addr:postcode": "62835", "addr:state": "IL", "brand": "USPS", "collection_times": "Mo-Fr 14:20; Sa 09:00", "name": "USPS COLLECTION BOX - PO LOBBY", "note": "ON 12/24 AND 12/31, THIS BOX MAY BE COLLECTED AS EARLY AS 12 NOON.", "ref": "6283500003"}, "type": "Feature"}
{"geometry": {"coordinates": [-88.33757333, 38.099670485], "type": "Point"}, "id": "ArL-kElyvY5MHm35_DAc6OfJz_Q=", "properties": {"@spider": "usps_collection_boxes", "addr:city": "ENFIELD", "addr:country": "US", "addr:full": "114 E MAIN ST", "addr:postcode": "62835", "addr:state": "IL", "brand": "USPS", "collection_times": "Mo-Fr 14:20; Sa 09:00", "name": "USPS COLLECTION BOX - PO LOBBY", "note": "ON 12/24 AND 12/31, THIS BOX MAY BE COLLECTED AS EARLY AS 12 NOON.", "ref": "6283500005"}, "type": "Feature"}
{"geometry": {"coordinates": [-88.358605, 38.378753], "type": "Point"}, "id": "3SBMCpWaUYThnNXieYvF70Vm09c=", "properties": {"@spider": "usps_collection_boxes", "addr:city": "FAIRFIELD", "addr:country": "US", "addr:full": "220 E DELAWARE ST", "addr:postcode": "62837", "addr:state": "IL", "brand": "USPS", "collection_times": "Mo-Sa 14:40", "name": "USPS COLLECTION BOX - BLUE BOX", "note": "ON 12/24 AND 12/31, THIS BOX MAY BE COLLECTED AS EARLY AS 12 NOON.", "ref": "6283700001"}, "type": "Feature"}
{"geometry": {"coordinates": [-88.358672, 38.378781], "type": "Point"}, "id": "bxyekt1osXRX-yu3FIZY48lapDs=", "properties": {"@spider": "usps_collection_boxes", "addr:city": "FAIRFIELD", "addr:country": "US", "addr:full": "220 E DELAWARE ST", "addr:postcode": "62837", "addr:state": "IL", "brand": "USPS", "collection_times": "Mo-Sa 14:40", "name": "USPS COLLECTION BOX - BLUE BOX", "note": "ON 12/24 AND 12/31, THIS BOX MAY BE COLLECTED AS EARLY AS 12 NOON.", "ref": "6283700002"}, "type": "Feature"}
{"geometry": {"coordinates": [-88.358672, 38.378781], "type": "Point"}, "id": "xTSi4ubob-Zxztyx_oTB8sXKWB0=", "properties": {"@spider": "usps_collection_boxes", "addr:city": "FAIRFIELD", "addr:country": "US", "addr:full": "220 E DELAWARE ST", "addr:postcode": "62837", "addr:state": "IL", "brand": "USPS", "collection_times": "Mo-Sa 14:40", "name": "USPS COLLECTION BOX - BLUE BOX", "note": "ON 12/24 AND 12/31, THIS BOX MAY BE COLLECTED AS EARLY AS 12 NOON.", "ref": "6283700010"}, "type": "Feature"}
{"geometry": {"coordinates": [-88.359001, 38.379562], "type": "Point"}, "id": "_4e1cIx4TTaBxWatKROH8SWaY-0=", "properties": {"@spider": "usps_collection_boxes", "addr:city": "FAIRFIELD", "addr:country": "US", "addr:full": "120 E MAIN ST", "addr:postcode": "62837", "addr:state": "IL", "brand": "USPS", "collection_times": "Mo-Sa 14:40", "name": "USPS COLLECTION BOX - BLUE BOX", "note": "ON 12/24 AND 12/31, THIS BOX MAY BE COLLECTED AS EARLY AS 12 NOON.", "ref": "6283700011"}, "type": "Feature"}
{"geometry": {"coordinates": [-88.358672, 38.378781], "type": "Point"}, "id": "rUyRLbX7WVFqxyUgcUVM_j95lsg=", "properties": {"@spider": "usps_collection_boxes", "addr:city": "FAIRFIELD", "addr:country": "US", "addr:full": "220 E DELAWARE ST", "addr:postcode": "62837", "addr:state": "IL", "brand": "USPS", "collection_times": "Mo-Sa 14:40", "name": "USPS COLLECTION BOX - PO LOBBY", "note": "ON 12/24 AND 12/31, THIS BOX MAY BE COLLECTED AS EARLY AS 12 NOON.", "ref": "6283700013"}, "type": "Feature"}
{"geometry": {"coordinates": [-88.358672, 38.378781], "type": "Point"}, "id": "aib7eAnnByG0GM1y2yt83G8F3XA=", "properties": {"@spider": "usps_collection_boxes", "addr:city": "FAIRFIELD", "addr:country": "US", "addr:full": "220 E DELAWARE ST", "addr:postcode": "62837", "addr:state": "IL", "brand": "USPS", "collection_times": "Mo-Sa 14:40", "name": "USPS COLLECTION BOX - PO LOBBY", "note": "ON 12/24 AND 12/31, THIS BOX MAY BE COLLECTED AS EARLY AS 12 NOON.", "ref": "6283700014"}, "type": "Feature"}
{"geometry": {"coordinates": [-88.358264277, 38.378734471], "type": "Point"}, "id": "PYAPLxhWN15EtrscWTKhEIucSGY=", "properties": {"@spider": "usps_collection_boxes", "addr:city": "FAIRFIELD", "addr:country": "US", "addr:full": "220 E DELAWARE ST", "addr:postcode": "62837", "addr:state": "IL", "brand": "USPS", "collection_times": "Mo-Sa 14:40", "name": "USPS COLLECTION BOX - PO LOBBY", "note": "ON 12/24 AND 12/31, THIS BOX MAY BE COLLECTED AS EARLY AS 12 NOON.", "ref": "6283700017"}, "type": "Feature"}
{"geometry": {"coordinates": [-88.774142, 38.832757], "type": "Point"}, "id": "c_rb79MHaKfJMl0rp2ktjsDu5yc=", "properties": {"@spider": "usps_collection_boxes", "addr:city": "FARINA", "addr:country": "US", "addr:full": "306 W MADISON AVE", "addr:postcode": "62838", "addr:state": "IL", "brand": "USPS", "collection_times": "Mo-Fr 14:25; Sa 09:15", "name": "USPS COLLECTION BOX - BLUE BOX", "note": "ON 12/24 AND 12/31, THIS BOX MAY BE COLLECTED AS EARLY AS 12 NOON.", "ref": "6283800003"}, "type": "Feature"}
{"geometry": {"coordinates": [-88.77427, 38.833019998], "type": "Point"}, "id": "0PwD06Qs1uUOGcuXs_5KfWzXRj8=", "properties": {"@spider": "usps_collection_boxes", "addr:city": "FARINA", "addr:country": "US", "addr:full": "306 W MADISON AVE", "addr:postcode": "62838", "addr:state": "IL", "brand": "USPS", "collection_times": "Mo-Fr 14:25; Sa 09:15", "name": "USPS COLLECTION BOX - PO LOBBY", "note": "ON 12/24 AND 12/31, THIS BOX MAY BE COLLECTED AS EARLY AS 12 NOON.", "ref": "6283800004"}, "type": "Feature"}
{"geometry": {"coordinates": [-88.77427, 38.833019998], "type": "Point"}, "id": "D95h_gvzr0ym8aeTjq912ziufYY=", "properties": {"@spider": "usps_collection_boxes", "addr:city": "FARINA", "addr:country": "US", "addr:full": "306 W MADISON ST", "addr:postcode": "62838", "addr:state": "IL", "brand": "USPS", "collection_times": "Mo-Fr 14:25; Sa 09:15", "name": "USPS COLLECTION BOX - PO LOBBY", "note": "ON 12/24 AND 12/31, THIS BOX MAY BE COLLECTED AS EARLY AS 12 NOON.", "ref": "6283800006"}, "type": "Feature"}
{"geometry": {"coordinates": [-88.482903, 38.669637], "type": "Point"}, "id": "4pdCpTZYSQvK6SmEVufZT2FCrmU=", "properties": {"@spider": "usps_collection_boxes", "addr:city": "FLORA", "addr:country": "US", "addr:full": "312 E NORTH AVE", "addr:postcode": "62839", "addr:state": "IL", "brand": "USPS", "collection_times": "Mo-Fr 15:00; Sa 14:15", "name": "USPS COLLECTION BOX - BLUE BOX", "note": "ON 12/24 AND 12/31, THIS BOX MAY BE COLLECTED AS EARLY AS 12 NOON.", "ref": "6283900003"}, "type": "Feature"}
{"geometry": {"coordinates": [-88.482996, 38.66964], "type": "Point"}, "id": "X9nMHavEDLLjvIoM--HGThOSt24=", "properties": {"@spider": "usps_collection_boxes", "addr:city": "FLORA", "addr:country": "US", "addr:full": "312 E NORTH AVE", "addr:postcode": "62839", "addr:state": "IL", "brand": "USPS", "collection_times": "Mo-Sa 15:00", "name": "USPS COLLECTION BOX - PO LOBBY", "note": "ON 12/24 AND 12/31, THIS BOX MAY BE COLLECTED AS EARLY AS 12 NOON.", "ref": "6283900010"}, "type": "Feature"}
{"geometry": {"coordinates": [-88.482736211, 38.669683057], "type": "Point"}, "id": "Ib7xz9RZlRKf_3iAwO87J7FrtLs=", "properties": {"@spider": "usps_collection_boxes", "addr:city": "FLORA", "addr:country": "US", "addr:full": "312 E NORTH AVE", "addr:postcode": "62839", "addr:state": "IL", "brand": "USPS", "collection_times": "Mo-Sa 15:00", "name": "USPS COLLECTION BOX - PO LOBBY", "note": "ON 12/24 AND 12/31, THIS BOX MAY BE COLLECTED AS EARLY AS 12 NOON.", "ref": "6283900013"}, "type": "Feature"}
{"geometry": {"coordinates": [-88.404326, 38.44258], "type": "Point"}, "id": "NIrsjm3k5dpv1JFZb5YmsbKl5qk=", "properties": {"@spider": "usps_collection_boxes", "addr:city": "GEFF", "addr:country": "US", "addr:full": "124 W MECHANIC ST", "addr:postcode": "62842", "addr:state": "IL", "brand": "USPS", "collection_times": "Mo-Fr 11:45; Sa 09:00", "name": "USPS COLLECTION BOX - BLUE BOX", "ref": "6284200001"}, "type": "Feature"}
{"geometry": {"coordinates": [-88.404267, 38.442553], "type": "Point"}, "id": "e2gPNNiNIYejA40yHWG_mG4fkFI=", "properties": {"@spider": "usps_collection_boxes", "addr:city": "GEFF", "addr:country": "US", "addr:full": "124 W MECHANIC ST", "addr:postcode": "62842", "addr:state": "IL", "brand": "USPS", "collection_times": "Mo-Fr 11:45; Sa 09:00", "name": "USPS COLLECTION BOX - PO LOBBY", "ref": "6284200002"}, "type": "Feature"}
{"geometry": {"coordinates": [-88.405041526, 38.442573471], "type": "Point"}, "id": "GetZ8C8cAzbu7jdm6FqyXA_ODCs=", "properties": {"@spider": "usps_collection_boxes", "addr:city": "GEFF", "addr:country": "US", "addr:full": "124 W MECHANIC ST", "addr:postcode": "62842", "addr:state": "IL", "brand": "USPS", "collection_times": "Mo-Fr 11:45; Sa 09:00", "name": "USPS COLLECTION BOX - PO LOBBY", "ref": "6284200003"}, "type": "Feature"}
{"geometry": {"coordinates": [-87.994691, 38.256706], "type": "Point"}, "id": "_3XQrXdFNGNdkYOPtsLIsbc8EjY=", "properties": {"@spider": "usps_collection_boxes", "addr:city": "GRAYVILLE", "addr:country": "US", "addr:full": "210 E SOUTH ST", "addr:postcode": "62844", "addr:state": "IL", "brand": "USPS", "collection_times": "Mo-Fr 13:50; Sa 11:00", "name": "USPS COLLECTION BOX - BLUE BOX", "note": "ON 12/24 AND 12/31, THIS BOX MAY BE COLLECTED AS EARLY AS 12 NOON.", "ref": "6284400007"}, "type": "Feature"}
{"geometry": {"coordinates": [-87.994783, 38.256681], "type": "Point"}, "id": "-X4cK2LFqOygMZqqPDqJwq0kd10=", "properties": {"@spider": "usps_collection_boxes", "addr:city": "GRAYVILLE", "addr:country": "US", "addr:full": "210 E SOUTH ST", "addr:postcode": "62844", "addr:state": "IL", "brand": "USPS", "collection_times": "Mo-Fr 13:50; Sa 11:00", "name": "USPS COLLECTION BOX - PO LOBBY", "note": "ON 12/24 AND 12/31, THIS BOX MAY BE COLLECTED AS EARLY AS 12 NOON.", "ref": "6284400008"}, "type": "Feature"}
{"geometry": {"coordinates": [-87.994728039, 38.256748152], "type": "Point"}, "id": "zj_y9OFrqG8b0D5pI2ktBOUwthY=", "properties": {"@spider": "usps_collection_boxes", "addr:city": "GRAYVILLE", "addr:country": "US", "addr:full": "210 E SOUTH ST", "addr:postcode": "62844", "addr:state": "IL", "brand": "USPS", "collection_times": "Mo-Fr 13:45; Sa 11:00", "name": "USPS COLLECTION BOX - PO LOBBY", "note": "ON 12/24 AND 12/31, THIS BOX MAY BE COLLECTED AS EARLY AS 12 NOON.", "ref": "6284400010"}, "type": "Feature"}
{"geometry": {"coordinates": [-89.16159, 38.439208], "type": "Point"}, "id": "YL5saWJE7YOIwE8l9koTrw_tmPM=", "properties": {"@spider": "usps_collection_boxes", "addr:city": "IRVINGTON", "addr:country": "US", "addr:full": "108 N 2ND ST", "addr:postcode": "62848", "addr:state": "IL", "brand": "USPS", "collection_times": "Mo-Fr 16:05; Sa 10:30", "name": "USPS COLLECTION BOX - BLUE BOX", "note": "ON 12/24 AND 12/31, THIS BOX MAY BE COLLECTED AS EARLY AS 12 NOON.", "ref": "6284800001"}, "type": "Feature"}
{"geometry": {"coordinates": [-89.161578, 38.439128], "type": "Point"}, "id": "lwtv77ejURPRyd2sF9vGnl7_HFE=", "properties": {"@spider": "usps_collection_boxes", "addr:city": "IRVINGTON", "addr:country": "US", "addr:full": "108 N 2ND ST", "addr:postcode": "62848", "addr:state": "IL", "brand": "USPS", "collection_times": "Mo-Fr 16:05; Sa 10:45", "name": "USPS COLLECTION BOX - PO LOBBY", "note": "ON 12/24 AND 12/31, THIS BOX MAY BE COLLECTED AS EARLY AS 12 NOON.", "ref": "6284800002"}, "type": "Feature"}
{"geometry": {"coordinates": [-89.161622807, 38.439182202], "type": "Point"}, "id": "ZeU2wuzx6hqugtmT9BpKIliA2cQ=", "properties": {"@spider": "usps_collection_boxes", "addr:city": "IRVINGTON", "addr:country": "US", "addr:full": "108 N 2ND ST", "addr:postcode": "62848", "addr:state": "IL", "brand": "USPS", "collection_times": "Mo-Fr 16:00; Sa 10:45", "name": "USPS COLLECTION BOX - PO LOBBY", "note": "ON 12/24 AND 12/31, THIS BOX MAY BE COLLECTED AS EARLY AS 12 NOON.", "ref": "6284800003"}, "type": "Feature"}
{"geometry": {"coordinates": [-88.789177, 38.616102], "type": "Point"}, "id": "vxVZY_lz3fcE-EyC-IR6EipF_cU=", "properties": {"@spider": "usps_collection_boxes", "addr:city": "IUKA", "addr:country": "US", "addr:full": "311 N FRONT ST", "addr:postcode": "62849", "addr:state": "IL", "brand": "USPS", "collection_times": "Mo-Fr 15:15; Sa 09:00", "name": "USPS COLLECTION BOX - BLUE BOX", "note": "ON 12/24 AND 12/31, THIS BOX MAY BE COLLECTED AS EARLY AS 12 NOON.", "ref": "6284900001"}, "type": "Feature"}
{"geometry": {"coordinates": [-88.789177, 38.616102], "type": "Point"}, "id": "OoE_dMh6Mw9ZiYZHeO9q9FwA1Rk=", "properties": {"@spider": "usps_collection_boxes", "addr:city": "IUKA", "addr:country": "US", "addr:full": "311 N FRONT ST", "addr:postcode": "62849", "addr:state": "IL", "brand": "USPS", "collection_times": "Mo-Fr 15:15; Sa 09:00", "name": "USPS COLLECTION BOX - PO LOBBY", "note": "ON 12/24 AND 12/31, THIS BOX MAY BE COLLECTED AS EARLY AS 12 NOON.", "ref": "6284900002"}, "type": "Feature"}
{"geometry": {"coordinates": [-88.792747639, 38.616314046], "type": "Point"}, "id": "Rd3vWwokXpPAsbtp5PCmNEWCy4I=", "properties": {"@spider": "usps_collection_boxes", "addr:city": "IUKA", "addr:country": "US", "addr:full": "311 N FRONT ST", "addr:postcode": "62849", "addr:state": "IL", "brand": "USPS", "collection_times": "Mo-Fr 15:15; Sa 09:00", "name": "USPS COLLECTION BOX - PO LOBBY", "note": "ON 12/24 AND 12/31, THIS BOX MAY BE COLLECTED AS EARLY AS 12 NOON.", "ref": "6284900004"}, "type": "Feature"}
{"geometry": {"coordinates": [-88.53673, 38.52129], "type": "Point"}, "id": "ti_lYE8IMZYel_rQtu_2MTu4l9A=", "properties": {"@spider": "usps_collection_boxes", "addr:city": "JOHNSONVILLE", "addr:country": "US", "addr:full": "301 2ND ST", "addr:postcode": "62850", "addr:state": "IL", "brand": "USPS", "collection_times": "Mo-Fr 13:15; Sa 10:15", "name": "USPS COLLECTION BOX - BLUE BOX", "note": "ON 12/24 AND 12/31, THIS BOX MAY BE COLLECTED AS EARLY AS 12 NOON.", "ref": "6285000001"}, "type": "Feature"}
{"geometry": {"coordinates": [-88.53673, 38.52129], "type": "Point"}, "id": "fBy4tGToYvbBCY2qDtqWnO6rhdU=", "properties": {"@spider": "usps_collection_boxes", "addr:city": "JOHNSONVILLE", "addr:country": "US", "addr:full": "301 2ND ST", "addr:postcode": "62850", "addr:state": "IL", "brand": "USPS", "collection_times": "Mo-Fr 13:15; Sa 12:00", "name": "USPS COLLECTION BOX - PO LOBBY", "note": "ON 12/24 AND 12/31, THIS BOX MAY BE COLLECTED AS EARLY AS 12 NOON.", "ref": "6285000002"}, "type": "Feature"}
{"geometry": {"coordinates": [-88.536695607, 38.519519607], "type": "Point"}, "id": "_EWO0IcpnE9I2OGMycu6BHMebWI=", "properties": {"@spider": "usps_collection_boxes", "addr:city": "JOHNSONVILLE", "addr:country": "US", "addr:full": "301 2ND ST", "addr:postcode": "62850", "addr:state": "IL", "brand": "USPS", "collection_times": "Mo-Fr 13:15; Sa 12:00", "name": "USPS COLLECTION BOX - PO LOBBY", "note": "ON 12/24 AND 12/31, THIS BOX MAY BE COLLECTED AS EARLY AS 12 NOON.", "ref": "6285000003"}, "type": "Feature"}
{"geometry": {"coordinates": [-88.642713, 38.340896], "type": "Point"}, "id": "BZ0caxORdxN2aGn-lxOf9xsNNq4=", "properties": {"@spider": "usps_collection_boxes", "addr:city": "KEENES", "addr:country": "US", "addr:full": "400 SYCAMORE ST", "addr:postcode": "62851", "addr:state": "IL", "brand": "USPS", "collection_times": "Mo-Fr 15:20; Sa 09:00", "name": "USPS COLLECTION BOX - PO LOBBY", "note": "ON 12/24 AND 12/31, THIS BOX MAY BE COLLECTED AS EARLY AS 12 NOON.", "ref": "6285100001"}, "type": "Feature"}
{"geometry": {"coordinates": [-88.642713, 38.340896], "type": "Point"}, "id": "iLx_f2JdW0ZvYBxBxiDeN8HClBg=", "properties": {"@spider": "usps_collection_boxes", "addr:city": "KEENES", "addr:country": "US", "addr:full": "400 SYCAMORE ST", "addr:postcode": "62851", "addr:state": "IL", "brand": "USPS", "collection_times": "Mo-Fr 15:20; Sa 09:15", "name": "USPS COLLECTION BOX - BLUE BOX", "note": "ON 12/24 AND 12/31, THIS BOX MAY BE COLLECTED AS EARLY AS 12 NOON.", "ref": "6285100002"}, "type": "Feature"}
{"geometry": {"coordinates": [-88.642695667, 38.340910922], "type": "Point"}, "id": "KqxJFgJ_-S9XFQPKHQQdMm-Q9CY=", "properties": {"@spider": "usps_collection_boxes", "addr:city": "KEENES", "addr:country": "US", "addr:full": "400 SYCAMORE ST", "addr:postcode": "62851", "addr:state": "IL", "brand": "USPS", "collection_times": "Mo-Fr 13:15; Sa 09:00", "name": "USPS COLLECTION BOX - PO LOBBY", "note": "ON 12/24 AND 12/31, THIS BOX MAY BE COLLECTED AS EARLY AS 12 NOON.", "ref": "6285100003"}, "type": "Feature"}
{"geometry": {"coordinates": [-87.868141, 38.350923], "type": "Point"}, "id": "Y4lDp5s793Fgfo7S9oQue74a07k=", "properties": {"@spider": "usps_collection_boxes", "addr:city": "KEENSBURG", "addr:country": "US", "addr:full": "9337 W MARKET ST", "addr:postcode": "62852", "addr:state": "IL", "brand": "USPS", "collection_times": "Mo-Fr 13:05; Sa 09:45", "name": "USPS COLLECTION BOX - BLUE BOX", "note": "ON 12/24 AND 12/31, THIS BOX MAY BE COLLECTED AS EARLY AS 12 NOON.", "ref": "6285200001"}, "type": "Feature"}
{"geometry": {"coordinates": [-87.86814, 38.350887], "type": "Point"}, "id": "Nu6tdcXSNzOGj3cRssD9XaQ7nM8=", "properties": {"@spider": "usps_collection_boxes", "addr:city": "KEENSBURG", "addr:country": "US", "addr:full": "9337 W MARKET ST", "addr:postcode": "62852", "addr:state": "IL", "brand": "USPS", "collection_times": "Mo-Fr 13:05; Sa 10:30", "name": "USPS COLLECTION BOX - PO LOBBY", "note": "ON 12/24 AND 12/31, THIS BOX MAY BE COLLECTED AS EARLY AS 12 NOON.", "ref": "6285200002"}, "type": "Feature"}
{"geometry": {"coordinates": [-87.868118504, 38.350941841], "type": "Point"}, "id": "QBPDqNnXWPCfDZkzDsrMLY1FmCs=", "properties": {"@spider": "usps_collection_boxes", "addr:city": "KEENSBURG", "addr:country": "US", "addr:full": "9337 W MARKET ST", "addr:postcode": "62852", "addr:state": "IL", "brand": "USPS", "collection_times": "Mo-Fr 13:15; Sa 10:30", "name": "USPS COLLECTION BOX - PO LOBBY", "note": "ON 12/24 AND 12/31, THIS BOX MAY BE COLLECTED AS EARLY AS 12 NOON.", "ref": "6285200003"}, "type": "Feature"}
{"geometry": {"coordinates": [-88.893949, 38.491133], "type": "Point"}, "id": "kCmw1Ec_Xq8gxbQ8Qlbajdtugj4=", "properties": {"@spider": "usps_collection_boxes", "addr:city": "KELL", "addr:country": "US", "addr:full": "303 3RD ST", "addr:postcode": "62853", "addr:state": "IL", "brand": "USPS", "collection_times": "Mo-Fr 11:45; Sa 10:00", "name": "USPS COLLECTION BOX - BLUE BOX", "ref": "6285300001"}, "type": "Feature"}
{"geometry": {"coordinates": [-88.893949, 38.491133], "type": "Point"}, "id": "hptqN742SrivlDkmnRurDKYyVI8=", "properties": {"@spider": "usps_collection_boxes", "addr:city": "KELL", "addr:country": "US", "addr:full": "303 3RD ST", "addr:postcode": "62853", "addr:state": "IL", "brand": "USPS", "collection_times": "Mo-Fr 11:45; Sa 10:00", "name": "USPS COLLECTION BOX - PO LOBBY", "ref": "6285300002"}, "type": "Feature"}
{"geometry": {"coordinates": [-88.90641, 38.491280467], "type": "Point"}, "id": "zK6tCsQXdgW-BUHlGAHs-yCp5hI=", "properties": {"@spider": "usps_collection_boxes", "addr:city": "KELL", "addr:country": "US", "addr:full": "303 3RD ST", "addr:postcode": "62853", "addr:state": "IL", "brand": "USPS", "collection_times": "Mo-Fr 11:45; Sa 10:00", "name": "USPS COLLECTION BOX - PO LOBBY", "ref": "6285300003"}, "type": "Feature"}
{"geometry": {"coordinates": [-88.850397, 38.771019], "type": "Point"}, "id": "aqwCq3ucv8_Oa4I0nW0BmIFqI_8=", "properties": {"@spider": "usps_collection_boxes", "addr:city": "KINMUNDY", "addr:country": "US", "addr:full": "109 W 3RD ST", "addr:postcode": "62854", "addr:state": "IL", "brand": "USPS", "collection_times": "Mo-Fr 14:10; Sa 09:15", "name": "USPS COLLECTION BOX - BLUE BOX", "note": "ON 12/24 AND 12/31, THIS BOX MAY BE COLLECTED AS EARLY AS 12 NOON.", "ref": "6285400001"}, "type": "Feature"}
{"geometry": {"coordinates": [-88.850291, 38.771045], "type": "Point"}, "id": "LBWq2W2lmsXYc0vyYAvf8wzOp-s=", "properties": {"@spider": "usps_collection_boxes", "addr:city": "KINMUNDY", "addr:country": "US", "addr:full": "109 W 3RD ST", "addr:postcode": "62854", "addr:state": "IL", "brand": "USPS", "collection_times": "Mo-Fr 14:10; Sa 09:15", "name": "USPS COLLECTION BOX - PO LOBBY", "note": "ON 12/24 AND 12/31, THIS BOX MAY BE COLLECTED AS EARLY AS 12 NOON.", "ref": "6285400002"}, "type": "Feature"}
{"geometry": {"coordinates": [-88.850291, 38.771045], "type": "Point"}, "id": "IU5-qJ-GXETI7-ASvyH6hakwp8M=", "properties": {"@spider": "usps_collection_boxes", "addr:city": "KINMUNDY", "addr:country": "US", "addr:full": "109 W 3RD ST", "addr:postcode": "62854", "addr:state": "IL", "brand": "USPS", "collection_times": "Mo-Fr 14:10; Sa 09:15", "name": "USPS COLLECTION BOX - PO LOBBY", "note": "ON 12/24 AND 12/31, THIS BOX MAY BE COLLECTED AS EARLY AS 12 NOON.", "ref": "6285400004"}, "type": "Feature"}
{"geometry": {"coordinates": [-88.850364032, 38.770965193], "type": "Point"}, "id": "X3UT_XrAe4DAT7wI3wkp-SbD5oc=", "properties": {"@spider": "usps_collection_boxes", "addr:city": "KINMUNDY", "addr:country": "US", "addr:full": "109 W 3RD ST", "addr:postcode": "62854", "addr:state": "IL", "brand": "USPS", "collection_times": "Mo-Fr 14:45; Sa 09:15", "name": "USPS COLLECTION BOX - PO LOBBY", "note": "ON 12/24 AND 12/31, THIS BOX MAY BE COLLECTED AS EARLY AS 12 NOON.", "ref": "6285400005"}, "type": "Feature"}
{"geometry": {"coordinates": [-88.501186, 38.772999], "type": "Point"}, "id": "Fd5ZkIkq-qGBrFn7A4kvvlewG7Q=", "properties": {"@spider": "usps_collection_boxes", "addr:city": "LOUISVILLE", "addr:country": "US", "addr:full": "150 E CHESTNUT ST", "addr:postcode": "62858", "addr:state": "IL", "brand": "USPS", "collection_times": "Mo-Fr 14:25; Sa 10:45", "name": "USPS COLLECTION BOX - BLUE BOX", "note": "ON 12/24 AND 12/31, THIS BOX MAY BE COLLECTED AS EARLY AS 12 NOON.", "ref": "6285800001"}, "type": "Feature"}
{"geometry": {"coordinates": [-88.501206, 38.773021], "type": "Point"}, "id": "m0lyCDUdsb16KjXGYZaQtveXUpM=", "properties": {"@spider": "usps_collection_boxes", "addr:city": "LOUISVILLE", "addr:country": "US", "addr:full": "150 E CHESTNUT ST", "addr:postcode": "62858", "addr:state": "IL", "brand": "USPS", "collection_times": "Mo-Fr 14:25; Sa 10:45", "name": "USPS COLLECTION BOX - PO LOBBY", "note": "ON 12/24 AND 12/31, THIS BOX MAY BE COLLECTED AS EARLY AS 12 NOON.", "ref": "6285800002"}, "type": "Feature"}
{"geometry": {"coordinates": [-88.50102527, 38.773090196], "type": "Point"}, "id": "I99KvA7YAB46Gl4ir2ZqzMcvkfg=", "properties": {"@spider": "usps_collection_boxes", "addr:city": "LOUISVILLE", "addr:country": "US", "addr:full": "150 E CHESTNUT ST", "addr:postcode": "62858", "addr:state": "IL", "brand": "USPS", "collection_times": "Mo-Fr 14:30; Sa 10:45", "name": "USPS COLLECTION BOX - PO LOBBY", "note": "ON 12/24 AND 12/31, THIS BOX MAY BE COLLECTED AS EARLY AS 12 NOON.", "ref": "6285800004"}, "type": "Feature"}
{"geometry": {"coordinates": [-88.04716, 38.035112], "type": "Point"}, "id": "H1E3FrOvSsMSytVfEbjx1o9dFlc=", "properties": {"@spider": "usps_collection_boxes", "addr:city": "MAUNIE", "addr:country": "US", "addr:full": "321 NORTH ST", "addr:postcode": "62861", "addr:state": "IL", "brand": "USPS", "collection_times": "Mo-Sa 12:00", "name": "USPS COLLECTION BOX - BLUE BOX", "ref": "6286100001"}, "type": "Feature"}
{"geometry": {"coordinates": [-88.04719931, 38.037200188], "type": "Point"}, "id": "f3hELVidw9MS47-ianC9icS_TTY=", "properties": {"@spider": "usps_collection_boxes", "addr:city": "MAUNIE", "addr:country": "US", "addr:full": "321 NORTH ST", "addr:postcode": "62861", "addr:state": "IL", "brand": "USPS", "collection_times": "Mo-Sa 12:00", "name": "USPS COLLECTION BOX - PO LOBBY", "ref": "6286100002"}, "type": "Feature"}
{"geometry": {"coordinates": [-88.04719931, 38.037200188], "type": "Point"}, "id": "FXNm3BTDw2QQbwGdUMUwYxBAPoo=", "properties": {"@spider": "usps_collection_boxes", "addr:city": "MAUNIE", "addr:country": "US", "addr:full": "321 NORTH ST", "addr:postcode": "62861", "addr:state": "IL", "brand": "USPS", "collection_times": "Mo-Sa 14:00", "name": "USPS COLLECTION BOX - PO LOBBY", "note": "ON 12/24 AND 12/31, THIS BOX MAY BE COLLECTED AS EARLY AS 12 NOON.", "ref": "6286100003"}, "type": "Feature"}
{"geometry": {"coordinates": [-88.346005, 38.245597], "type": "Point"}, "id": "ua400M6SJjjOYoiiUeYYk2xegkk=", "properties": {"@spider": "usps_collection_boxes", "addr:city": "MILL SHOALS", "addr:country": "US", "addr:full": "483 LOCUST ST", "addr:postcode": "62862", "addr:state": "IL", "brand": "USPS", "collection_times": "Mo-Fr 11:45; Sa 09:00", "name": "USPS COLLECTION BOX - BLUE BOX", "ref": "6286200001"}, "type": "Feature"}
{"geometry": {"coordinates": [-88.34598, 38.24566], "type": "Point"}, "id": "i6LGZ9nkHWISB5Bj-J1ahR45BNo=", "properties": {"@spider": "usps_collection_boxes", "addr:city": "MILL SHOALS", "addr:country": "US", "addr:full": "483 LOCUST ST", "addr:postcode": "62862", "addr:state": "IL", "brand": "USPS", "collection_times": "Mo-Fr 11:45; Sa 09:45", "name": "USPS COLLECTION BOX - PO LOBBY", "ref": "6286200002"}, "type": "Feature"}
{"geometry": {"coordinates": [-88.346031599, 38.245597056], "type": "Point"}, "id": "fKdPGo4Lt0YRuHJkcyUjq1RcaKQ=", "properties": {"@spider": "usps_collection_boxes", "addr:city": "MILL SHOALS", "addr:country": "US", "addr:full": "483 LOCUST ST", "addr:postcode": "62862", "addr:state": "IL", "brand": "USPS", "collection_times": "Mo-Fr 11:45; Sa 09:45", "name": "USPS COLLECTION BOX - PO LOBBY", "ref": "6286200004"}, "type": "Feature"}
{"geometry": {"coordinates": [-87.761692, 38.410899], "type": "Point"}, "id": "Sb4bxRZbN3_p0D4CdO1dRaRdDR8=", "properties": {"@spider": "usps_collection_boxes", "addr:city": "MOUNT CARMEL", "addr:country": "US", "addr:full": "503 N MARKET ST", "addr:postcode": "62863", "addr:state": "IL", "brand": "USPS", "collection_times": "Mo-Sa 13:55", "name": "USPS COLLECTION BOX - PO LOBBY", "note": "ON 12/24 AND 12/31, THIS BOX MAY BE COLLECTED AS EARLY AS 12 NOON.", "ref": "6286300001"}, "type": "Feature"}
{"geometry": {"coordinates": [-87.761682, 38.410809], "type": "Point"}, "id": "vc5ccgBdzcjzOhjYH-OWVla4hjI=", "properties": {"@spider": "usps_collection_boxes", "addr:city": "MOUNT CARMEL", "addr:country": "US", "addr:full": "503 N MARKET ST", "addr:postcode": "62863", "addr:state": "IL", "brand": "USPS", "collection_times": "Mo-Sa 13:55", "name": "USPS COLLECTION BOX - BLUE BOX", "note": "ON 12/24 AND 12/31, THIS BOX MAY BE COLLECTED AS EARLY AS 12 NOON.", "ref": "6286300004"}, "type": "Feature"}
{"geometry": {"coordinates": [-87.761682, 38.410809], "type": "Point"}, "id": "lH9YcqTjtNPio8zzd2GVYXnL6Mc=", "properties": {"@spider": "usps_collection_boxes", "addr:city": "MOUNT CARMEL", "addr:country": "US", "addr:full": "503 N MARKET ST", "addr:postcode": "62863", "addr:state": "IL", "brand": "USPS", "collection_times": "Mo-Sa 13:55", "name": "USPS COLLECTION BOX - BLUE BOX", "note": "ON 12/24 AND 12/31, THIS BOX MAY BE COLLECTED AS EARLY AS 12 NOON.", "ref": "6286300028"}, "type": "Feature"}
{"geometry": {"coordinates": [-87.761682, 38.410809], "type": "Point"}, "id": "pU4K-9vEUrBqmH14Ge7sGcjbHdk=", "properties": {"@spider": "usps_collection_boxes", "addr:city": "MOUNT CARMEL", "addr:country": "US", "addr:full": "503 N MARKET ST", "addr:postcode": "62863", "addr:state": "IL", "brand": "USPS", "collection_times": "Mo-Sa 13:55", "name": "USPS COLLECTION BOX - PO LOBBY", "note": "ON 12/24 AND 12/31, THIS BOX MAY BE COLLECTED AS EARLY AS 12 NOON.", "ref": "6286300029"}, "type": "Feature"}
{"geometry": {"coordinates": [-87.76174275, 38.410979237], "type": "Point"}, "id": "0TcfEznXBd9pLIH4WPToj_apDC4=", "properties": {"@spider": "usps_collection_boxes", "addr:city": "MOUNT CARMEL", "addr:country": "US", "addr:full": "503 N MARKET ST", "addr:postcode": "62863", "addr:state": "IL", "brand": "USPS", "collection_times": "Mo-Sa 13:45", "name": "USPS COLLECTION BOX - PO LOBBY", "note": "ON 12/24 AND 12/31, THIS BOX MAY BE COLLECTED AS EARLY AS 12 NOON.", "ref": "6286300031"}, "type": "Feature"}
{"geometry": {"coordinates": [-88.223889, 38.69757], "type": "Point"}, "id": "_u-7-3Qv8tfyI0XsksJ1Q-siVEI=", "properties": {"@spider": "usps_collection_boxes", "addr:city": "NOBLE", "addr:country": "US", "addr:full": "110 W NORTH AVE", "addr:postcode": "62868", "addr:state": "IL", "brand": "USPS", "collection_times": "Mo-Fr 13:45; Sa 10:45", "name": "USPS COLLECTION BOX - BLUE BOX", "note": "ON 12/24 AND 12/31, THIS BOX MAY BE COLLECTED AS EARLY AS 12 NOON.", "ref": "6286800001"}, "type": "Feature"}
{"geometry": {"coordinates": [-88.223792, 38.697559], "type": "Point"}, "id": "rC_ClKxHifN7MtmVpla1iFsTed4=", "properties": {"@spider": "usps_collection_boxes", "addr:city": "NOBLE", "addr:country": "US", "addr:full": "110 W NORTH AVE", "addr:postcode": "62868", "addr:state": "IL", "brand": "USPS", "collection_times": "Mo-Fr 13:45; Sa 10:45", "name": "USPS COLLECTION BOX - PO LOBBY", "note": "ON 12/24 AND 12/31, THIS BOX MAY BE COLLECTED AS EARLY AS 12 NOON.", "ref": "6286800002"}, "type": "Feature"}
{"geometry": {"coordinates": [-88.224038282, 38.697534238], "type": "Point"}, "id": "2iomybFA6oAdMkXr_cIX7EbGmw8=", "properties": {"@spider": "usps_collection_boxes", "addr:city": "NOBLE", "addr:country": "US", "addr:full": "110 W NORTH AVE", "addr:postcode": "62868", "addr:state": "IL", "brand": "USPS", "collection_times": "Mo-Fr 13:45; Sa 10:45", "name": "USPS COLLECTION BOX - PO LOBBY", "note": "ON 12/24 AND 12/31, THIS BOX MAY BE COLLECTED AS EARLY AS 12 NOON.", "ref": "6286800003"}, "type": "Feature"}
{"geometry": {"coordinates": [-89.0535113, 38.617149], "type": "Point"}, "id": "Jnpo2-4twruNS-4lOUn8jzVbU4Q=", "properties": {"@spider": "usps_collection_boxes", "addr:city": "ODIN", "addr:country": "US", "addr:full": "104 E KIRKWOOD ST", "addr:postcode": "62870", "addr:state": "IL", "brand": "USPS", "collection_times": "Mo-Fr 15:15; Sa 08:45", "name": "USPS COLLECTION BOX - BLUE BOX", "note": "ON 12/24 AND 12/31, THIS BOX MAY BE COLLECTED AS EARLY AS 12 NOON.", "ref": "6287000001"}, "type": "Feature"}
{"geometry": {"coordinates": [-89.054071, 38.617075], "type": "Point"}, "id": "Gy_qFwxdtQlixuASRsPXBTERLs0=", "properties": {"@spider": "usps_collection_boxes", "addr:city": "ODIN", "addr:country": "US", "addr:full": "104 E KIRKWOOD ST", "addr:postcode": "62870", "addr:state": "IL", "brand": "USPS", "collection_times": "Mo-Fr 15:15; Sa 08:45", "name": "USPS COLLECTION BOX - PO LOBBY", "note": "ON 12/24 AND 12/31, THIS BOX MAY BE COLLECTED AS EARLY AS 12 NOON.", "ref": "6287000002"}, "type": "Feature"}
{"geometry": {"coordinates": [-89.054008938, 38.617142812], "type": "Point"}, "id": "kEkhkwsPOQmOey10OQHa69pj0SU=", "properties": {"@spider": "usps_collection_boxes", "addr:city": "ODIN", "addr:country": "US", "addr:full": "104 E KIRKWOOD ST", "addr:postcode": "62870", "addr:state": "IL", "brand": "USPS", "collection_times": "Mo-Fr 15:15; Sa 08:45", "name": "USPS COLLECTION BOX - PO LOBBY", "note": "ON 12/24 AND 12/31, THIS BOX MAY BE COLLECTED AS EARLY AS 12 NOON.", "ref": "6287000003"}, "type": "Feature"}
{"geometry": {"coordinates": [-89.096105, 38.753892], "type": "Point"}, "id": "4CLpbmUA3I7ei2_v_nu53v5jGWk=", "properties": {"@spider": "usps_collection_boxes", "addr:city": "PATOKA", "addr:country": "US", "addr:full": "105 S RAILROAD ST", "addr:postcode": "62875", "addr:state": "IL", "brand": "USPS", "collection_times": "Mo-Fr 14:45; Sa 08:45", "name": "USPS COLLECTION BOX - BLUE BOX", "note": "ON 12/24 AND 12/31, THIS BOX MAY BE COLLECTED AS EARLY AS 12 NOON.", "ref": "6287500001"}, "type": "Feature"}
{"geometry": {"coordinates": [-89.096105, 38.753892], "type": "Point"}, "id": "nNnPkA3reqR-nLMcNze7_h6mAlM=", "properties": {"@spider": "usps_collection_boxes", "addr:city": "PATOKA", "addr:country": "US", "addr:full": "105 S RAILROAD ST", "addr:postcode": "62875", "addr:state": "IL", "brand": "USPS", "collection_times": "Mo-Fr 14:45; Sa 08:45", "name": "USPS COLLECTION BOX - PO LOBBY", "note": "ON 12/24 AND 12/31, THIS BOX MAY BE COLLECTED AS EARLY AS 12 NOON.", "ref": "6287500002"}, "type": "Feature"}
{"geometry": {"coordinates": [-89.096176727, 38.753837212], "type": "Point"}, "id": "cg_wq1vG0woUqCKS-DmdbIKIzJ8=", "properties": {"@spider": "usps_collection_boxes", "addr:city": "PATOKA", "addr:country": "US", "addr:full": "105 S RAILROAD ST", "addr:postcode": "62875", "addr:state": "IL", "brand": "USPS", "collection_times": "Mo-Fr 14:45; Sa 08:45", "name": "USPS COLLECTION BOX - PO LOBBY", "note": "ON 12/24 AND 12/31, THIS BOX MAY BE COLLECTED AS EARLY AS 12 NOON.", "ref": "6287500004"}, "type": "Feature"}
{"geometry": {"coordinates": [-89.195445, 38.280811], "type": "Point"}, "id": "SknGB4YZx7hbnxgtI2F71MUBdI0=", "properties": {"@spider": "usps_collection_boxes", "addr:city": "RADOM", "addr:country": "US", "addr:full": "15 S 3RD ST", "addr:postcode": "62876", "addr:state": "IL", "brand": "USPS", "collection_times": "Mo-Fr 15:45; Sa 12:45", "name": "USPS COLLECTION BOX - BLUE BOX", "note": "ON 12/24 AND 12/31, THIS BOX MAY BE COLLECTED AS EARLY AS 12 NOON.", "ref": "6287600000"}, "type": "Feature"}
{"geometry": {"coordinates": [-89.19541, 38.280875], "type": "Point"}, "id": "0N-bBZm0XT3D3P2qhLlsSHRVYfc=", "properties": {"@spider": "usps_collection_boxes", "addr:city": "RADOM", "addr:country": "US", "addr:full": "15 S 3RD ST", "addr:postcode": "62876", "addr:state": "IL", "brand": "USPS", "collection_times": "Mo-Fr 15:45; Sa 12:45", "name": "USPS COLLECTION BOX - PO LOBBY", "note": "ON 12/24 AND 12/31, THIS BOX MAY BE COLLECTED AS EARLY AS 12 NOON.", "ref": "6287600001"}, "type": "Feature"}
{"geometry": {"coordinates": [-89.1954524582, 38.2816240293], "type": "Point"}, "id": "u7AHF7IrbFDTLTcJbPANgNgRcBc=", "properties": {"@spider": "usps_collection_boxes", "addr:city": "RADOM", "addr:country": "US", "addr:full": "15 S 3RD ST", "addr:postcode": "62876", "addr:state": "IL", "brand": "USPS", "collection_times": "Mo-Fr 15:45; Sa 12:45", "name": "USPS COLLECTION BOX - PO LOBBY", "note": "ON 12/24 AND 12/31, THIS BOX MAY BE COLLECTED AS EARLY AS 12 NOON.", "ref": "6287600002"}, "type": "Feature"}
{"geometry": {"coordinates": [-89.181144, 38.377695], "type": "Point"}, "id": "4DV_vW7NgMucJMQGtr_vavDMPaM=", "properties": {"@spider": "usps_collection_boxes", "addr:city": "RICHVIEW", "addr:country": "US", "addr:full": "218 S SHANNON AVE", "addr:postcode": "62877", "addr:state": "IL", "brand": "USPS", "collection_times": "Mo-Fr 11:45; Sa 09:30", "name": "USPS COLLECTION BOX - BLUE BOX", "ref": "6287700001"}, "type": "Feature"}
{"geometry": {"coordinates": [-89.181167, 38.377755], "type": "Point"}, "id": "h9HvI4BiyhJNJvtXIwbmS5YgDFU=", "properties": {"@spider": "usps_collection_boxes", "addr:city": "RICHVIEW", "addr:country": "US", "addr:full": "218 S SHANNON AVE", "addr:postcode": "62877", "addr:state": "IL", "brand": "USPS", "collection_times": "Mo-Fr 11:45; Sa 10:15", "name": "USPS COLLECTION BOX - PO LOBBY", "ref": "6287700003"}, "type": "Feature"}
{"geometry": {"coordinates": [-89.181121703, 38.377696649], "type": "Point"}, "id": "0TGxnRfJBdZWoNkE1bz6FB-pLMI=", "properties": {"@spider": "usps_collection_boxes", "addr:city": "RICHVIEW", "addr:country": "US", "addr:full": "218 S SHANNON AVE", "addr:postcode": "62877", "addr:state": "IL", "brand": "USPS", "collection_times": "Mo-Fr 11:45; Sa 10:15", "name": "USPS COLLECTION BOX - PO LOBBY", "ref": "6287700004"}, "type": "Feature"}
{"geometry": {"coordinates": [-88.85342, 38.868031], "type": "Point"}, "id": "XcnZ66t0qzWJxl9xJd4mu0GK0iA=", "properties": {"@spider": "usps_collection_boxes", "addr:city": "SAINT PETER", "addr:country": "US", "addr:full": "109 E 3RD ST", "addr:postcode": "62880", "addr:state": "IL", "brand": "USPS", "collection_times": "Mo-Fr 11:45; Sa 09:15", "name": "USPS COLLECTION BOX - BLUE BOX", "ref": "6288000001"}, "type": "Feature"}
{"geometry": {"coordinates": [-88.853516, 38.868004], "type": "Point"}, "id": "akXqThECcyvtJDPMFWiL25X6B9w=", "properties": {"@spider": "usps_collection_boxes", "addr:city": "SAINT PETER", "addr:country": "US", "addr:full": "109 E 3RD ST", "addr:postcode": "62880", "addr:state": "IL", "brand": "USPS", "collection_times": "Mo-Fr 11:45; Sa 09:15", "name": "USPS COLLECTION BOX - PO LOBBY", "ref": "6288000002"}, "type": "Feature"}
{"geometry": {"coordinates": [-88.8529815, 38.868021471], "type": "Point"}, "id": "GHcfMaFH3DoarjVHpThf5y3zK9E=", "properties": {"@spider": "usps_collection_boxes", "addr:city": "SAINT PETER", "addr:country": "US", "addr:full": "109 E 3RD ST", "addr:postcode": "62880", "addr:state": "IL", "brand": "USPS", "collection_times": "Mo-Fr 11:45; Sa 09:15", "name": "USPS COLLECTION BOX - PO LOBBY", "ref": "6288000003"}, "type": "Feature"}
{"geometry": {"coordinates": [-88.961187, 38.623904], "type": "Point"}, "id": "S45tj787TT2urbvSq_cx6SNe3Sk=", "properties": {"@spider": "usps_collection_boxes", "addr:city": "SALEM", "addr:country": "US", "addr:full": "125 S DELMAR AVE", "addr:postcode": "62881", "addr:state": "IL", "brand": "USPS", "collection_times": "Mo-Sa 15:50", "name": "USPS COLLECTION BOX - BLUE BOX", "note": "ON 12/24 AND 12/31, THIS BOX MAY BE COLLECTED AS EARLY AS 12 NOON.", "ref": "6288100002"}, "type": "Feature"}
{"geometry": {"coordinates": [-88.961153, 38.623858], "type": "Point"}, "id": "Lscz6CoqK315XQlgyTU2RhGidsU=", "properties": {"@spider": "usps_collection_boxes", "addr:city": "SALEM", "addr:country": "US", "addr:full": "125 S DELMAR AVE", "addr:postcode": "62881", "addr:state": "IL", "brand": "USPS", "collection_times": "Mo-Sa 15:50", "name": "USPS COLLECTION BOX - BLUE BOX", "note": "ON 12/24 AND 12/31, THIS BOX MAY BE COLLECTED AS EARLY AS 12 NOON.", "ref": "6288100003"}, "type": "Feature"}
{"geometry": {"coordinates": [-88.9456911, 38.626904], "type": "Point"}, "id": "gsqf9p3GumPiiP78N59qUUAfPas=", "properties": {"@spider": "usps_collection_boxes", "addr:city": "SALEM", "addr:country": "US", "addr:full": "101 S BROADWAY AVE", "addr:postcode": "62881", "addr:state": "IL", "brand": "USPS", "collection_times": "Mo-Fr 15:00; Sa 12:00", "name": "USPS COLLECTION BOX - BLUE BOX", "note": "ON 12/24 AND 12/31, THIS BOX MAY BE COLLECTED AS EARLY AS 12 NOON.", "ref": "6288100005"}, "type": "Feature"}
{"geometry": {"coordinates": [-88.9423261, 38.627424], "type": "Point"}, "id": "hV-8HF4loPzpoZWD4ROQOdPqqCk=", "properties": {"@spider": "usps_collection_boxes", "addr:city": "SALEM", "addr:country": "US", "addr:full": "406 E MAIN ST", "addr:postcode": "62881", "addr:state": "IL", "brand": "USPS", "collection_times": "Mo-Fr 15:00; Sa 12:00", "name": "USPS COLLECTION BOX - BLUE BOX", "note": "ON 12/24 AND 12/31, THIS BOX MAY BE COLLECTED AS EARLY AS 12 NOON.", "ref": "6288100009"}, "type": "Feature"}
{"geometry": {"coordinates": [-88.9447149, 38.62752], "type": "Point"}, "id": "SjANCCwm61fLAUwonSRKSqLQ8nA=", "properties": {"@spider": "usps_collection_boxes", "addr:city": "SALEM", "addr:country": "US", "addr:full": "100 E MAIN ST", "addr:postcode": "62881", "addr:state": "IL", "brand": "USPS", "collection_times": "Mo-Fr 15:00", "name": "USPS COLLECTION BOX - BLUE BOX", "note": "ON 12/24 AND 12/31, THIS BOX MAY BE COLLECTED AS EARLY AS 12 NOON.", "ref": "6288100018"}, "type": "Feature"}
{"geometry": {"coordinates": [-88.9485853, 38.626466], "type": "Point"}, "id": "vTsdYu71XeqJFUnXpu7LfeAf1CE=", "properties": {"@spider": "usps_collection_boxes", "addr:city": "SALEM", "addr:country": "US", "addr:full": "125 S PEARL ST", "addr:postcode": "62881", "addr:state": "IL", "brand": "USPS", "collection_times": "Mo-Fr 15:00; Sa 12:00", "name": "USPS COLLECTION BOX - BLUE BOX", "note": "ON 12/24 AND 12/31, THIS BOX MAY BE COLLECTED AS EARLY AS 12 NOON.", "ref": "6288100021"}, "type": "Feature"}
{"geometry": {"coordinates": [-88.9443123, 38.610181], "type": "Point"}, "id": "jxxJAwcayCQ6cn-zOzarRvQF4-4=", "properties": {"@spider": "usps_collection_boxes", "addr:city": "SALEM", "addr:country": "US", "addr:full": "1300 S BROADWAY AVE", "addr:postcode": "62881", "addr:state": "IL", "brand": "USPS", "collection_times": "Mo-Fr 11:00", "name": "USPS COLLECTION BOX - BLUE BOX", "ref": "6288100022"}, "type": "Feature"}
{"geometry": {"coordinates": [-88.961153, 38.623858], "type": "Point"}, "id": "DfjaANXq4Wcdl1zd8vpiWvDDZdE=", "properties": {"@spider": "usps_collection_boxes", "addr:city": "SALEM", "addr:country": "US", "addr:full": "125 S DELMAR AVE", "addr:postcode": "62881", "addr:state": "IL", "brand": "USPS", "collection_times": "Mo-Sa 15:50", "name": "USPS COLLECTION BOX - BLUE BOX", "note": "ON 12/24 AND 12/31, THIS BOX MAY BE COLLECTED AS EARLY AS 12 NOON.", "ref": "6288100023"}, "type": "Feature"}
{"geometry": {"coordinates": [-88.961153, 38.623858], "type": "Point"}, "id": "YYWKcDOfM6Qj9kOzjBXfntbVkIk=", "properties": {"@spider": "usps_collection_boxes", "addr:city": "SALEM", "addr:country": "US", "addr:full": "125 S DELMAR AVE", "addr:postcode": "62881", "addr:state": "IL", "brand": "USPS", "collection_times": "Mo-Sa 15:50", "name": "USPS COLLECTION BOX - PO LOBBY", "note": "ON 12/24 AND 12/31, THIS BOX MAY BE COLLECTED AS EARLY AS 12 NOON.", "ref": "6288100024"}, "type": "Feature"}
{"geometry": {"coordinates": [-88.961153, 38.623858], "type": "Point"}, "id": "Nkguz5-emKdOO3_--ig5lqD3QeQ=", "properties": {"@spider": "usps_collection_boxes", "addr:city": "SALEM", "addr:country": "US", "addr:full": "125 S DELMAR AVE", "addr:postcode": "62881", "addr:state": "IL", "brand": "USPS", "collection_times": "Mo-Sa 15:50", "name": "USPS COLLECTION BOX - PO LOBBY", "note": "ON 12/24 AND 12/31, THIS BOX MAY BE COLLECTED AS EARLY AS 12 NOON.", "ref": "6288100025"}, "type": "Feature"}
{"geometry": {"coordinates": [-88.961212533, 38.62387653], "type": "Point"}, "id": "rU1TyIvDWeq-ZrwOxl6BKhsjFFU=", "properties": {"@spider": "usps_collection_boxes", "addr:city": "SALEM", "addr:country": "US", "addr:full": "125 S DELMAR AVE", "addr:postcode": "62881", "addr:state": "IL", "brand": "USPS", "collection_times": "Mo-Sa 15:45", "name": "USPS COLLECTION BOX - PO LOBBY", "note": "ON 12/24 AND 12/31, THIS BOX MAY BE COLLECTED AS EARLY AS 12 NOON.", "ref": "6288100028"}, "type": "Feature"}
{"geometry": {"coordinates": [-89.120635, 38.616106], "type": "Point"}, "id": "so_lIaiGyUZKpQWtrjez5UlGVF4=", "properties": {"@spider": "usps_collection_boxes", "addr:city": "SANDOVAL", "addr:country": "US", "addr:full": "308 N MAIN ST", "addr:postcode": "62882", "addr:state": "IL", "brand": "USPS", "collection_times": "Mo-Fr 16:00; Sa 10:15", "name": "USPS COLLECTION BOX - BLUE BOX", "note": "ON 12/24 AND 12/31, THIS BOX MAY BE COLLECTED AS EARLY AS 12 NOON.", "ref": "6288200001"}, "type": "Feature"}
{"geometry": {"coordinates": [-89.120683, 38.616028], "type": "Point"}, "id": "bDPwPJZaa9X0AdHPC-mVBIZwJBM=", "properties": {"@spider": "usps_collection_boxes", "addr:city": "SANDOVAL", "addr:country": "US", "addr:full": "308 N MAIN ST", "addr:postcode": "62882", "addr:state": "IL", "brand": "USPS", "collection_times": "Mo-Fr 15:45; Sa 10:45", "name": "USPS COLLECTION BOX - PO LOBBY", "note": "ON 12/24 AND 12/31, THIS BOX MAY BE COLLECTED AS EARLY AS 12 NOON.", "ref": "6288200002"}, "type": "Feature"}
{"geometry": {"coordinates": [-89.120620343, 38.616063689], "type": "Point"}, "id": "1wHysX1agGpfies3HttRzrH_8e8=", "properties": {"@spider": "usps_collection_boxes", "addr:city": "SANDOVAL", "addr:country": "US", "addr:full": "308 N MAIN ST", "addr:postcode": "62882", "addr:state": "IL", "brand": "USPS", "collection_times": "Mo-Fr 15:45; Sa 10:45", "name": "USPS COLLECTION BOX - PO LOBBY", "note": "ON 12/24 AND 12/31, THIS BOX MAY BE COLLECTED AS EARLY AS 12 NOON.", "ref": "6288200004"}, "type": "Feature"}
{"geometry": {"coordinates": [-89.0894312137, 38.8463415185], "type": "Point"}, "id": "3yK3_tI7ab72S5aAwE7BUtcwJoY=", "properties": {"@spider": "usps_collection_boxes", "addr:city": "SHOBONIER", "addr:country": "US", "addr:full": "9998 BLACKMAN ADDITION", "addr:postcode": "62885", "addr:state": "IL", "brand": "USPS", "collection_times": "Mo-Fr 11:45; Sa 09:30", "name": "USPS COLLECTION BOX - BLUE BOX", "ref": "6288500001"}, "type": "Feature"}
{"geometry": {"coordinates": [-89.0894312137, 38.8463415185], "type": "Point"}, "id": "aximzFpqH0W94g3CDV5PN5AliYI=", "properties": {"@spider": "usps_collection_boxes", "addr:city": "SHOBONIER", "addr:country": "US", "addr:full": "9998 BLACKMAN ADDITION", "addr:postcode": "62885", "addr:state": "IL", "brand": "USPS", "collection_times": "Mo-Fr 11:45; Sa 09:00", "name": "USPS COLLECTION BOX - PO LOBBY", "ref": "6288500002"}, "type": "Feature"}
{"geometry": {"coordinates": [-89.0898796, 38.8712851], "type": "Point"}, "id": "jP47a3mqw2bMZ3d9WcSO7hT350I=", "properties": {"@spider": "usps_collection_boxes", "addr:city": "SHOBONIER", "addr:country": "US", "addr:full": "9998 BLACKMAN ADDITION", "addr:postcode": "62885", "addr:state": "IL", "brand": "USPS", "collection_times": "Mo-Fr 11:45; Sa 09:00", "name": "USPS COLLECTION BOX - PO LOBBY", "ref": "6288500003"}, "type": "Feature"}
{"geometry": {"coordinates": [-88.537884, 38.360161], "type": "Point"}, "id": "te8-8HnHU4NIuH_y4_jDrrf4rec=", "properties": {"@spider": "usps_collection_boxes", "addr:city": "SIMS", "addr:country": "US", "addr:full": "601A S RAILROAD ST", "addr:postcode": "62886", "addr:state": "IL", "brand": "USPS", "collection_times": "Mo-Fr 15:00; Sa 13:30", "name": "USPS COLLECTION BOX - PO LOBBY", "note": "ON 12/24 AND 12/31, THIS BOX MAY BE COLLECTED AS EARLY AS 12 NOON.", "ref": "6288600001"}, "type": "Feature"}
{"geometry": {"coordinates": [-88.537775, 38.360192], "type": "Point"}, "id": "swinMGJTahFZd949CCjrCHWak2Y=", "properties": {"@spider": "usps_collection_boxes", "addr:city": "SIMS", "addr:country": "US", "addr:full": "601A S RAILROAD ST", "addr:postcode": "62886", "addr:state": "IL", "brand": "USPS", "collection_times": "Mo-Fr 15:15; Sa 13:30", "name": "USPS COLLECTION BOX - BLUE BOX", "note": "ON 12/24 AND 12/31, THIS BOX MAY BE COLLECTED AS EARLY AS 12 NOON.", "ref": "6288600002"}, "type": "Feature"}
{"geometry": {"coordinates": [-88.53782234, 38.360102689], "type": "Point"}, "id": "WWRyOUw-zsued7R8bMt_ClAuDVs=", "properties": {"@spider": "usps_collection_boxes", "addr:city": "SIMS", "addr:country": "US", "addr:full": "601A S RAILROAD ST", "addr:postcode": "62886", "addr:state": "IL", "brand": "USPS", "collection_times": "Mo-Fr 15:15; Sa 13:30", "name": "USPS COLLECTION BOX - PO LOBBY", "note": "ON 12/24 AND 12/31, THIS BOX MAY BE COLLECTED AS EARLY AS 12 NOON.", "ref": "6288600003"}, "type": "Feature"}
{"geometry": {"coordinates": [-88.354288, 38.176011], "type": "Point"}, "id": "2JqvkB_P4s2lAkamw_xaJXguqac=", "properties": {"@spider": "usps_collection_boxes", "addr:city": "SPRINGERTON", "addr:country": "US", "addr:full": "125 S MAIN ST", "addr:postcode": "62887", "addr:state": "IL", "brand": "USPS", "collection_times": "Mo-Fr 11:15; Sa 10:30", "name": "USPS COLLECTION BOX - BLUE BOX", "ref": "6288700000"}, "type": "Feature"}
{"geometry": {"coordinates": [-88.354288, 38.176011], "type": "Point"}, "id": "89_u6eS8yutkL8JU5X36_KOoy8s=", "properties": {"@spider": "usps_collection_boxes", "addr:city": "SPRINGERTON", "addr:country": "US", "addr:full": "125 S MAIN ST", "addr:postcode": "62887", "addr:state": "IL", "brand": "USPS", "collection_times": "Mo-Fr 11:15; Sa 10:30", "name": "USPS COLLECTION BOX - PO LOBBY", "ref": "6288700001"}, "type": "Feature"}
{"geometry": {"coordinates": [-88.354270729, 38.179210667], "type": "Point"}, "id": "2qqWpwFIa88ZaZtiBYR50obRzks=", "properties": {"@spider": "usps_collection_boxes", "addr:city": "SPRINGERTON", "addr:country": "US", "addr:full": "125 S MAIN ST", "addr:postcode": "62887", "addr:state": "IL", "brand": "USPS", "collection_times": "Mo-Fr 11:15; Sa 10:30", "name": "USPS COLLECTION BOX - PO LOBBY", "ref": "6288700002"}, "type": "Feature"}
{"geometry": {"coordinates": [-88.897306, 38.43945], "type": "Point"}, "id": "9HQgyFv9C4HL1rxqCAL_6BpLKPQ=", "properties": {"@spider": "usps_collection_boxes", "addr:city": "TEXICO", "addr:country": "US", "addr:full": "13398 E DIX TEXICO RD", "addr:postcode": "62889", "addr:state": "IL", "brand": "USPS", "collection_times": "Mo-Fr 11:45; Sa 10:00", "name": "USPS COLLECTION BOX - BLUE BOX", "ref": "6288900001"}, "type": "Feature"}
{"geometry": {"coordinates": [-88.896540777, 38.439442486], "type": "Point"}, "id": "b9gBeOZnYPMSjyTEyx4oXC4abIY=", "properties": {"@spider": "usps_collection_boxes", "addr:city": "TEXICO", "addr:country": "US", "addr:full": "13398 E DIX TEXICO RD", "addr:postcode": "62889", "addr:state": "IL", "brand": "USPS", "collection_times": "Mo-Fr 11:45; Sa 10:00", "name": "USPS COLLECTION BOX - PO LOBBY", "ref": "6288900002"}, "type": "Feature"}
{"geometry": {"coordinates": [-89.087955, 38.802682], "type": "Point"}, "id": "dYg7-yk32otAx1w1zum-lz_aD1g=", "properties": {"@spider": "usps_collection_boxes", "addr:city": "VERNON", "addr:country": "US", "addr:full": "200 N RACE ST", "addr:postcode": "62892", "addr:state": "IL", "brand": "USPS", "collection_times": "Mo-Fr 15:30; Sa 12:15", "name": "USPS COLLECTION BOX - BLUE BOX", "note": "ON 12/24 AND 12/31, THIS BOX MAY BE COLLECTED AS EARLY AS 12 NOON.", "ref": "6289200001"}, "type": "Feature"}
{"geometry": {"coordinates": [-89.087989, 38.802592], "type": "Point"}, "id": "D5T687sCBEnRvbYzv4Fw9QkgFhI=", "properties": {"@spider": "usps_collection_boxes", "addr:city": "VERNON", "addr:country": "US", "addr:full": "200 N RACE ST", "addr:postcode": "62892", "addr:state": "IL", "brand": "USPS", "collection_times": "Mo-Fr 15:30; Sa 12:15", "name": "USPS COLLECTION BOX - PO LOBBY", "note": "ON 12/24 AND 12/31, THIS BOX MAY BE COLLECTED AS EARLY AS 12 NOON.", "ref": "6289200002"}, "type": "Feature"}
{"geometry": {"coordinates": [-89.087937026, 38.802639805], "type": "Point"}, "id": "KWQJHvyJ7x6RRYfyHBw5HPRlpbA=", "properties": {"@spider": "usps_collection_boxes", "addr:city": "VERNON", "addr:country": "US", "addr:full": "200 N RACE ST", "addr:postcode": "62892", "addr:state": "IL", "brand": "USPS", "collection_times": "Mo-Fr 15:30; Sa 12:15", "name": "USPS COLLECTION BOX - PO LOBBY", "note": "ON 12/24 AND 12/31, THIS BOX MAY BE COLLECTED AS EARLY AS 12 NOON.", "ref": "6289200003"}, "type": "Feature"}
{"geometry": {"coordinates": [-89.042438, 38.475015], "type": "Point"}, "id": "1Y1TFismWvj5VPLclVwfekcIepU=", "properties": {"@spider": "usps_collection_boxes", "addr:city": "WALNUT HILL", "addr:country": "US", "addr:full": "61 HARRISON ST", "addr:postcode": "62893", "addr:state": "IL", "brand": "USPS", "collection_times": "Mo-Fr 16:00; Sa 10:00", "name": "USPS COLLECTION BOX - BLUE BOX", "note": "ON 12/24 AND 12/31, THIS BOX MAY BE COLLECTED AS EARLY AS 12 NOON.", "ref": "6289300001"}, "type": "Feature"}
{"geometry": {"coordinates": [-89.042474, 38.474981], "type": "Point"}, "id": "3HuF3gNrDlv4b5xwHQ9JuwuSTew=", "properties": {"@spider": "usps_collection_boxes", "addr:city": "WALNUT HILL", "addr:country": "US", "addr:full": "61 HARRISON ST", "addr:postcode": "62893", "addr:state": "IL", "brand": "USPS", "collection_times": "Mo-Fr 16:05; Sa 11:15", "name": "USPS COLLECTION BOX - PO LOBBY", "note": "ON 12/24 AND 12/31, THIS BOX MAY BE COLLECTED AS EARLY AS 12 NOON.", "ref": "6289300002"}, "type": "Feature"}
{"geometry": {"coordinates": [-89.042748584, 38.476413671], "type": "Point"}, "id": "4lT9T3XznJK_CdkkBt5PXGHtWNQ=", "properties": {"@spider": "usps_collection_boxes", "addr:city": "WALNUT HILL", "addr:country": "US", "addr:full": "61 HARRISON ST", "addr:postcode": "62893", "addr:state": "IL", "brand": "USPS", "collection_times": "Mo-Fr 16:00; Sa 11:15", "name": "USPS COLLECTION BOX - PO LOBBY", "note": "ON 12/24 AND 12/31, THIS BOX MAY BE COLLECTED AS EARLY AS 12 NOON.", "ref": "6289300004"}, "type": "Feature"}
{"geometry": {"coordinates": [-88.588158, 38.345313], "type": "Point"}, "id": "qH4kaZ8tNeCiwMosAo_AGEKqORA=", "properties": {"@spider": "usps_collection_boxes", "addr:city": "WAYNE CITY", "addr:country": "US", "addr:full": "305 S MAIN ST", "addr:postcode": "62895", "addr:state": "IL", "brand": "USPS", "collection_times": "Mo-Fr 15:05; Sa 10:30", "name": "USPS COLLECTION BOX - BLUE BOX", "note": "ON 12/24 AND 12/31, THIS BOX MAY BE COLLECTED AS EARLY AS 12 NOON.", "ref": "6289500001"}, "type": "Feature"}
{"geometry": {"coordinates": [-88.588189, 38.345396], "type": "Point"}, "id": "jfulslAercMYkpLOEGXgvz2g5tc=", "properties": {"@spider": "usps_collection_boxes", "addr:city": "WAYNE CITY", "addr:country": "US", "addr:full": "305 S MAIN ST", "addr:postcode": "62895", "addr:state": "IL", "brand": "USPS", "collection_times": "Mo-Fr 15:05; Sa 10:30", "name": "USPS COLLECTION BOX - PO LOBBY", "note": "ON 12/24 AND 12/31, THIS BOX MAY BE COLLECTED AS EARLY AS 12 NOON.", "ref": "6289500002"}, "type": "Feature"}
{"geometry": {"coordinates": [-88.588189, 38.345396], "type": "Point"}, "id": "hcRwd7twxhcYfPLlUD4VqOfrqJM=", "properties": {"@spider": "usps_collection_boxes", "addr:city": "WAYNE CITY", "addr:country": "US", "addr:full": "305 S MAIN ST", "addr:postcode": "62895", "addr:state": "IL", "brand": "USPS", "collection_times": "Mo-Fr 15:05; Sa 10:30", "name": "USPS COLLECTION BOX - PO LOBBY", "note": "ON 12/24 AND 12/31, THIS BOX MAY BE COLLECTED AS EARLY AS 12 NOON.", "ref": "6289500003"}, "type": "Feature"}
{"geometry": {"coordinates": [-88.588178492, 38.344993994], "type": "Point"}, "id": "6MzvKgsMXcRhtWs08GsiBikChRk=", "properties": {"@spider": "usps_collection_boxes", "addr:city": "WAYNE CITY", "addr:country": "US", "addr:full": "305 S MAIN ST", "addr:postcode": "62895", "addr:state": "IL", "brand": "USPS", "collection_times": "Mo-Fr 15:00; Sa 10:30", "name": "USPS COLLECTION BOX - PO LOBBY", "note": "ON 12/24 AND 12/31, THIS BOX MAY BE COLLECTED AS EARLY AS 12 NOON.", "ref": "6289500004"}, "type": "Feature"}
{"geometry": {"coordinates": [-88.637211, 38.635156], "type": "Point"}, "id": "Yy2nOQB0u_Al_MDWnS2DaKMAiXY=", "properties": {"@spider": "usps_collection_boxes", "addr:city": "XENIA", "addr:country": "US", "addr:full": "102 N MAIN ST", "addr:postcode": "62899", "addr:state": "IL", "brand": "USPS", "collection_times": "Mo-Fr 15:05; Sa 09:15", "name": "USPS COLLECTION BOX - BLUE BOX", "note": "ON 12/24 AND 12/31, THIS BOX MAY BE COLLECTED AS EARLY AS 12 NOON.", "ref": "6289900001"}, "type": "Feature"}
{"geometry": {"coordinates": [-88.637211, 38.635156], "type": "Point"}, "id": "ahQ0LW95XsEYdEoH7Q9fCZJmp9A=", "properties": {"@spider": "usps_collection_boxes", "addr:city": "XENIA", "addr:country": "US", "addr:full": "102 N MAIN ST", "addr:postcode": "62899", "addr:state": "IL", "brand": "USPS", "collection_times": "Mo-Fr 15:05; Sa 09:15", "name": "USPS COLLECTION BOX - PO LOBBY", "note": "ON 12/24 AND 12/31, THIS BOX MAY BE COLLECTED AS EARLY AS 12 NOON.", "ref": "6289900002"}, "type": "Feature"}
{"geometry": {"coordinates": [-88.637396383, 38.635413381], "type": "Point"}, "id": "32hlxFeBFvkN6BZ5cXAnoVkgLlc=", "properties": {"@spider": "usps_collection_boxes", "addr:city": "XENIA", "addr:country": "US", "addr:full": "102 N MAIN ST", "addr:postcode": "62899", "addr:state": "IL", "brand": "USPS", "collection_times": "Mo-Fr 15:00; Sa 09:15", "name": "USPS COLLECTION BOX - PO LOBBY", "note": "ON 12/24 AND 12/31, THIS BOX MAY BE COLLECTED AS EARLY AS 12 NOON.", "ref": "6289900005"}, "type": "Feature"}
