{"geometry": {"coordinates": [-92.8978423324, 35.0381124866], "type": "Point"}, "id": "AFg9r8gaNsAS9DsllP8r3p0lzzY=", "properties": {"@spider": "usps_collection_boxes", "addr:city": "ADONA", "addr:country": "US", "addr:full": "1892 HIGHWAY 10 W", "addr:postcode": "72001", "addr:state": "AR", "brand": "USPS", "collection_times": "Mo-Fr 15:45; Sa 14:30", "name": "USPS COLLECTION BOX - PO LOBBY", "note": "ON 12/24 AND 12/31, THIS BOX MAY BE COLLECTED AS EARLY AS 12 NOON.", "ref": "7200100001"}, "type": "Feature"}
{"geometry": {"coordinates": [-92.8978423324, 35.0381124866], "type": "Point"}, "id": "Xl2F9tr56mxFs4p1LI-Xl1I5AiM=", "properties": {"@spider": "usps_collection_boxes", "addr:city": "ADONA", "addr:country": "US", "addr:full": "1892 HIGHWAY 10 W", "addr:postcode": "72001", "addr:state": "AR", "brand": "USPS", "collection_times": "Mo-Fr 16:00; Sa 14:45", "name": "USPS COLLECTION BOX - PO LOBBY", "note": "ON 12/24 AND 12/31, THIS BOX MAY BE COLLECTED AS EARLY AS 12 NOON.", "ref": "7200100003"}, "type": "Feature"}
{"geometry": {"coordinates": [-92.443042, 34.631975], "type": "Point"}, "id": "MZZNWaJzlNIcl3DHvHGajlQ-Xd8=", "properties": {"@spider": "usps_collection_boxes", "addr:city": "ALEXANDER", "addr:country": "US", "addr:full": "15604 ALEXANDER RD", "addr:postcode": "72002", "addr:state": "AR", "brand": "USPS", "collection_times": "Mo-Fr 16:45; Sa 11:45", "name": "USPS COLLECTION BOX - BLUE BOX", "note": "ON 12/24 AND 12/31, THIS BOX MAY BE COLLECTED AS EARLY AS 12 NOON.", "ref": "7200200001"}, "type": "Feature"}
{"geometry": {"coordinates": [-92.443042, 34.631975], "type": "Point"}, "id": "Bm1peL1YU1X-5bk8Pej8ahpZMSE=", "properties": {"@spider": "usps_collection_boxes", "addr:city": "ALEXANDER", "addr:country": "US", "addr:full": "15604 ALEXANDER RD", "addr:postcode": "72002", "addr:state": "AR", "brand": "USPS", "collection_times": "Mo-Fr 16:45; Sa 11:45", "name": "USPS COLLECTION BOX - PO LOBBY", "note": "ON 12/24 AND 12/31, THIS BOX MAY BE COLLECTED AS EARLY AS 12 NOON.", "ref": "7200200007"}, "type": "Feature"}
{"geometry": {"coordinates": [-92.443042, 34.631975], "type": "Point"}, "id": "lwzNACSKUgOFAV7cpPmWEF8wnAk=", "properties": {"@spider": "usps_collection_boxes", "addr:city": "ALEXANDER", "addr:country": "US", "addr:full": "15604 ALEXANDER RD", "addr:postcode": "72002", "addr:state": "AR", "brand": "USPS", "collection_times": "Mo-Fr 16:45; Sa 11:45", "name": "USPS COLLECTION BOX - PO LOBBY", "note": "ON 12/24 AND 12/31, THIS BOX MAY BE COLLECTED AS EARLY AS 12 NOON.", "ref": "7200200008"}, "type": "Feature"}
{"geometry": {"coordinates": [-92.443531928, 34.631594588], "type": "Point"}, "id": "1RN6rda8l9JLEyYcCju1w16TqyE=", "properties": {"@spider": "usps_collection_boxes", "addr:city": "ALEXANDER", "addr:country": "US", "addr:full": "15604 ALEXANDER RD", "addr:postcode": "72002", "addr:state": "AR", "brand": "USPS", "collection_times": "Mo-Fr 16:30; Sa 11:00", "name": "USPS COLLECTION BOX - PO LOBBY", "note": "ON 12/24 AND 12/31, THIS BOX MAY BE COLLECTED AS EARLY AS 12 NOON.", "ref": "7200200009"}, "type": "Feature"}
{"geometry": {"coordinates": [-91.4099412, 34.405961], "type": "Point"}, "id": "tOyElalczRK0Piu2-7uObnvbe_U=", "properties": {"@spider": "usps_collection_boxes", "addr:city": "ALMYRA", "addr:country": "US", "addr:full": "101 E MAIN ST", "addr:postcode": "72003", "addr:state": "AR", "brand": "USPS", "collection_times": "Mo-Fr 10:45; Sa 14:00", "name": "USPS COLLECTION BOX - BLUE BOX", "note": "ON 12/24 AND 12/31, THIS BOX MAY BE COLLECTED AS EARLY AS 12 NOON.", "ref": "7200300001"}, "type": "Feature"}
{"geometry": {"coordinates": [-91.4098785, 34.405981], "type": "Point"}, "id": "Ef1Vrr3ClflwBNKABvqR1j8qSCY=", "properties": {"@spider": "usps_collection_boxes", "addr:city": "ALMYRA", "addr:country": "US", "addr:full": "101 E MAIN ST", "addr:postcode": "72003", "addr:state": "AR", "brand": "USPS", "collection_times": "Mo-Fr 10:45; Sa 14:00", "name": "USPS COLLECTION BOX - PO LOBBY", "note": "ON 12/24 AND 12/31, THIS BOX MAY BE COLLECTED AS EARLY AS 12 NOON.", "ref": "7200300002"}, "type": "Feature"}
{"geometry": {"coordinates": [-91.409760419, 34.406134514], "type": "Point"}, "id": "SgTrqRQYHdWgwon9B_lmQzE9KaI=", "properties": {"@spider": "usps_collection_boxes", "addr:city": "ALMYRA", "addr:country": "US", "addr:full": "101 E MAIN ST", "addr:postcode": "72003", "addr:state": "AR", "brand": "USPS", "collection_times": "Mo-Fr 11:00; Sa 09:00", "name": "USPS COLLECTION BOX - PO LOBBY", "ref": "7200300003"}, "type": "Feature"}
{"geometry": {"coordinates": [-91.84753982, 34.318921393], "type": "Point"}, "id": "7x85SjeiORLq7CugQcXfiDCue5I=", "properties": {"@spider": "usps_collection_boxes", "addr:city": "ALTHEIMER", "addr:country": "US", "addr:full": "204 W FRONT ST", "addr:postcode": "72004", "addr:state": "AR", "brand": "USPS", "collection_times": "Mo-Fr 15:30; Sa 08:30", "name": "USPS COLLECTION BOX - BLUE BOX", "note": "ON 12/24 AND 12/31, THIS BOX MAY BE COLLECTED AS EARLY AS 12 NOON.", "ref": "7200400001"}, "type": "Feature"}
{"geometry": {"coordinates": [-91.84753982, 34.318921393], "type": "Point"}, "id": "Tg0frbcSeoKju4FMJ7P4Vs8Obqs=", "properties": {"@spider": "usps_collection_boxes", "addr:city": "ALTHEIMER", "addr:country": "US", "addr:full": "204 W FRONT ST", "addr:postcode": "72004", "addr:state": "AR", "brand": "USPS", "collection_times": "Mo-Fr 15:30; Sa 08:30", "name": "USPS COLLECTION BOX - PO LOBBY", "note": "ON 12/24 AND 12/31, THIS BOX MAY BE COLLECTED AS EARLY AS 12 NOON.", "ref": "7200400002"}, "type": "Feature"}
{"geometry": {"coordinates": [-91.84753982, 34.318921393], "type": "Point"}, "id": "cB3kKKk1i-3YEVuVdRhjcrgWVJU=", "properties": {"@spider": "usps_collection_boxes", "addr:city": "ALTHEIMER", "addr:country": "US", "addr:full": "204 W FRONT ST", "addr:postcode": "72004", "addr:state": "AR", "brand": "USPS", "collection_times": "Mo-Fr 15:30; Sa 08:30", "name": "USPS COLLECTION BOX - PO LOBBY", "note": "ON 12/24 AND 12/31, THIS BOX MAY BE COLLECTED AS EARLY AS 12 NOON.", "ref": "7200400003"}, "type": "Feature"}
{"geometry": {"coordinates": [-91.847771989, 34.318968004], "type": "Point"}, "id": "LG6bbJ2l75DmxEKLej1-zgK9ivs=", "properties": {"@spider": "usps_collection_boxes", "addr:city": "ALTHEIMER", "addr:country": "US", "addr:full": "200 W FRONT ST", "addr:postcode": "72004", "addr:state": "AR", "brand": "USPS", "collection_times": "Mo-Fr 15:30", "name": "USPS COLLECTION BOX - PO LOBBY", "note": "ON 12/24 AND 12/31, THIS BOX MAY BE COLLECTED AS EARLY AS 12 NOON.", "ref": "7200400004"}, "type": "Feature"}
{"geometry": {"coordinates": [-91.1094176, 35.561697], "type": "Point"}, "id": "KFEx8Qio9FIHiUhHFaEv6tD8_Oo=", "properties": {"@spider": "usps_collection_boxes", "addr:city": "AMAGON", "addr:country": "US", "addr:full": "300 AMAGON AVE", "addr:postcode": "72005", "addr:state": "AR", "brand": "USPS", "collection_times": "Mo-Fr 10:30; Sa 11:15", "name": "USPS COLLECTION BOX - BLUE BOX", "ref": "7200500001"}, "type": "Feature"}
{"geometry": {"coordinates": [-91.109352, 35.561763], "type": "Point"}, "id": "LGLUbegUrhepiXSsp5qeY8nuf_4=", "properties": {"@spider": "usps_collection_boxes", "addr:city": "AMAGON", "addr:country": "US", "addr:full": "300 AMAGON AVE", "addr:postcode": "72005", "addr:state": "AR", "brand": "USPS", "collection_times": "Mo-Fr 10:30; Sa 11:15", "name": "USPS COLLECTION BOX - PO LOBBY", "ref": "7200500002"}, "type": "Feature"}
{"geometry": {"coordinates": [-91.10935395, 35.561760518], "type": "Point"}, "id": "9DY97gVeNxEKAiLErOjrnnnow5Q=", "properties": {"@spider": "usps_collection_boxes", "addr:city": "AMAGON", "addr:country": "US", "addr:full": "300 AMAGON AVE", "addr:postcode": "72005", "addr:state": "AR", "brand": "USPS", "collection_times": "Mo-Fr 11:00; Sa 11:15", "name": "USPS COLLECTION BOX - PO LOBBY", "ref": "7200500005"}, "type": "Feature"}
{"geometry": {"coordinates": [-91.366849985, 35.282320001], "type": "Point"}, "id": "lurvmZuFohCIvvEtgervCqfakuc=", "properties": {"@spider": "usps_collection_boxes", "addr:city": "AUGUSTA", "addr:country": "US", "addr:full": "120 MAIN ST", "addr:postcode": "72006", "addr:state": "AR", "brand": "USPS", "collection_times": "Mo-Fr 16:50; Sa 11:00", "name": "USPS COLLECTION BOX - BLUE BOX", "note": "ON 12/24 AND 12/31, THIS BOX MAY BE COLLECTED AS EARLY AS 12 NOON.", "ref": "7200600001"}, "type": "Feature"}
{"geometry": {"coordinates": [-91.366849985, 35.282320001], "type": "Point"}, "id": "uGWo9yvWxvFBm-fEE8ATvSQbM5w=", "properties": {"@spider": "usps_collection_boxes", "addr:city": "AUGUSTA", "addr:country": "US", "addr:full": "120 MAIN ST", "addr:postcode": "72006", "addr:state": "AR", "brand": "USPS", "collection_times": "Mo-Fr 16:50; Sa 11:00", "name": "USPS COLLECTION BOX - PO LOBBY", "note": "ON 12/24 AND 12/31, THIS BOX MAY BE COLLECTED AS EARLY AS 12 NOON.", "ref": "7200600002"}, "type": "Feature"}
{"geometry": {"coordinates": [-91.397690024, 35.290039985], "type": "Point"}, "id": "T8vdOSCchdKjJvvHlsmGPrpYXIQ=", "properties": {"@spider": "usps_collection_boxes", "addr:city": "AUGUSTA", "addr:country": "US", "addr:full": "919 HIGHWAY 64 E", "addr:postcode": "72006", "addr:state": "AR", "brand": "USPS", "collection_times": "Mo-Fr 15:00", "name": "USPS COLLECTION BOX - BLUE BOX", "note": "ON 12/24 AND 12/31, THIS BOX MAY BE COLLECTED AS EARLY AS 12 NOON.", "ref": "7200600003"}, "type": "Feature"}
{"geometry": {"coordinates": [-91.366849985, 35.282320001], "type": "Point"}, "id": "xp5GGQxFjbLhLJLlW8lzOKtrCNk=", "properties": {"@spider": "usps_collection_boxes", "addr:city": "AUGUSTA", "addr:country": "US", "addr:full": "120 MAIN ST", "addr:postcode": "72006", "addr:state": "AR", "brand": "USPS", "collection_times": "Mo-Fr 16:30; Sa 11:00", "name": "USPS COLLECTION BOX - PO LOBBY", "note": "ON 12/24 AND 12/31, THIS BOX MAY BE COLLECTED AS EARLY AS 12 NOON.", "ref": "7200600004"}, "type": "Feature"}
{"geometry": {"coordinates": [-91.982939, 34.999985], "type": "Point"}, "id": "ZDpyXIamuyZwKTTaNgZXhphgA28=", "properties": {"@spider": "usps_collection_boxes", "addr:city": "AUSTIN", "addr:country": "US", "addr:full": "3385 HIGHWAY 367 N", "addr:postcode": "72007", "addr:state": "AR", "brand": "USPS", "collection_times": "Mo-Fr 15:45; Sa 10:00", "name": "USPS COLLECTION BOX - BLUE BOX", "note": "ON 12/24 AND 12/31, THIS BOX MAY BE COLLECTED AS EARLY AS 12 NOON.", "ref": "7200700001"}, "type": "Feature"}
{"geometry": {"coordinates": [-91.982939, 34.999985], "type": "Point"}, "id": "9p7Tls1U9d_5sAx-ZHEvbk6UmV0=", "properties": {"@spider": "usps_collection_boxes", "addr:city": "AUSTIN", "addr:country": "US", "addr:full": "3385 HIGHWAY 367 N", "addr:postcode": "72007", "addr:state": "AR", "brand": "USPS", "collection_times": "Mo-Fr 15:45; Sa 10:00", "name": "USPS COLLECTION BOX - PO LOBBY", "note": "ON 12/24 AND 12/31, THIS BOX MAY BE COLLECTED AS EARLY AS 12 NOON.", "ref": "7200700002"}, "type": "Feature"}
{"geometry": {"coordinates": [-91.982968692, 34.999997815], "type": "Point"}, "id": "QXUamer8YBet-4MtUd-WmOPmsMY=", "properties": {"@spider": "usps_collection_boxes", "addr:city": "AUSTIN", "addr:country": "US", "addr:full": "3385 HIGHWAY 367 N", "addr:postcode": "72007", "addr:state": "AR", "brand": "USPS", "collection_times": "Mo-Fr 16:00; Sa 10:00", "name": "USPS COLLECTION BOX - PO LOBBY", "note": "ON 12/24 AND 12/31, THIS BOX MAY BE COLLECTED AS EARLY AS 12 NOON.", "ref": "7200700003"}, "type": "Feature"}
{"geometry": {"coordinates": [-91.567542, 35.311129], "type": "Point"}, "id": "gLwxzmD8znfINxC201yHDkdi7ys=", "properties": {"@spider": "usps_collection_boxes", "addr:city": "BALD KNOB", "addr:country": "US", "addr:full": "100 N MAIN ST", "addr:postcode": "72010", "addr:state": "AR", "brand": "USPS", "collection_times": "Mo-Fr 17:00; Sa 15:00", "name": "USPS COLLECTION BOX - BLUE BOX", "note": "ON 12/24 AND 12/31, THIS BOX MAY BE COLLECTED AS EARLY AS 12 NOON.", "ref": "7201000001"}, "type": "Feature"}
{"geometry": {"coordinates": [-91.567542, 35.311129], "type": "Point"}, "id": "X5RAeyqwUx0pwjcfoy-ttr0fMec=", "properties": {"@spider": "usps_collection_boxes", "addr:city": "BALD KNOB", "addr:country": "US", "addr:full": "100 N MAIN ST", "addr:postcode": "72010", "addr:state": "AR", "brand": "USPS", "collection_times": "Mo-Fr 17:00; Sa 15:00", "name": "USPS COLLECTION BOX - PO LOBBY", "note": "ON 12/24 AND 12/31, THIS BOX MAY BE COLLECTED AS EARLY AS 12 NOON.", "ref": "7201000002"}, "type": "Feature"}
{"geometry": {"coordinates": [-91.567523717, 35.311086466], "type": "Point"}, "id": "KdVyVMty1cb-UrpiZWwb-wtgNyA=", "properties": {"@spider": "usps_collection_boxes", "addr:city": "BALD KNOB", "addr:country": "US", "addr:full": "100 N MAIN ST", "addr:postcode": "72010", "addr:state": "AR", "brand": "USPS", "collection_times": "Mo-Fr 16:30; Sa 11:00", "name": "USPS COLLECTION BOX - PO LOBBY", "note": "ON 12/24 AND 12/31, THIS BOX MAY BE COLLECTED AS EARLY AS 12 NOON.", "ref": "7201000003"}, "type": "Feature"}
{"geometry": {"coordinates": [-92.509608992, 34.558240997], "type": "Point"}, "id": "7fE60WM5966IiZPbxa-xHKtoI0Q=", "properties": {"@spider": "usps_collection_boxes", "addr:city": "BAUXITE", "addr:country": "US", "addr:full": "301 BAUXITE CUTOFF RD", "addr:postcode": "72011", "addr:state": "AR", "brand": "USPS", "collection_times": "Mo-Fr 15:30; Sa 10:00", "name": "USPS COLLECTION BOX - BLUE BOX", "note": "ON 12/24 AND 12/31, THIS BOX MAY BE COLLECTED AS EARLY AS 12 NOON.", "ref": "7201100001"}, "type": "Feature"}
{"geometry": {"coordinates": [-92.509608992, 34.558240997], "type": "Point"}, "id": "GWRHmSHz7COmbU3QD1Jz4aHYXWk=", "properties": {"@spider": "usps_collection_boxes", "addr:city": "BAUXITE", "addr:country": "US", "addr:full": "301 BAUXITE CUTOFF RD", "addr:postcode": "72011", "addr:state": "AR", "brand": "USPS", "collection_times": "Mo-Fr 15:30; Sa 10:00", "name": "USPS COLLECTION BOX - PO LOBBY", "note": "ON 12/24 AND 12/31, THIS BOX MAY BE COLLECTED AS EARLY AS 12 NOON.", "ref": "7201100002"}, "type": "Feature"}
{"geometry": {"coordinates": [-92.509608992, 34.558240997], "type": "Point"}, "id": "3OcWWQwciNey2t0HWVXY-8zL0qY=", "properties": {"@spider": "usps_collection_boxes", "addr:city": "BAUXITE", "addr:country": "US", "addr:full": "301 BAUXITE CUTOFF RD", "addr:postcode": "72011", "addr:state": "AR", "brand": "USPS", "collection_times": "Mo-Fr 16:00", "name": "USPS COLLECTION BOX - PO LOBBY", "note": "ON 12/24 AND 12/31, THIS BOX MAY BE COLLECTED AS EARLY AS 12 NOON.", "ref": "7201100004"}, "type": "Feature"}
{"geometry": {"coordinates": [-91.878854, 35.071142], "type": "Point"}, "id": "wNTu6WItjvMgjJIUh_hzVgY8mz4=", "properties": {"@spider": "usps_collection_boxes", "addr:city": "BEEBE", "addr:country": "US", "addr:full": "201 E CENTER ST", "addr:postcode": "72012", "addr:state": "AR", "brand": "USPS", "collection_times": "Mo-Sa 16:30", "name": "USPS COLLECTION BOX - BLUE BOX", "note": "ON 12/24 AND 12/31, THIS BOX MAY BE COLLECTED AS EARLY AS 12 NOON.", "ref": "7201200001"}, "type": "Feature"}
{"geometry": {"coordinates": [-91.878854, 35.071142], "type": "Point"}, "id": "f9RJd7GZZ5WRGJ9s8tEDUE9gS3w=", "properties": {"@spider": "usps_collection_boxes", "addr:city": "BEEBE", "addr:country": "US", "addr:full": "201 E CENTER ST", "addr:postcode": "72012", "addr:state": "AR", "brand": "USPS", "collection_times": "Mo-Sa 16:30", "name": "USPS COLLECTION BOX - PO LOBBY", "note": "ON 12/24 AND 12/31, THIS BOX MAY BE COLLECTED AS EARLY AS 12 NOON.", "ref": "7201200003"}, "type": "Feature"}
{"geometry": {"coordinates": [-91.878854, 35.071142], "type": "Point"}, "id": "nyCY1BlbT4CCcoTmZHEhjebb7WU=", "properties": {"@spider": "usps_collection_boxes", "addr:city": "BEEBE", "addr:country": "US", "addr:full": "201 E CENTER ST", "addr:postcode": "72012", "addr:state": "AR", "brand": "USPS", "collection_times": "Mo-Sa 16:30", "name": "USPS COLLECTION BOX - PO LOBBY", "note": "ON 12/24 AND 12/31, THIS BOX MAY BE COLLECTED AS EARLY AS 12 NOON.", "ref": "7201200004"}, "type": "Feature"}
{"geometry": {"coordinates": [-91.878854, 35.071142], "type": "Point"}, "id": "0Xnm5QtoQgPcxLRmbMiMJemYtaY=", "properties": {"@spider": "usps_collection_boxes", "addr:city": "BEEBE", "addr:country": "US", "addr:full": "201 E CENTER ST", "addr:postcode": "72012", "addr:state": "AR", "brand": "USPS", "collection_times": "Mo-Sa 16:30", "name": "USPS COLLECTION BOX - PO LOBBY", "note": "ON 12/24 AND 12/31, THIS BOX MAY BE COLLECTED AS EARLY AS 12 NOON.", "ref": "7201200005"}, "type": "Feature"}
{"geometry": {"coordinates": [-91.878854, 35.071142], "type": "Point"}, "id": "d5_c-onqJh_rHlU0QjBCvvWwIuQ=", "properties": {"@spider": "usps_collection_boxes", "addr:city": "BEEBE", "addr:country": "US", "addr:full": "201 E CENTER ST", "addr:postcode": "72012", "addr:state": "AR", "brand": "USPS", "collection_times": "Mo-Sa 16:30", "name": "USPS COLLECTION BOX - PO LOBBY", "note": "ON 12/24 AND 12/31, THIS BOX MAY BE COLLECTED AS EARLY AS 12 NOON.", "ref": "7201200006"}, "type": "Feature"}
{"geometry": {"coordinates": [-91.878530949, 35.071386295], "type": "Point"}, "id": "JvIAm1Q3Zo05jXmphyeYWOOsovI=", "properties": {"@spider": "usps_collection_boxes", "addr:city": "BEEBE", "addr:country": "US", "addr:full": "201 E CENTER ST", "addr:postcode": "72012", "addr:state": "AR", "brand": "USPS", "collection_times": "Mo-Fr 16:00; Sa 11:30", "name": "USPS COLLECTION BOX - PO LOBBY", "note": "ON 12/24 AND 12/31, THIS BOX MAY BE COLLECTED AS EARLY AS 12 NOON.", "ref": "7201200007"}, "type": "Feature"}
{"geometry": {"coordinates": [-92.393612, 35.451314], "type": "Point"}, "id": "OEPOZ0oG4gUOn5ZeKYwFZiTvIiY=", "properties": {"@spider": "usps_collection_boxes", "addr:city": "BEE BRANCH", "addr:country": "US", "addr:full": "148 HIGHWAY 92 E", "addr:postcode": "72013", "addr:state": "AR", "brand": "USPS", "collection_times": "Mo-Fr 13:00; Sa 09:45", "name": "USPS COLLECTION BOX - BLUE BOX", "note": "ON 12/24 AND 12/31, THIS BOX MAY BE COLLECTED AS EARLY AS 12 NOON.", "ref": "7201300001"}, "type": "Feature"}
{"geometry": {"coordinates": [-92.393612, 35.451314], "type": "Point"}, "id": "XHzQ4PbSmLSitX7LtcJ7Ym7CDoU=", "properties": {"@spider": "usps_collection_boxes", "addr:city": "BEE BRANCH", "addr:country": "US", "addr:full": "148 HIGHWAY 92 E", "addr:postcode": "72013", "addr:state": "AR", "brand": "USPS", "collection_times": "Mo-Fr 13:00; Sa 09:45", "name": "USPS COLLECTION BOX - PO LOBBY", "note": "ON 12/24 AND 12/31, THIS BOX MAY BE COLLECTED AS EARLY AS 12 NOON.", "ref": "7201300002"}, "type": "Feature"}
{"geometry": {"coordinates": [-92.393601502, 35.451301538], "type": "Point"}, "id": "IcxYql7h_yicPyAFa_OlkZQPGJ8=", "properties": {"@spider": "usps_collection_boxes", "addr:city": "BEE BRANCH", "addr:country": "US", "addr:full": "148 HIGHWAY 92 E", "addr:postcode": "72013", "addr:state": "AR", "brand": "USPS", "collection_times": "Mo-Fr 13:30; Sa 09:30", "name": "USPS COLLECTION BOX - PO LOBBY", "note": "ON 12/24 AND 12/31, THIS BOX MAY BE COLLECTED AS EARLY AS 12 NOON.", "ref": "7201300004"}, "type": "Feature"}
{"geometry": {"coordinates": [-91.1098959, 35.428836], "type": "Point"}, "id": "KtXc3snZKD7dnuNaGaHEmtSwq7Y=", "properties": {"@spider": "usps_collection_boxes", "addr:city": "BEEDEVILLE", "addr:country": "US", "addr:full": "9907 HIGHWAY 37 S", "addr:postcode": "72014", "addr:state": "AR", "brand": "USPS", "collection_times": "Mo-Fr 14:00; Sa 15:00", "name": "USPS COLLECTION BOX - BLUE BOX", "note": "ON 12/24 AND 12/31, THIS BOX MAY BE COLLECTED AS EARLY AS 12 NOON.", "ref": "7201400001"}, "type": "Feature"}
{"geometry": {"coordinates": [-91.109751, 35.429], "type": "Point"}, "id": "BV3HKZZu5Uc4i5M8hnpdC-rnaAo=", "properties": {"@spider": "usps_collection_boxes", "addr:city": "BEEDEVILLE", "addr:country": "US", "addr:full": "9907 HIGHWAY 37 S", "addr:postcode": "72014", "addr:state": "AR", "brand": "USPS", "collection_times": "Mo-Fr 14:00; Sa 15:00", "name": "USPS COLLECTION BOX - PO LOBBY", "note": "ON 12/24 AND 12/31, THIS BOX MAY BE COLLECTED AS EARLY AS 12 NOON.", "ref": "7201400002"}, "type": "Feature"}
{"geometry": {"coordinates": [-91.109785079, 35.428993041], "type": "Point"}, "id": "ftj8GmLYKNNAVAHZRY5vb1ttOkA=", "properties": {"@spider": "usps_collection_boxes", "addr:city": "BEEDEVILLE", "addr:country": "US", "addr:full": "9907 HIGHWAY 37 S", "addr:postcode": "72014", "addr:state": "AR", "brand": "USPS", "collection_times": "Mo-Fr 14:30; Sa 15:00", "name": "USPS COLLECTION BOX - PO LOBBY", "note": "ON 12/24 AND 12/31, THIS BOX MAY BE COLLECTED AS EARLY AS 12 NOON.", "ref": "7201400003"}, "type": "Feature"}
{"geometry": {"coordinates": [-92.573005013, 34.577544017], "type": "Point"}, "id": "47HCqz7e5EdEZH50M-TlQtnOYrw=", "properties": {"@spider": "usps_collection_boxes", "addr:city": "BENTON", "addr:country": "US", "addr:full": "1425 MILITARY RD", "addr:postcode": "72015", "addr:state": "AR", "brand": "USPS", "collection_times": "Mo-Sa 16:30", "name": "USPS COLLECTION BOX - BLUE BOX", "note": "ON 12/24 AND 12/31, THIS BOX MAY BE COLLECTED AS EARLY AS 12 NOON.", "ref": "7201500001"}, "type": "Feature"}
{"geometry": {"coordinates": [-92.585448033, 34.573539018], "type": "Point"}, "id": "n9y0-HbAIuLWXJjomYB9TAcd86M=", "properties": {"@spider": "usps_collection_boxes", "addr:city": "BENTON", "addr:country": "US", "addr:full": "1 MEDICAL PARK DR", "addr:postcode": "72015", "addr:state": "AR", "brand": "USPS", "collection_times": "Mo-Fr 12:00; Sa 10:30", "name": "USPS COLLECTION BOX - BLUE BOX", "ref": "7201500015"}, "type": "Feature"}
{"geometry": {"coordinates": [-92.568436038, 34.556678987], "type": "Point"}, "id": "-kYeJ4XQVQi3iiYs0KXnWnrTBc4=", "properties": {"@spider": "usps_collection_boxes", "addr:city": "BENTON", "addr:country": "US", "addr:full": "1603 EDISON AVE", "addr:postcode": "72015", "addr:state": "AR", "brand": "USPS", "collection_times": "Mo-Fr 10:00; Sa 09:00", "name": "USPS COLLECTION BOX - BLUE BOX", "ref": "7201500016"}, "type": "Feature"}
{"geometry": {"coordinates": [-92.650015006, 34.527225985], "type": "Point"}, "id": "Qft3LeY4Kohw7ItyX7HhhxIzsfc=", "properties": {"@spider": "usps_collection_boxes", "addr:city": "BENTON", "addr:country": "US", "addr:full": "6701 HIGHWAY 67", "addr:postcode": "72015", "addr:state": "AR", "brand": "USPS", "collection_times": "Mo-Fr 10:00", "name": "USPS COLLECTION BOX - BLUE BOX", "ref": "7201500021"}, "type": "Feature"}
{"geometry": {"coordinates": [-92.573005013, 34.577544017], "type": "Point"}, "id": "1QT8LP5Vo2nkThT4Nf-EgsgNcwQ=", "properties": {"@spider": "usps_collection_boxes", "addr:city": "BENTON", "addr:country": "US", "addr:full": "1425 MILITARY RD", "addr:postcode": "72015", "addr:state": "AR", "brand": "USPS", "collection_times": "Mo-Sa 16:30", "name": "USPS COLLECTION BOX - PO LOBBY", "note": "ON 12/24 AND 12/31, THIS BOX MAY BE COLLECTED AS EARLY AS 12 NOON.", "ref": "7201500024"}, "type": "Feature"}
{"geometry": {"coordinates": [-92.573005013, 34.577544017], "type": "Point"}, "id": "w8_SK0Jbup9_QcJHqoyVc_HohNI=", "properties": {"@spider": "usps_collection_boxes", "addr:city": "BENTON", "addr:country": "US", "addr:full": "1425 MILITARY RD", "addr:postcode": "72015", "addr:state": "AR", "brand": "USPS", "collection_times": "Mo-Sa 16:30", "name": "USPS COLLECTION BOX - PO LOBBY", "note": "ON 12/24 AND 12/31, THIS BOX MAY BE COLLECTED AS EARLY AS 12 NOON.", "ref": "7201500035"}, "type": "Feature"}
{"geometry": {"coordinates": [-92.573005013, 34.577544017], "type": "Point"}, "id": "adrBwfLsCSaKgCS0dAgAtEZtk14=", "properties": {"@spider": "usps_collection_boxes", "addr:city": "BENTON", "addr:country": "US", "addr:full": "1425 MILITARY RD", "addr:postcode": "72015", "addr:state": "AR", "brand": "USPS", "collection_times": "Mo-Sa 16:30", "name": "USPS COLLECTION BOX - PO LOBBY", "note": "ON 12/24 AND 12/31, THIS BOX MAY BE COLLECTED AS EARLY AS 12 NOON.", "ref": "7201500037"}, "type": "Feature"}
{"geometry": {"coordinates": [-92.573005013, 34.577544017], "type": "Point"}, "id": "mSqW481Qn8SZwvEcUF6IX9X561s=", "properties": {"@spider": "usps_collection_boxes", "addr:city": "BENTON", "addr:country": "US", "addr:full": "1425 MILITARY RD", "addr:postcode": "72015", "addr:state": "AR", "brand": "USPS", "collection_times": "Mo-Sa 16:30", "name": "USPS COLLECTION BOX - APC", "note": "ON 12/24 AND 12/31, THIS BOX MAY BE COLLECTED AS EARLY AS 12 NOON.", "ref": "7201500041"}, "type": "Feature"}
{"geometry": {"coordinates": [-92.586545978, 34.564246002], "type": "Point"}, "id": "qRpIqvmXk7NxiCF2xQoh7zQ6n8g=", "properties": {"@spider": "usps_collection_boxes", "addr:city": "BENTON", "addr:country": "US", "addr:full": "129 N MAIN ST", "addr:postcode": "72015", "addr:state": "AR", "brand": "USPS", "collection_times": "Mo-Fr 12:00; Sa 10:00", "name": "USPS COLLECTION BOX - BLUE BOX", "ref": "7201500042"}, "type": "Feature"}
{"geometry": {"coordinates": [-92.573005013, 34.577544017], "type": "Point"}, "id": "KujAh7CZWm7knRCOPmH-v9sIWWU=", "properties": {"@spider": "usps_collection_boxes", "addr:city": "BENTON", "addr:country": "US", "addr:full": "1425 MILITARY RD", "addr:postcode": "72015", "addr:state": "AR", "brand": "USPS", "collection_times": "Mo-Sa 16:30", "name": "USPS COLLECTION BOX - BLUE BOX", "note": "ON 12/24 AND 12/31, THIS BOX MAY BE COLLECTED AS EARLY AS 12 NOON.", "ref": "7201500044"}, "type": "Feature"}
{"geometry": {"coordinates": [-92.573005013, 34.577544017], "type": "Point"}, "id": "EKzUa-2-2468QIyO9m5FC_fECkU=", "properties": {"@spider": "usps_collection_boxes", "addr:city": "BENTON", "addr:country": "US", "addr:full": "1425 MILITARY RD", "addr:postcode": "72015", "addr:state": "AR", "brand": "USPS", "collection_times": "Mo-Fr 16:30; Sa 12:00", "name": "USPS COLLECTION BOX - PO LOBBY", "note": "ON 12/24 AND 12/31, THIS BOX MAY BE COLLECTED AS EARLY AS 12 NOON.", "ref": "7201500049"}, "type": "Feature"}
{"geometry": {"coordinates": [-91.407572, 34.818007], "type": "Point"}, "id": "hM10J-EXuTfw3TiO0vNbhGwg5uY=", "properties": {"@spider": "usps_collection_boxes", "addr:city": "BISCOE", "addr:country": "US", "addr:full": "506 W SPORTSMAN DR", "addr:postcode": "72017", "addr:state": "AR", "brand": "USPS", "collection_times": "Mo-Fr 12:00; Sa 11:00", "name": "USPS COLLECTION BOX - BLUE BOX", "ref": "7201700001"}, "type": "Feature"}
{"geometry": {"coordinates": [-91.407572, 34.818007], "type": "Point"}, "id": "bYupli7uSG6g4Odx2Qz-MkHr9xY=", "properties": {"@spider": "usps_collection_boxes", "addr:city": "BISCOE", "addr:country": "US", "addr:full": "506 W SPORTSMAN DR", "addr:postcode": "72017", "addr:state": "AR", "brand": "USPS", "collection_times": "Mo-Fr 12:00; Sa 11:00", "name": "USPS COLLECTION BOX - PO LOBBY", "ref": "7201700002"}, "type": "Feature"}
{"geometry": {"coordinates": [-91.407571328, 34.818001028], "type": "Point"}, "id": "ur_xn8ESEB7iFzdXjB2DxniS6Mg=", "properties": {"@spider": "usps_collection_boxes", "addr:city": "BISCOE", "addr:country": "US", "addr:full": "506 W SPORTSMAN DR", "addr:postcode": "72017", "addr:state": "AR", "brand": "USPS", "collection_times": "Mo-Fr 12:00; Sa 11:00", "name": "USPS COLLECTION BOX - PO LOBBY", "ref": "7201700003"}, "type": "Feature"}
{"geometry": {"coordinates": [-91.4578293, 35.422638], "type": "Point"}, "id": "ejkILlf6HnOxi-X36DQz1RRAhFM=", "properties": {"@spider": "usps_collection_boxes", "addr:city": "BRADFORD", "addr:country": "US", "addr:full": "200 SW 3RD ST", "addr:postcode": "72020", "addr:state": "AR", "brand": "USPS", "collection_times": "Mo-Fr 16:15; Sa 11:00", "name": "USPS COLLECTION BOX - BLUE BOX", "note": "ON 12/24 AND 12/31, THIS BOX MAY BE COLLECTED AS EARLY AS 12 NOON.", "ref": "7202000001"}, "type": "Feature"}
{"geometry": {"coordinates": [-91.4581355, 35.422773], "type": "Point"}, "id": "z0jzfhN9TP9xMEkwiL3Xk7hkMNQ=", "properties": {"@spider": "usps_collection_boxes", "addr:city": "BRADFORD", "addr:country": "US", "addr:full": "200 SW 3RD ST", "addr:postcode": "72020", "addr:state": "AR", "brand": "USPS", "collection_times": "Mo-Fr 16:15; Sa 11:00", "name": "USPS COLLECTION BOX - PO LOBBY", "note": "ON 12/24 AND 12/31, THIS BOX MAY BE COLLECTED AS EARLY AS 12 NOON.", "ref": "7202000002"}, "type": "Feature"}
{"geometry": {"coordinates": [-91.4561631, 35.427098], "type": "Point"}, "id": "dGIYQMPEnyaqKPGpqgExLSks9z4=", "properties": {"@spider": "usps_collection_boxes", "addr:city": "BRADFORD", "addr:country": "US", "addr:full": "411 DENSON ST", "addr:postcode": "72020", "addr:state": "AR", "brand": "USPS", "collection_times": "Mo-Sa 13:30", "name": "USPS COLLECTION BOX - BLUE BOX", "note": "ON 12/24 AND 12/31, THIS BOX MAY BE COLLECTED AS EARLY AS 12 NOON.", "ref": "7202000003"}, "type": "Feature"}
{"geometry": {"coordinates": [-91.4581538, 35.422778], "type": "Point"}, "id": "3-MM2K3uj3pMwWPskuNXRCMcZQE=", "properties": {"@spider": "usps_collection_boxes", "addr:city": "BRADFORD", "addr:country": "US", "addr:full": "200 SW 3RD ST", "addr:postcode": "72020", "addr:state": "AR", "brand": "USPS", "collection_times": "Mo-Fr 16:15; Sa 11:00", "name": "USPS COLLECTION BOX - PO LOBBY", "note": "ON 12/24 AND 12/31, THIS BOX MAY BE COLLECTED AS EARLY AS 12 NOON.", "ref": "7202000004"}, "type": "Feature"}
{"geometry": {"coordinates": [-91.457695442, 35.422562073], "type": "Point"}, "id": "tTSou4XtcbjEPx5evpV3prIsm4U=", "properties": {"@spider": "usps_collection_boxes", "addr:city": "BRADFORD", "addr:country": "US", "addr:full": "200 SW 3RD ST", "addr:postcode": "72020", "addr:state": "AR", "brand": "USPS", "collection_times": "Mo-Fr 16:30; Sa 11:00", "name": "USPS COLLECTION BOX - PO LOBBY", "note": "ON 12/24 AND 12/31, THIS BOX MAY BE COLLECTED AS EARLY AS 12 NOON.", "ref": "7202000005"}, "type": "Feature"}
{"geometry": {"coordinates": [-91.194768004, 34.888254001], "type": "Point"}, "id": "Wtj_hw1G8RLWUiqFMQ0DnO14oTQ=", "properties": {"@spider": "usps_collection_boxes", "addr:city": "BRINKLEY", "addr:country": "US", "addr:full": "201 N MAIN ST", "addr:postcode": "72021", "addr:state": "AR", "brand": "USPS", "collection_times": "Mo-Sa 16:30", "name": "USPS COLLECTION BOX - PO LOBBY", "note": "ON 12/24 AND 12/31, THIS BOX MAY BE COLLECTED AS EARLY AS 12 NOON.", "ref": "7202100001"}, "type": "Feature"}
{"geometry": {"coordinates": [-91.194768004, 34.888254001], "type": "Point"}, "id": "TvFk4bZ-XlZBT3ZO9tEG5BHa180=", "properties": {"@spider": "usps_collection_boxes", "addr:city": "BRINKLEY", "addr:country": "US", "addr:full": "201 N MAIN ST", "addr:postcode": "72021", "addr:state": "AR", "brand": "USPS", "collection_times": "Mo-Sa 16:30", "name": "USPS COLLECTION BOX - BLUE BOX", "note": "ON 12/24 AND 12/31, THIS BOX MAY BE COLLECTED AS EARLY AS 12 NOON.", "ref": "7202100011"}, "type": "Feature"}
{"geometry": {"coordinates": [-91.194768004, 34.888254001], "type": "Point"}, "id": "uWvcEyxLSYknEGhJ5vlPEPdg2sw=", "properties": {"@spider": "usps_collection_boxes", "addr:city": "BRINKLEY", "addr:country": "US", "addr:full": "201 N MAIN ST", "addr:postcode": "72021", "addr:state": "AR", "brand": "USPS", "collection_times": "Mo-Sa 16:30", "name": "USPS COLLECTION BOX - BLUE BOX", "note": "ON 12/24 AND 12/31, THIS BOX MAY BE COLLECTED AS EARLY AS 12 NOON.", "ref": "7202100012"}, "type": "Feature"}
{"geometry": {"coordinates": [-91.194768004, 34.888254001], "type": "Point"}, "id": "l-rHiUO-vjyliezK3QdtobERlFw=", "properties": {"@spider": "usps_collection_boxes", "addr:city": "BRINKLEY", "addr:country": "US", "addr:full": "201 N MAIN ST", "addr:postcode": "72021", "addr:state": "AR", "brand": "USPS", "collection_times": "Mo-Sa 16:30", "name": "USPS COLLECTION BOX - PO LOBBY", "note": "ON 12/24 AND 12/31, THIS BOX MAY BE COLLECTED AS EARLY AS 12 NOON.", "ref": "7202100017"}, "type": "Feature"}
{"geometry": {"coordinates": [-91.194768004, 34.888254001], "type": "Point"}, "id": "JAWsQrCTk9OPXbip-Gm7CZE9SkM=", "properties": {"@spider": "usps_collection_boxes", "addr:city": "BRINKLEY", "addr:country": "US", "addr:full": "201 N MAIN ST", "addr:postcode": "72021", "addr:state": "AR", "brand": "USPS", "collection_times": "Mo-Fr 16:30; Sa 11:30", "name": "USPS COLLECTION BOX - PO LOBBY", "note": "ON 12/24 AND 12/31, THIS BOX MAY BE COLLECTED AS EARLY AS 12 NOON.", "ref": "7202100018"}, "type": "Feature"}
{"geometry": {"coordinates": [-92.028826292, 34.977807169], "type": "Point"}, "id": "lMILKj20hK2WbOwue0cpdQIMlzY=", "properties": {"@spider": "usps_collection_boxes", "addr:city": "CABOT", "addr:country": "US", "addr:full": "1295 W MAIN ST", "addr:postcode": "72023", "addr:state": "AR", "brand": "USPS", "collection_times": "Mo-Sa 12:30", "name": "USPS COLLECTION BOX - BLUE BOX", "note": "ON 12/24 AND 12/31, THIS BOX MAY BE COLLECTED AS EARLY AS 12 NOON.", "ref": "7202300001"}, "type": "Feature"}
{"geometry": {"coordinates": [-92.061180022, 34.948040985], "type": "Point"}, "id": "pP-zAXDKnvkTJGNftXi9B_6JtXY=", "properties": {"@spider": "usps_collection_boxes", "addr:city": "CABOT", "addr:country": "US", "addr:full": "3166 HIGHWAY 367 S", "addr:postcode": "72023", "addr:state": "AR", "brand": "USPS", "collection_times": "Mo-Sa 12:00", "name": "USPS COLLECTION BOX - BLUE BOX", "ref": "7202300002"}, "type": "Feature"}
{"geometry": {"coordinates": [-92.01572953, 34.973207394], "type": "Point"}, "id": "oynOO0gorIEQKNeJx_VYtUETa9o=", "properties": {"@spider": "usps_collection_boxes", "addr:city": "CABOT", "addr:country": "US", "addr:full": "200 E MAIN ST", "addr:postcode": "72023", "addr:state": "AR", "brand": "USPS", "collection_times": "Mo-Fr 17:00; Sa 15:45", "name": "USPS COLLECTION BOX - BLUE BOX", "note": "ON 12/24 AND 12/31, THIS BOX MAY BE COLLECTED AS EARLY AS 12 NOON.", "ref": "7202300004"}, "type": "Feature"}
{"geometry": {"coordinates": [-92.01572953, 34.973207394], "type": "Point"}, "id": "-11R3jWyrlui9F-9cr26h2o6bU4=", "properties": {"@spider": "usps_collection_boxes", "addr:city": "CABOT", "addr:country": "US", "addr:full": "200 E MAIN ST", "addr:postcode": "72023", "addr:state": "AR", "brand": "USPS", "collection_times": "Mo-Fr 17:00; Sa 15:45", "name": "USPS COLLECTION BOX - PO LOBBY", "note": "ON 12/24 AND 12/31, THIS BOX MAY BE COLLECTED AS EARLY AS 12 NOON.", "ref": "7202300005"}, "type": "Feature"}
{"geometry": {"coordinates": [-92.0084576, 34.93809], "type": "Point"}, "id": "4fcSxFUyLO2k7IGzoy9vTtQt89E=", "properties": {"@spider": "usps_collection_boxes", "addr:city": "CABOT", "addr:country": "US", "addr:full": "3001 HIGHWAY 89 S", "addr:postcode": "72023", "addr:state": "AR", "brand": "USPS", "collection_times": "Mo-Sa 13:30", "name": "USPS COLLECTION BOX - BLUE BOX", "note": "ON 12/24 AND 12/31, THIS BOX MAY BE COLLECTED AS EARLY AS 12 NOON.", "ref": "7202300007"}, "type": "Feature"}
{"geometry": {"coordinates": [-92.042329038, 34.981922021], "type": "Point"}, "id": "urbp_qioMl6ATvfQnM6Bz-1sB8Q=", "properties": {"@spider": "usps_collection_boxes", "addr:city": "CABOT", "addr:country": "US", "addr:full": "2171 W MAIN ST", "addr:postcode": "72023", "addr:state": "AR", "brand": "USPS", "collection_times": "Mo-Sa 14:00", "name": "USPS COLLECTION BOX - BLUE BOX", "note": "ON 12/24 AND 12/31, THIS BOX MAY BE COLLECTED AS EARLY AS 12 NOON.", "ref": "7202300009"}, "type": "Feature"}
{"geometry": {"coordinates": [-92.071105521, 35.019055569], "type": "Point"}, "id": "0K1EeA1suregWw0FwN0RKro3_xM=", "properties": {"@spider": "usps_collection_boxes", "addr:city": "CABOT", "addr:country": "US", "addr:full": "15361 HIGHWAY 5", "addr:postcode": "72023", "addr:state": "AR", "brand": "USPS", "collection_times": "Mo-Sa 14:30", "name": "USPS COLLECTION BOX - BLUE BOX", "note": "ON 12/24 AND 12/31, THIS BOX MAY BE COLLECTED AS EARLY AS 12 NOON.", "ref": "7202300012"}, "type": "Feature"}
{"geometry": {"coordinates": [-92.01572953, 34.973207394], "type": "Point"}, "id": "r1xv8s3SrwmA5K8iXoD8N03N_Z4=", "properties": {"@spider": "usps_collection_boxes", "addr:city": "CABOT", "addr:country": "US", "addr:full": "200 E MAIN ST", "addr:postcode": "72023", "addr:state": "AR", "brand": "USPS", "collection_times": "Mo-Fr 17:00; Sa 12:00", "name": "USPS COLLECTION BOX - PO LOBBY", "note": "ON 12/24 AND 12/31, THIS BOX MAY BE COLLECTED AS EARLY AS 12 NOON.", "ref": "7202300015"}, "type": "Feature"}
{"geometry": {"coordinates": [-91.746298993, 34.783914981], "type": "Point"}, "id": "mLGcg-jTPossoOoWYepXaB4UiZw=", "properties": {"@spider": "usps_collection_boxes", "addr:city": "CARLISLE", "addr:country": "US", "addr:full": "206 N COURT ST", "addr:postcode": "72024", "addr:state": "AR", "brand": "USPS", "collection_times": "Mo-Fr 16:00; Sa 11:00", "name": "USPS COLLECTION BOX - BLUE BOX", "note": "ON 12/24 AND 12/31, THIS BOX MAY BE COLLECTED AS EARLY AS 12 NOON.", "ref": "7202400001"}, "type": "Feature"}
{"geometry": {"coordinates": [-91.746298993, 34.783914981], "type": "Point"}, "id": "KZ929rGuF5xB9oFa7NN4ihNN6Oo=", "properties": {"@spider": "usps_collection_boxes", "addr:city": "CARLISLE", "addr:country": "US", "addr:full": "206 N COURT ST", "addr:postcode": "72024", "addr:state": "AR", "brand": "USPS", "collection_times": "Mo-Fr 16:00; Sa 11:00", "name": "USPS COLLECTION BOX - PO LOBBY", "note": "ON 12/24 AND 12/31, THIS BOX MAY BE COLLECTED AS EARLY AS 12 NOON.", "ref": "7202400002"}, "type": "Feature"}
{"geometry": {"coordinates": [-91.746298993, 34.783914981], "type": "Point"}, "id": "WPG-SVSYrtToyv4s8C2TTJZcxho=", "properties": {"@spider": "usps_collection_boxes", "addr:city": "CARLISLE", "addr:country": "US", "addr:full": "206 N COURT ST", "addr:postcode": "72024", "addr:state": "AR", "brand": "USPS", "collection_times": "Mo-Fr 16:00; Sa 11:00", "name": "USPS COLLECTION BOX - PO LOBBY", "note": "ON 12/24 AND 12/31, THIS BOX MAY BE COLLECTED AS EARLY AS 12 NOON.", "ref": "7202400004"}, "type": "Feature"}
{"geometry": {"coordinates": [-91.746298993, 34.783914981], "type": "Point"}, "id": "ESDbPjlDdmJpIyGtxb9s5Qd1Em0=", "properties": {"@spider": "usps_collection_boxes", "addr:city": "CARLISLE", "addr:country": "US", "addr:full": "206 N COURT ST", "addr:postcode": "72024", "addr:state": "AR", "brand": "USPS", "collection_times": "Mo-Fr 16:00; Sa 11:00", "name": "USPS COLLECTION BOX - PO LOBBY", "note": "ON 12/24 AND 12/31, THIS BOX MAY BE COLLECTED AS EARLY AS 12 NOON.", "ref": "7202400005"}, "type": "Feature"}
{"geometry": {"coordinates": [-93.0488300255, 35.0228864977], "type": "Point"}, "id": "b8nhEwWCYP3__MCDlmiVugiJ540=", "properties": {"@spider": "usps_collection_boxes", "addr:city": "CASA", "addr:country": "US", "addr:full": "3684 HIGHWAY 10 3RD ST", "addr:postcode": "72025", "addr:state": "AR", "brand": "USPS", "collection_times": "Mo-Fr 11:00; Sa 10:00", "name": "USPS COLLECTION BOX - BLUE BOX", "ref": "7202500001"}, "type": "Feature"}
{"geometry": {"coordinates": [-93.0488300255, 35.0228864977], "type": "Point"}, "id": "TeTujXjshxTZaETlchQcDIZeWug=", "properties": {"@spider": "usps_collection_boxes", "addr:city": "CASA", "addr:country": "US", "addr:full": "3684 HIGHWAY 10 3RD ST", "addr:postcode": "72025", "addr:state": "AR", "brand": "USPS", "collection_times": "Mo-Fr 11:00; Sa 10:00", "name": "USPS COLLECTION BOX - PO LOBBY", "ref": "7202500002"}, "type": "Feature"}
{"geometry": {"coordinates": [-93.0488300255, 35.0228864977], "type": "Point"}, "id": "3pOvIHtWulqelQpAD1k_6zOlzMY=", "properties": {"@spider": "usps_collection_boxes", "addr:city": "CASA", "addr:country": "US", "addr:full": "3684 HIGHWAY 10 3RD ST", "addr:postcode": "72025", "addr:state": "AR", "brand": "USPS", "collection_times": "Mo-Fr 11:30; Sa 10:00", "name": "USPS COLLECTION BOX - PO LOBBY", "ref": "7202500005"}, "type": "Feature"}
{"geometry": {"coordinates": [-91.325928, 34.525359], "type": "Point"}, "id": "lqRHHYrNenV64SBxF2dJ0ZgPZP0=", "properties": {"@spider": "usps_collection_boxes", "addr:city": "CASSCOE", "addr:country": "US", "addr:full": "1040 HIGHWAY 33", "addr:postcode": "72026", "addr:state": "AR", "brand": "USPS", "collection_times": "Mo-Fr 13:45; Sa 11:45", "name": "USPS COLLECTION BOX - PO LOBBY", "note": "ON 12/24 AND 12/31, THIS BOX MAY BE COLLECTED AS EARLY AS 12 NOON.", "ref": "7202600001"}, "type": "Feature"}
{"geometry": {"coordinates": [-91.325928617, 34.525377388], "type": "Point"}, "id": "Nys12R1QNNUXqb0LJcNTNQ2ox64=", "properties": {"@spider": "usps_collection_boxes", "addr:city": "CASSCOE", "addr:country": "US", "addr:full": "1040 HIGHWAY 33", "addr:postcode": "72026", "addr:state": "AR", "brand": "USPS", "collection_times": "Mo-Fr 13:30; Sa 11:30", "name": "USPS COLLECTION BOX - PO LOBBY", "note": "ON 12/24 AND 12/31, THIS BOX MAY BE COLLECTED AS EARLY AS 12 NOON.", "ref": "7202600002"}, "type": "Feature"}
{"geometry": {"coordinates": [-92.5633284, 35.372926], "type": "Point"}, "id": "cmL5RamqltEen_E_IEHnT31dFPY=", "properties": {"@spider": "usps_collection_boxes", "addr:city": "CENTER RIDGE", "addr:country": "US", "addr:full": "5744 HIGHWAY 9", "addr:postcode": "72027", "addr:state": "AR", "brand": "USPS", "collection_times": "Mo-Fr 11:30; Sa 10:30", "name": "USPS COLLECTION BOX - BLUE BOX", "ref": "7202700001"}, "type": "Feature"}
{"geometry": {"coordinates": [-92.563631, 35.372926], "type": "Point"}, "id": "stBHtIeiK2QQi5Dz4vU8WoCD41M=", "properties": {"@spider": "usps_collection_boxes", "addr:city": "CENTER RIDGE", "addr:country": "US", "addr:full": "5744 HIGHWAY 9", "addr:postcode": "72027", "addr:state": "AR", "brand": "USPS", "collection_times": "Mo-Fr 11:30; Sa 10:30", "name": "USPS COLLECTION BOX - PO LOBBY", "ref": "7202700002"}, "type": "Feature"}
{"geometry": {"coordinates": [-92.563631, 35.372926], "type": "Point"}, "id": "MfZjPK7euyg9p7ypIbLggesAsBI=", "properties": {"@spider": "usps_collection_boxes", "addr:city": "CENTER RIDGE", "addr:country": "US", "addr:full": "5744 HIGHWAY 9", "addr:postcode": "72027", "addr:state": "AR", "brand": "USPS", "collection_times": "Mo-Fr 11:30; Sa 10:30", "name": "USPS COLLECTION BOX - PO LOBBY", "ref": "7202700003"}, "type": "Feature"}
{"geometry": {"coordinates": [-92.563603223, 35.372957951], "type": "Point"}, "id": "1HSwDNCZtT5odXpGjVF-_Qo284M=", "properties": {"@spider": "usps_collection_boxes", "addr:city": "CENTER RIDGE", "addr:country": "US", "addr:full": "5744 HIGHWAY 9", "addr:postcode": "72027", "addr:state": "AR", "brand": "USPS", "collection_times": "Mo-Fr 11:30; Sa 10:15", "name": "USPS COLLECTION BOX - PO LOBBY", "ref": "7202700005"}, "type": "Feature"}
{"geometry": {"coordinates": [-92.4441887852, 35.4945889073], "type": "Point"}, "id": "PFMwT0yC8YixdBcKfdDW6YSx2X4=", "properties": {"@spider": "usps_collection_boxes", "addr:city": "CHOCTAW", "addr:country": "US", "addr:full": "173 HIGHWAY 330 E", "addr:postcode": "72028", "addr:state": "AR", "brand": "USPS", "collection_times": "Mo-Fr 11:30; Sa 09:45", "name": "USPS COLLECTION BOX - PO LOBBY", "ref": "7202800001"}, "type": "Feature"}
{"geometry": {"coordinates": [-92.4441887852, 35.4945889073], "type": "Point"}, "id": "44zWiiFZcg4lFv77W040j8jZ2-w=", "properties": {"@spider": "usps_collection_boxes", "addr:city": "CHOCTAW", "addr:country": "US", "addr:full": "173 HIGHWAY 330 E", "addr:postcode": "72028", "addr:state": "AR", "brand": "USPS", "collection_times": "Mo-Fr 11:30; Sa 09:45", "name": "USPS COLLECTION BOX - BLUE BOX", "ref": "7202800002"}, "type": "Feature"}
{"geometry": {"coordinates": [-92.439972671, 35.527672486], "type": "Point"}, "id": "f1XiA51yVkAGnBXEw2VCC9vIuPw=", "properties": {"@spider": "usps_collection_boxes", "addr:city": "CHOCTAW", "addr:country": "US", "addr:full": "173 HIGHWAY 330 E", "addr:postcode": "72028", "addr:state": "AR", "brand": "USPS", "collection_times": "Mo-Fr 12:00; Sa 10:00", "name": "USPS COLLECTION BOX - PO LOBBY", "ref": "7202800003"}, "type": "Feature"}
{"geometry": {"coordinates": [-91.311302023, 34.692515021], "type": "Point"}, "id": "KG8RhLzSvsF2Lgh9Xy5RYG9c8oI=", "properties": {"@spider": "usps_collection_boxes", "addr:city": "CLARENDON", "addr:country": "US", "addr:full": "303 MADISON ST", "addr:postcode": "72029", "addr:state": "AR", "brand": "USPS", "collection_times": "Mo-Fr 16:15; Sa 10:30", "name": "USPS COLLECTION BOX - BLUE BOX", "note": "ON 12/24 AND 12/31, THIS BOX MAY BE COLLECTED AS EARLY AS 12 NOON.", "ref": "7202900001"}, "type": "Feature"}
{"geometry": {"coordinates": [-91.311302023, 34.692515021], "type": "Point"}, "id": "_z0DXS8MvDqcXgGdjg2NpgVeuck=", "properties": {"@spider": "usps_collection_boxes", "addr:city": "CLARENDON", "addr:country": "US", "addr:full": "303 MADISON ST", "addr:postcode": "72029", "addr:state": "AR", "brand": "USPS", "collection_times": "Mo-Fr 16:15; Sa 10:30", "name": "USPS COLLECTION BOX - PO LOBBY", "note": "ON 12/24 AND 12/31, THIS BOX MAY BE COLLECTED AS EARLY AS 12 NOON.", "ref": "7202900005"}, "type": "Feature"}
{"geometry": {"coordinates": [-91.311302023, 34.692515021], "type": "Point"}, "id": "m8yxlfbgd5se4qJDxnN39gVta_8=", "properties": {"@spider": "usps_collection_boxes", "addr:city": "CLARENDON", "addr:country": "US", "addr:full": "303 MADISON ST", "addr:postcode": "72029", "addr:state": "AR", "brand": "USPS", "collection_times": "Mo-Fr 16:15; Sa 10:30", "name": "USPS COLLECTION BOX - PO LOBBY", "note": "ON 12/24 AND 12/31, THIS BOX MAY BE COLLECTED AS EARLY AS 12 NOON.", "ref": "7202900006"}, "type": "Feature"}
{"geometry": {"coordinates": [-91.311302023, 34.692515021], "type": "Point"}, "id": "7i_kPU9Uh6UVqWzqAyqYM1AG8Vg=", "properties": {"@spider": "usps_collection_boxes", "addr:city": "CLARENDON", "addr:country": "US", "addr:full": "303 MADISON ST", "addr:postcode": "72029", "addr:state": "AR", "brand": "USPS", "collection_times": "Mo-Fr 16:30; Sa 10:30", "name": "USPS COLLECTION BOX - PO LOBBY", "note": "ON 12/24 AND 12/31, THIS BOX MAY BE COLLECTED AS EARLY AS 12 NOON.", "ref": "7202900007"}, "type": "Feature"}
{"geometry": {"coordinates": [-92.709529, 35.420794], "type": "Point"}, "id": "pqwuXHrKCOouhluSNPYW4d0hyto=", "properties": {"@spider": "usps_collection_boxes", "addr:city": "CLEVELAND", "addr:country": "US", "addr:full": "3954 HIGHWAY 95", "addr:postcode": "72030", "addr:state": "AR", "brand": "USPS", "collection_times": "Mo-Fr 11:00; Sa 10:15", "name": "USPS COLLECTION BOX - BLUE BOX", "ref": "7203000001"}, "type": "Feature"}
{"geometry": {"coordinates": [-92.709529, 35.420794], "type": "Point"}, "id": "a5MrNp5PnXpq7xGcQh0NImXdpp8=", "properties": {"@spider": "usps_collection_boxes", "addr:city": "CLEVELAND", "addr:country": "US", "addr:full": "3954 HIGHWAY 95", "addr:postcode": "72030", "addr:state": "AR", "brand": "USPS", "collection_times": "Mo-Fr 11:00; Sa 10:15", "name": "USPS COLLECTION BOX - PO LOBBY", "ref": "7203000002"}, "type": "Feature"}
{"geometry": {"coordinates": [-92.709529, 35.420794], "type": "Point"}, "id": "QVsGltfivvZZMAiZ1BUAe2Bu4Kw=", "properties": {"@spider": "usps_collection_boxes", "addr:city": "CLEVELAND", "addr:country": "US", "addr:full": "3954 HIGHWAY 95", "addr:postcode": "72030", "addr:state": "AR", "brand": "USPS", "collection_times": "Mo-Fr 11:00; Sa 10:15", "name": "USPS COLLECTION BOX - PO LOBBY", "ref": "7203000003"}, "type": "Feature"}
{"geometry": {"coordinates": [-92.709511358, 35.420770425], "type": "Point"}, "id": "Nr0YB97QAMYgFuYiOV9c0la_yT4=", "properties": {"@spider": "usps_collection_boxes", "addr:city": "CLEVELAND", "addr:country": "US", "addr:full": "3954 HIGHWAY 95", "addr:postcode": "72030", "addr:state": "AR", "brand": "USPS", "collection_times": "Mo-Fr 11:30; Sa 10:00", "name": "USPS COLLECTION BOX - PO LOBBY", "ref": "7203000004"}, "type": "Feature"}
{"geometry": {"coordinates": [-92.452492, 35.565503], "type": "Point"}, "id": "HFoWJDCyJZDQQu0o-xbcUKM6Ei0=", "properties": {"@spider": "usps_collection_boxes", "addr:city": "CLINTON", "addr:country": "US", "addr:full": "145 VOLUNTEER PKWY", "addr:postcode": "72031", "addr:state": "AR", "brand": "USPS", "collection_times": "Mo-Fr 16:30; Sa 12:00", "name": "USPS COLLECTION BOX - BLUE BOX", "note": "ON 12/24 AND 12/31, THIS BOX MAY BE COLLECTED AS EARLY AS 12 NOON.", "ref": "7203100014"}, "type": "Feature"}
{"geometry": {"coordinates": [-92.452492, 35.565503], "type": "Point"}, "id": "Nq038DC1XgBKx-af7HYulljc8Uw=", "properties": {"@spider": "usps_collection_boxes", "addr:city": "CLINTON", "addr:country": "US", "addr:full": "145 VOLUNTEER PKWY", "addr:postcode": "72031", "addr:state": "AR", "brand": "USPS", "collection_times": "Mo-Fr 16:30; Sa 12:00", "name": "USPS COLLECTION BOX - PO LOBBY", "note": "ON 12/24 AND 12/31, THIS BOX MAY BE COLLECTED AS EARLY AS 12 NOON.", "ref": "7203100016"}, "type": "Feature"}
{"geometry": {"coordinates": [-92.4608572, 35.596794], "type": "Point"}, "id": "2tV8_HvqdUuzhvBs1x3WLsI1uT0=", "properties": {"@spider": "usps_collection_boxes", "addr:city": "CLINTON", "addr:country": "US", "addr:full": "131 BONE ST", "addr:postcode": "72031", "addr:state": "AR", "brand": "USPS", "collection_times": "Mo-Fr 15:30", "name": "USPS COLLECTION BOX - BLUE BOX", "note": "ON 12/24 AND 12/31, THIS BOX MAY BE COLLECTED AS EARLY AS 12 NOON.", "ref": "7203100017"}, "type": "Feature"}
{"geometry": {"coordinates": [-92.4572959, 35.593005], "type": "Point"}, "id": "g-trwicUmDZ8QT2Wr_uPlBwkfQI=", "properties": {"@spider": "usps_collection_boxes", "addr:city": "CLINTON", "addr:country": "US", "addr:full": "275 MAIN ST", "addr:postcode": "72031", "addr:state": "AR", "brand": "USPS", "collection_times": "Mo-Fr 15:30", "name": "USPS COLLECTION BOX - BLUE BOX", "note": "ON 12/24 AND 12/31, THIS BOX MAY BE COLLECTED AS EARLY AS 12 NOON.", "ref": "7203100018"}, "type": "Feature"}
{"geometry": {"coordinates": [-92.452492, 35.565503], "type": "Point"}, "id": "RkiRgGZ57M_JOH0BDg_vHuf98cs=", "properties": {"@spider": "usps_collection_boxes", "addr:city": "CLINTON", "addr:country": "US", "addr:full": "145 VOLUNTEER PKWY", "addr:postcode": "72031", "addr:state": "AR", "brand": "USPS", "collection_times": "Mo-Fr 16:30; Sa 12:00", "name": "USPS COLLECTION BOX - PO LOBBY", "note": "ON 12/24 AND 12/31, THIS BOX MAY BE COLLECTED AS EARLY AS 12 NOON.", "ref": "7203100019"}, "type": "Feature"}
{"geometry": {"coordinates": [-92.452413693, 35.565499543], "type": "Point"}, "id": "i-ZihM9PAAzWDwc50PAkScVJ27E=", "properties": {"@spider": "usps_collection_boxes", "addr:city": "CLINTON", "addr:country": "US", "addr:full": "145 VOLUNTEER PKWY", "addr:postcode": "72031", "addr:state": "AR", "brand": "USPS", "collection_times": "Mo-Fr 16:00; Sa 12:00", "name": "USPS COLLECTION BOX - PO LOBBY", "note": "ON 12/24 AND 12/31, THIS BOX MAY BE COLLECTED AS EARLY AS 12 NOON.", "ref": "7203100024"}, "type": "Feature"}
{"geometry": {"coordinates": [-92.4398060108, 35.0892349822], "type": "Point"}, "id": "M74xbfTmdUQnHSaXMlg73iIkBLo=", "properties": {"@spider": "usps_collection_boxes", "addr:city": "CONWAY", "addr:country": "US", "addr:full": "1111 MAIN ST", "addr:postcode": "72032", "addr:state": "AR", "brand": "USPS", "collection_times": "Mo-Fr 17:00; Sa 12:00", "name": "USPS COLLECTION BOX - PO LOBBY", "note": "ON 12/24 AND 12/31, THIS BOX MAY BE COLLECTED AS EARLY AS 12 NOON.", "ref": "7203200001"}, "type": "Feature"}
{"geometry": {"coordinates": [-92.4396723693, 35.0883090669], "type": "Point"}, "id": "8PnuQPmRneiSrwyw-B7YtlYI-E0=", "properties": {"@spider": "usps_collection_boxes", "addr:city": "CONWAY", "addr:country": "US", "addr:full": "700 FRONT ST", "addr:postcode": "72032", "addr:state": "AR", "brand": "USPS", "collection_times": "Mo-Fr 17:00; Sa 12:00", "name": "USPS COLLECTION BOX - BLUE BOX", "note": "ON 12/24 AND 12/31, THIS BOX MAY BE COLLECTED AS EARLY AS 12 NOON.", "ref": "7203200006"}, "type": "Feature"}
{"geometry": {"coordinates": [-92.429621759, 35.11241991], "type": "Point"}, "id": "crtZtOc9nySA04QpcMttVhfLseo=", "properties": {"@spider": "usps_collection_boxes", "addr:city": "CONWAY", "addr:country": "US", "addr:full": "201 SKYLINE DR", "addr:postcode": "72032", "addr:state": "AR", "brand": "USPS", "collection_times": "Mo-Sa 14:00", "name": "USPS COLLECTION BOX - BLUE BOX", "note": "ON 12/24 AND 12/31, THIS BOX MAY BE COLLECTED AS EARLY AS 12 NOON.", "ref": "7203200018"}, "type": "Feature"}
{"geometry": {"coordinates": [-92.420160003, 35.069174992], "type": "Point"}, "id": "ubX-qkJasy4iE6GLiq1mOEAHXLc=", "properties": {"@spider": "usps_collection_boxes", "addr:city": "CONWAY", "addr:country": "US", "addr:full": "700 EXCHANGE AVE", "addr:postcode": "72032", "addr:state": "AR", "brand": "USPS", "collection_times": "Mo-Fr 10:45; Sa 09:00", "name": "USPS COLLECTION BOX - BLUE BOX", "ref": "7203200019"}, "type": "Feature"}
{"geometry": {"coordinates": [-92.428419028, 35.090379992], "type": "Point"}, "id": "AAHN400oE_HeY9Sk8YJ1lUSYsPA=", "properties": {"@spider": "usps_collection_boxes", "addr:city": "CONWAY", "addr:country": "US", "addr:full": "101 OAK ST", "addr:postcode": "72032", "addr:state": "AR", "brand": "USPS", "collection_times": "Mo-Sa 12:30", "name": "USPS COLLECTION BOX - BLUE BOX", "note": "ON 12/24 AND 12/31, THIS BOX MAY BE COLLECTED AS EARLY AS 12 NOON.", "ref": "7203200029"}, "type": "Feature"}
{"geometry": {"coordinates": [-92.4398060108, 35.0892349822], "type": "Point"}, "id": "GnI4TMTGhb2YU3maagRswAm2J3A=", "properties": {"@spider": "usps_collection_boxes", "addr:city": "CONWAY", "addr:country": "US", "addr:full": "1111 MAIN ST STE 107", "addr:postcode": "72032", "addr:state": "AR", "brand": "USPS", "collection_times": "Mo-Fr 17:00; Sa 12:00", "name": "USPS COLLECTION BOX - PO LOBBY", "note": "ON 12/24 AND 12/31, THIS BOX MAY BE COLLECTED AS EARLY AS 12 NOON.", "ref": "7203200041"}, "type": "Feature"}
{"geometry": {"coordinates": [-92.49774, 35.094394], "type": "Point"}, "id": "D35J4cRnjukTVg9ztIqbULUrlD4=", "properties": {"@spider": "usps_collection_boxes", "addr:city": "CONWAY", "addr:country": "US", "addr:full": "1060 HOGAN LN", "addr:postcode": "72034", "addr:state": "AR", "brand": "USPS", "collection_times": "Mo-Fr 17:00; Sa 16:30", "name": "USPS COLLECTION BOX - PO LOBBY", "note": "ON 12/24 AND 12/31, THIS BOX MAY BE COLLECTED AS EARLY AS 12 NOON.", "ref": "7203400000"}, "type": "Feature"}
{"geometry": {"coordinates": [-92.497774, 35.094342], "type": "Point"}, "id": "aX4gf_j-CfGtNZddQHnRp1_6RjQ=", "properties": {"@spider": "usps_collection_boxes", "addr:city": "CONWAY", "addr:country": "US", "addr:full": "1060 HOGAN LN", "addr:postcode": "72034", "addr:state": "AR", "brand": "USPS", "collection_times": "Mo-Fr 17:00; Sa 16:30", "name": "USPS COLLECTION BOX - PO LOBBY", "note": "ON 12/24 AND 12/31, THIS BOX MAY BE COLLECTED AS EARLY AS 12 NOON.", "ref": "7203400001"}, "type": "Feature"}
{"geometry": {"coordinates": [-92.497774, 35.094342], "type": "Point"}, "id": "U1BKJ4r-X3Gg56UB7Ysy0zQqcDY=", "properties": {"@spider": "usps_collection_boxes", "addr:city": "CONWAY", "addr:country": "US", "addr:full": "1060 HOGAN LN", "addr:postcode": "72034", "addr:state": "AR", "brand": "USPS", "collection_times": "Mo-Fr 17:00; Sa 16:30", "name": "USPS COLLECTION BOX - PO LOBBY", "note": "ON 12/24 AND 12/31, THIS BOX MAY BE COLLECTED AS EARLY AS 12 NOON.", "ref": "7203400002"}, "type": "Feature"}
{"geometry": {"coordinates": [-92.497774, 35.094342], "type": "Point"}, "id": "CNtqTD0VDqNJAPnY0Ekjx7D9xmU=", "properties": {"@spider": "usps_collection_boxes", "addr:city": "CONWAY", "addr:country": "US", "addr:full": "1060 HOGAN LN", "addr:postcode": "72034", "addr:state": "AR", "brand": "USPS", "collection_times": "Mo-Fr 17:00; Sa 16:30", "name": "USPS COLLECTION BOX - PO LOBBY", "note": "ON 12/24 AND 12/31, THIS BOX MAY BE COLLECTED AS EARLY AS 12 NOON.", "ref": "7203400003"}, "type": "Feature"}
{"geometry": {"coordinates": [-92.497774, 35.094342], "type": "Point"}, "id": "mNtP2ulgTlqXryrnqPe9XMBtTfg=", "properties": {"@spider": "usps_collection_boxes", "addr:city": "CONWAY", "addr:country": "US", "addr:full": "1060 HOGAN LN", "addr:postcode": "72034", "addr:state": "AR", "brand": "USPS", "collection_times": "Mo-Fr 17:00; Sa 16:30", "name": "USPS COLLECTION BOX - BLUE BOX", "note": "ON 12/24 AND 12/31, THIS BOX MAY BE COLLECTED AS EARLY AS 12 NOON.", "ref": "7203400004"}, "type": "Feature"}
{"geometry": {"coordinates": [-92.496600026, 35.094518012], "type": "Point"}, "id": "_8oS3DBgqpFtXAV2OfNCuEhl7oU=", "properties": {"@spider": "usps_collection_boxes", "addr:city": "CONWAY", "addr:country": "US", "addr:full": "1060 HOGAN", "addr:postcode": "72034", "addr:state": "AR", "brand": "USPS", "collection_times": "Mo-Fr 17:00; Sa 16:30", "name": "USPS COLLECTION BOX - BLUE BOX", "note": "ON 12/24 AND 12/31, THIS BOX MAY BE COLLECTED AS EARLY AS 12 NOON.", "ref": "7203400010"}, "type": "Feature"}
{"geometry": {"coordinates": [-92.471881962, 35.091169986], "type": "Point"}, "id": "5UJ9eBC2bvBy7Z9ggTn5rGy17cg=", "properties": {"@spider": "usps_collection_boxes", "addr:city": "CONWAY", "addr:country": "US", "addr:full": "945 SALEM RD", "addr:postcode": "72034", "addr:state": "AR", "brand": "USPS", "collection_times": "Mo-Fr 14:00; Sa 09:45", "name": "USPS COLLECTION BOX - BLUE BOX", "note": "ON 12/24 AND 12/31, THIS BOX MAY BE COLLECTED AS EARLY AS 12 NOON.", "ref": "7203400019"}, "type": "Feature"}
{"geometry": {"coordinates": [-92.497740462, 35.094436187], "type": "Point"}, "id": "mDQ81a8BhpnQKYtTARJcTTEPz1k=", "properties": {"@spider": "usps_collection_boxes", "addr:city": "CONWAY", "addr:country": "US", "addr:full": "1060 HOGAN LN", "addr:postcode": "72034", "addr:state": "AR", "brand": "USPS", "collection_times": "Mo-Fr 16:30; Sa 12:00", "name": "USPS COLLECTION BOX - PO LOBBY", "note": "ON 12/24 AND 12/31, THIS BOX MAY BE COLLECTED AS EARLY AS 12 NOON.", "ref": "7203400024"}, "type": "Feature"}
{"geometry": {"coordinates": [-91.252821, 35.004612], "type": "Point"}, "id": "mwYMkT4yghK_ncc8ZDeHU7qKCFs=", "properties": {"@spider": "usps_collection_boxes", "addr:city": "COTTON PLANT", "addr:country": "US", "addr:full": "279 W MAIN ST", "addr:postcode": "72036", "addr:state": "AR", "brand": "USPS", "collection_times": "Mo-Sa 11:30", "name": "USPS COLLECTION BOX - BLUE BOX", "ref": "7203600001"}, "type": "Feature"}
{"geometry": {"coordinates": [-91.252821, 35.004612], "type": "Point"}, "id": "8HLYg03nZB63uWR8yRvD43-eixc=", "properties": {"@spider": "usps_collection_boxes", "addr:city": "COTTON PLANT", "addr:country": "US", "addr:full": "279 W MAIN ST", "addr:postcode": "72036", "addr:state": "AR", "brand": "USPS", "collection_times": "Mo-Sa 11:30", "name": "USPS COLLECTION BOX - PO LOBBY", "ref": "7203600005"}, "type": "Feature"}
{"geometry": {"coordinates": [-91.252794222, 35.004606499], "type": "Point"}, "id": "uokXhG3kK62X3S7FQWjRilGiGok=", "properties": {"@spider": "usps_collection_boxes", "addr:city": "COTTON PLANT", "addr:country": "US", "addr:full": "279 W MAIN ST", "addr:postcode": "72036", "addr:state": "AR", "brand": "USPS", "collection_times": "Mo-Fr 12:00; Sa 11:45", "name": "USPS COLLECTION BOX - PO LOBBY", "ref": "7203600009"}, "type": "Feature"}
{"geometry": {"coordinates": [-92.407921, 35.368009], "type": "Point"}, "id": "t4EQNLN_fFLbsABeSMBvfUhmC-w=", "properties": {"@spider": "usps_collection_boxes", "addr:city": "DAMASCUS", "addr:country": "US", "addr:full": "17465 HIGHWAY 65 S", "addr:postcode": "72039", "addr:state": "AR", "brand": "USPS", "collection_times": "Mo-Fr 13:30; Sa 09:45", "name": "USPS COLLECTION BOX - BLUE BOX", "note": "ON 12/24 AND 12/31, THIS BOX MAY BE COLLECTED AS EARLY AS 12 NOON.", "ref": "7203900001"}, "type": "Feature"}
{"geometry": {"coordinates": [-92.407921, 35.368009], "type": "Point"}, "id": "RLXyekq2pSa3_Ohr0-Y3cXk7XiU=", "properties": {"@spider": "usps_collection_boxes", "addr:city": "DAMASCUS", "addr:country": "US", "addr:full": "17465 HIGHWAY 65 S", "addr:postcode": "72039", "addr:state": "AR", "brand": "USPS", "collection_times": "Mo-Fr 13:30; Sa 09:45", "name": "USPS COLLECTION BOX - PO LOBBY", "note": "ON 12/24 AND 12/31, THIS BOX MAY BE COLLECTED AS EARLY AS 12 NOON.", "ref": "7203900002"}, "type": "Feature"}
{"geometry": {"coordinates": [-92.407921, 35.368009], "type": "Point"}, "id": "y7DEgoIyaJIeZZ0nVTQuQZ6L1LU=", "properties": {"@spider": "usps_collection_boxes", "addr:city": "DAMASCUS", "addr:country": "US", "addr:full": "17465 HIGHWAY 65 S", "addr:postcode": "72039", "addr:state": "AR", "brand": "USPS", "collection_times": "Mo-Fr 13:30; Sa 09:45", "name": "USPS COLLECTION BOX - PO LOBBY", "note": "ON 12/24 AND 12/31, THIS BOX MAY BE COLLECTED AS EARLY AS 12 NOON.", "ref": "7203900003"}, "type": "Feature"}
{"geometry": {"coordinates": [-92.407973036, 35.367957148], "type": "Point"}, "id": "RFkJov59b3BlBGBOzru4LeV0F7k=", "properties": {"@spider": "usps_collection_boxes", "addr:city": "DAMASCUS", "addr:country": "US", "addr:full": "17465 HIGHWAY 65 S", "addr:postcode": "72039", "addr:state": "AR", "brand": "USPS", "collection_times": "Mo-Fr 14:00; Sa 09:30", "name": "USPS COLLECTION BOX - PO LOBBY", "note": "ON 12/24 AND 12/31, THIS BOX MAY BE COLLECTED AS EARLY AS 12 NOON.", "ref": "7203900006"}, "type": "Feature"}
{"geometry": {"coordinates": [-91.496368, 34.97612], "type": "Point"}, "id": "JGUp64EHrepwsuyzA4AxSjrq7PY=", "properties": {"@spider": "usps_collection_boxes", "addr:city": "DES ARC", "addr:country": "US", "addr:full": "109 S 4TH ST", "addr:postcode": "72040", "addr:state": "AR", "brand": "USPS", "collection_times": "Mo-Fr 16:00; Sa 12:00", "name": "USPS COLLECTION BOX - BLUE BOX", "note": "ON 12/24 AND 12/31, THIS BOX MAY BE COLLECTED AS EARLY AS 12 NOON.", "ref": "7204000001"}, "type": "Feature"}
{"geometry": {"coordinates": [-91.496368, 34.97612], "type": "Point"}, "id": "ticEL4MEtjLUF-2lhMwEZKTehMI=", "properties": {"@spider": "usps_collection_boxes", "addr:city": "DES ARC", "addr:country": "US", "addr:full": "109 S 4TH ST", "addr:postcode": "72040", "addr:state": "AR", "brand": "USPS", "collection_times": "Mo-Fr 16:00; Sa 12:00", "name": "USPS COLLECTION BOX - PO LOBBY", "note": "ON 12/24 AND 12/31, THIS BOX MAY BE COLLECTED AS EARLY AS 12 NOON.", "ref": "7204000002"}, "type": "Feature"}
{"geometry": {"coordinates": [-91.49636995, 34.976115335], "type": "Point"}, "id": "jVB_ca4g-XcSaDkGzACtWpbWiA4=", "properties": {"@spider": "usps_collection_boxes", "addr:city": "DES ARC", "addr:country": "US", "addr:full": "109 S 4TH ST", "addr:postcode": "72040", "addr:state": "AR", "brand": "USPS", "collection_times": "Mo-Fr 16:30; Sa 12:00", "name": "USPS COLLECTION BOX - PO LOBBY", "note": "ON 12/24 AND 12/31, THIS BOX MAY BE COLLECTED AS EARLY AS 12 NOON.", "ref": "7204000003"}, "type": "Feature"}
{"geometry": {"coordinates": [-91.464938, 34.780721], "type": "Point"}, "id": "xpUyYrXYOdJXSugwQ0dg-yx-UKM=", "properties": {"@spider": "usps_collection_boxes", "addr:city": "DE VALLS BLUFF", "addr:country": "US", "addr:full": "1 NEWT PARK DR", "addr:postcode": "72041", "addr:state": "AR", "brand": "USPS", "collection_times": "Mo-Fr 15:00; Sa 11:00", "name": "USPS COLLECTION BOX - PO LOBBY", "note": "ON 12/24 AND 12/31, THIS BOX MAY BE COLLECTED AS EARLY AS 12 NOON.", "ref": "7204100003"}, "type": "Feature"}
{"geometry": {"coordinates": [-91.464938, 34.780721], "type": "Point"}, "id": "g-_xHjl25wfAlJyAM__SacWy7wM=", "properties": {"@spider": "usps_collection_boxes", "addr:city": "DE VALLS BLUFF", "addr:country": "US", "addr:full": "1 NEWT PARK DR", "addr:postcode": "72041", "addr:state": "AR", "brand": "USPS", "collection_times": "Mo-Fr 15:00; Sa 11:00", "name": "USPS COLLECTION BOX - PO LOBBY", "note": "ON 12/24 AND 12/31, THIS BOX MAY BE COLLECTED AS EARLY AS 12 NOON.", "ref": "7204100004"}, "type": "Feature"}
{"geometry": {"coordinates": [-91.464938, 34.780721], "type": "Point"}, "id": "2U64Tkj4iWOsHkqxRH3q_OCaz3M=", "properties": {"@spider": "usps_collection_boxes", "addr:city": "DE VALLS BLUFF", "addr:country": "US", "addr:full": "1 NEWT PARK DR", "addr:postcode": "72041", "addr:state": "AR", "brand": "USPS", "collection_times": "Mo-Fr 15:00; Sa 11:00", "name": "USPS COLLECTION BOX - BLUE BOX", "note": "ON 12/24 AND 12/31, THIS BOX MAY BE COLLECTED AS EARLY AS 12 NOON.", "ref": "7204100005"}, "type": "Feature"}
{"geometry": {"coordinates": [-91.464940541, 34.78071578], "type": "Point"}, "id": "7zwWMES1ysnv6xscixxZRpWQUzM=", "properties": {"@spider": "usps_collection_boxes", "addr:city": "DE VALLS BLUFF", "addr:country": "US", "addr:full": "1 NEWT PARK DR", "addr:postcode": "72041", "addr:state": "AR", "brand": "USPS", "collection_times": "Mo-Fr 15:00; Sa 11:00", "name": "USPS COLLECTION BOX - PO LOBBY", "note": "ON 12/24 AND 12/31, THIS BOX MAY BE COLLECTED AS EARLY AS 12 NOON.", "ref": "7204100007"}, "type": "Feature"}
{"geometry": {"coordinates": [-91.33723999, 34.294960012], "type": "Point"}, "id": "fNYhSGgmRJHeItS1jn9sLtG3mbU=", "properties": {"@spider": "usps_collection_boxes", "addr:city": "DE WITT", "addr:country": "US", "addr:full": "221 W CROSS ST", "addr:postcode": "72042", "addr:state": "AR", "brand": "USPS", "collection_times": "Mo-Sa 16:45", "name": "USPS COLLECTION BOX - PO LOBBY", "note": "ON 12/24 AND 12/31, THIS BOX MAY BE COLLECTED AS EARLY AS 12 NOON.", "ref": "7204200021"}, "type": "Feature"}
{"geometry": {"coordinates": [-91.33723999, 34.294960012], "type": "Point"}, "id": "_yw25Te7HGpq925BsDudVFwrH9E=", "properties": {"@spider": "usps_collection_boxes", "addr:city": "DE WITT", "addr:country": "US", "addr:full": "221 W CROSS ST", "addr:postcode": "72042", "addr:state": "AR", "brand": "USPS", "collection_times": "Mo-Sa 16:45", "name": "USPS COLLECTION BOX - BLUE BOX", "note": "ON 12/24 AND 12/31, THIS BOX MAY BE COLLECTED AS EARLY AS 12 NOON.", "ref": "7204200022"}, "type": "Feature"}
{"geometry": {"coordinates": [-91.33723999, 34.294960012], "type": "Point"}, "id": "lG6D_e_N7mNT6nSdhcMBi-XoCOw=", "properties": {"@spider": "usps_collection_boxes", "addr:city": "DE WITT", "addr:country": "US", "addr:full": "221 W CROSS ST", "addr:postcode": "72042", "addr:state": "AR", "brand": "USPS", "collection_times": "Mo-Sa 16:45", "name": "USPS COLLECTION BOX - PO LOBBY", "note": "ON 12/24 AND 12/31, THIS BOX MAY BE COLLECTED AS EARLY AS 12 NOON.", "ref": "7204200023"}, "type": "Feature"}
{"geometry": {"coordinates": [-91.33723999, 34.294960012], "type": "Point"}, "id": "Hq_BPULnJFkK1lNOuBiceK8zeBQ=", "properties": {"@spider": "usps_collection_boxes", "addr:city": "DE WITT", "addr:country": "US", "addr:full": "221 W CROSS ST", "addr:postcode": "72042", "addr:state": "AR", "brand": "USPS", "collection_times": "Mo-Sa 16:45", "name": "USPS COLLECTION BOX - PO LOBBY", "note": "ON 12/24 AND 12/31, THIS BOX MAY BE COLLECTED AS EARLY AS 12 NOON.", "ref": "7204200024"}, "type": "Feature"}
{"geometry": {"coordinates": [-91.33723999, 34.294960012], "type": "Point"}, "id": "1de2IBPMHGmYWtTJw50-qGAJ3kw=", "properties": {"@spider": "usps_collection_boxes", "addr:city": "DE WITT", "addr:country": "US", "addr:full": "221 W CROSS ST", "addr:postcode": "72042", "addr:state": "AR", "brand": "USPS", "collection_times": "Mo-Sa 16:45", "name": "USPS COLLECTION BOX - PO LOBBY", "note": "ON 12/24 AND 12/31, THIS BOX MAY BE COLLECTED AS EARLY AS 12 NOON.", "ref": "7204200025"}, "type": "Feature"}
{"geometry": {"coordinates": [-91.33723999, 34.294960012], "type": "Point"}, "id": "qdAkpfST1etM7GN9HjWCqCr2V4k=", "properties": {"@spider": "usps_collection_boxes", "addr:city": "DE WITT", "addr:country": "US", "addr:full": "221 W CROSS ST", "addr:postcode": "72042", "addr:state": "AR", "brand": "USPS", "collection_times": "Mo-Fr 16:30; Sa 11:00", "name": "USPS COLLECTION BOX - PO LOBBY", "note": "ON 12/24 AND 12/31, THIS BOX MAY BE COLLECTED AS EARLY AS 12 NOON.", "ref": "7204200027"}, "type": "Feature"}
{"geometry": {"coordinates": [-91.265167, 35.636925], "type": "Point"}, "id": "QDeI0q02P28G9Jy9pyFLRTUF4A8=", "properties": {"@spider": "usps_collection_boxes", "addr:city": "DIAZ", "addr:country": "US", "addr:full": "3400 S MAIN ST", "addr:postcode": "72043", "addr:state": "AR", "brand": "USPS", "collection_times": "Mo-Fr 11:30; Sa 11:00", "name": "USPS COLLECTION BOX - BLUE BOX", "ref": "7204300001"}, "type": "Feature"}
{"geometry": {"coordinates": [-91.2652, 35.63697], "type": "Point"}, "id": "jiutL4SSCBSrnjG0xAa4JZonF3A=", "properties": {"@spider": "usps_collection_boxes", "addr:city": "DIAZ", "addr:country": "US", "addr:full": "3400 S MAIN ST", "addr:postcode": "72043", "addr:state": "AR", "brand": "USPS", "collection_times": "Mo-Fr 11:30; Sa 11:00", "name": "USPS COLLECTION BOX - PO LOBBY", "ref": "7204300004"}, "type": "Feature"}
{"geometry": {"coordinates": [-91.265166191, 35.637101581], "type": "Point"}, "id": "U_s4JLbJ5e1pSPNYoX-MTLWPspo=", "properties": {"@spider": "usps_collection_boxes", "addr:city": "DIAZ", "addr:country": "US", "addr:full": "3400 S MAIN ST", "addr:postcode": "72043", "addr:state": "AR", "brand": "USPS", "collection_times": "Mo-Fr 12:00; Sa 11:30", "name": "USPS COLLECTION BOX - PO LOBBY", "ref": "7204300005"}, "type": "Feature"}
{"geometry": {"coordinates": [-92.193916008, 35.602468008], "type": "Point"}, "id": "aaMxYN1gubv7moGAUvW6y0tKDFc=", "properties": {"@spider": "usps_collection_boxes", "addr:city": "EDGEMONT", "addr:country": "US", "addr:full": "10239 EDGEMONT RD", "addr:postcode": "72044", "addr:state": "AR", "brand": "USPS", "collection_times": "Mo-Fr 16:00; Sa 11:00", "name": "USPS COLLECTION BOX - BLUE BOX", "note": "ON 12/24 AND 12/31, THIS BOX MAY BE COLLECTED AS EARLY AS 12 NOON.", "ref": "7204400001"}, "type": "Feature"}
{"geometry": {"coordinates": [-92.193916008, 35.602468008], "type": "Point"}, "id": "K58aGqIV3ChLbyjjBjGNVXaqxNk=", "properties": {"@spider": "usps_collection_boxes", "addr:city": "EDGEMONT", "addr:country": "US", "addr:full": "10239 EDGEMONT RD", "addr:postcode": "72044", "addr:state": "AR", "brand": "USPS", "collection_times": "Mo-Fr 11:30; Sa 11:00", "name": "USPS COLLECTION BOX - PO LOBBY", "ref": "7204400004"}, "type": "Feature"}
{"geometry": {"coordinates": [-92.193916008, 35.602468008], "type": "Point"}, "id": "PBJhBgO2ha9o1JyseXtjBuqjH8E=", "properties": {"@spider": "usps_collection_boxes", "addr:city": "EDGEMONT", "addr:country": "US", "addr:full": "10239 EDGEMONT RD", "addr:postcode": "72044", "addr:state": "AR", "brand": "USPS", "collection_times": "Mo-Fr 11:30; Sa 11:00", "name": "USPS COLLECTION BOX - PO LOBBY", "ref": "7204400005"}, "type": "Feature"}
{"geometry": {"coordinates": [-92.088359941, 35.110524353], "type": "Point"}, "id": "zFxYPgRPyUQO3KGyHEL-c2fAOoI=", "properties": {"@spider": "usps_collection_boxes", "addr:city": "EL PASO", "addr:country": "US", "addr:full": "3092 HIGHWAY 5", "addr:postcode": "72045", "addr:state": "AR", "brand": "USPS", "collection_times": "Mo-Fr 15:30; Sa 10:00", "name": "USPS COLLECTION BOX - BLUE BOX", "note": "ON 12/24 AND 12/31, THIS BOX MAY BE COLLECTED AS EARLY AS 12 NOON.", "ref": "7204500001"}, "type": "Feature"}
{"geometry": {"coordinates": [-92.088359941, 35.110524353], "type": "Point"}, "id": "GBNuVUpINPUosDlGrOuxTvaRBrs=", "properties": {"@spider": "usps_collection_boxes", "addr:city": "EL PASO", "addr:country": "US", "addr:full": "3092 HIGHWAY 5", "addr:postcode": "72045", "addr:state": "AR", "brand": "USPS", "collection_times": "Mo-Fr 15:30; Sa 10:00", "name": "USPS COLLECTION BOX - PO LOBBY", "note": "ON 12/24 AND 12/31, THIS BOX MAY BE COLLECTED AS EARLY AS 12 NOON.", "ref": "7204500002"}, "type": "Feature"}
{"geometry": {"coordinates": [-92.088359941, 35.110524353], "type": "Point"}, "id": "12MHb4z6plO8-PlgkSt03EpVuwo=", "properties": {"@spider": "usps_collection_boxes", "addr:city": "EL PASO", "addr:country": "US", "addr:full": "3092 HIGHWAY 5", "addr:postcode": "72045", "addr:state": "AR", "brand": "USPS", "collection_times": "Mo-Fr 15:30; Sa 10:30", "name": "USPS COLLECTION BOX - PO LOBBY", "note": "ON 12/24 AND 12/31, THIS BOX MAY BE COLLECTED AS EARLY AS 12 NOON.", "ref": "7204500003"}, "type": "Feature"}
{"geometry": {"coordinates": [-91.969769, 34.545093], "type": "Point"}, "id": "JAby25a-Uat8BcRPIVJeqsF5kb0=", "properties": {"@spider": "usps_collection_boxes", "addr:city": "ENGLAND", "addr:country": "US", "addr:full": "111 N MAIN ST", "addr:postcode": "72046", "addr:state": "AR", "brand": "USPS", "collection_times": "Mo-Fr 16:15; Sa 11:00", "name": "USPS COLLECTION BOX - BLUE BOX", "note": "ON 12/24 AND 12/31, THIS BOX MAY BE COLLECTED AS EARLY AS 12 NOON.", "ref": "7204600004"}, "type": "Feature"}
{"geometry": {"coordinates": [-91.969769, 34.545093], "type": "Point"}, "id": "T7PeFX-Sqd2DoU3a9FxbYN5-3Nw=", "properties": {"@spider": "usps_collection_boxes", "addr:city": "ENGLAND", "addr:country": "US", "addr:full": "111 N MAIN ST", "addr:postcode": "72046", "addr:state": "AR", "brand": "USPS", "collection_times": "Mo-Fr 16:15; Sa 11:00", "name": "USPS COLLECTION BOX - PO LOBBY", "note": "ON 12/24 AND 12/31, THIS BOX MAY BE COLLECTED AS EARLY AS 12 NOON.", "ref": "7204600005"}, "type": "Feature"}
{"geometry": {"coordinates": [-91.969769, 34.545093], "type": "Point"}, "id": "6V6PLIFKJMFxlDiarV86C3t4xWA=", "properties": {"@spider": "usps_collection_boxes", "addr:city": "ENGLAND", "addr:country": "US", "addr:full": "111 N MAIN ST", "addr:postcode": "72046", "addr:state": "AR", "brand": "USPS", "collection_times": "Mo-Fr 16:15; Sa 11:00", "name": "USPS COLLECTION BOX - PO LOBBY", "note": "ON 12/24 AND 12/31, THIS BOX MAY BE COLLECTED AS EARLY AS 12 NOON.", "ref": "7204600006"}, "type": "Feature"}
{"geometry": {"coordinates": [-91.969719328, 34.544987539], "type": "Point"}, "id": "EhmIwGZYtF2an5Afd8Kd6yQdULs=", "properties": {"@spider": "usps_collection_boxes", "addr:city": "ENGLAND", "addr:country": "US", "addr:full": "111 N MAIN ST", "addr:postcode": "72046", "addr:state": "AR", "brand": "USPS", "collection_times": "Mo-Fr 16:00; Sa 11:00", "name": "USPS COLLECTION BOX - PO LOBBY", "note": "ON 12/24 AND 12/31, THIS BOX MAY BE COLLECTED AS EARLY AS 12 NOON.", "ref": "7204600007"}, "type": "Feature"}
{"geometry": {"coordinates": [-92.203308, 35.195149], "type": "Point"}, "id": "v0YhXD2JWT32KBr8FPV11Ccayfc=", "properties": {"@spider": "usps_collection_boxes", "addr:city": "ENOLA", "addr:country": "US", "addr:full": "232 HIGHWAY 107 N", "addr:postcode": "72047", "addr:state": "AR", "brand": "USPS", "collection_times": "Mo-Fr 11:30; Sa 10:15", "name": "USPS COLLECTION BOX - BLUE BOX", "ref": "7204700001"}, "type": "Feature"}
{"geometry": {"coordinates": [-92.203308, 35.195149], "type": "Point"}, "id": "mAmu8JIZ-h8LLQTfktsEyLa1YEA=", "properties": {"@spider": "usps_collection_boxes", "addr:city": "ENOLA", "addr:country": "US", "addr:full": "232 HIGHWAY 107 N", "addr:postcode": "72047", "addr:state": "AR", "brand": "USPS", "collection_times": "Mo-Fr 11:30; Sa 10:15", "name": "USPS COLLECTION BOX - PO LOBBY", "ref": "7204700002"}, "type": "Feature"}
{"geometry": {"coordinates": [-92.203267013, 35.195429734], "type": "Point"}, "id": "fz-uHgCmKcId4PhGsWPdxM7POAg=", "properties": {"@spider": "usps_collection_boxes", "addr:city": "ENOLA", "addr:country": "US", "addr:full": "232C HIGHWAY 107 N", "addr:postcode": "72047", "addr:state": "AR", "brand": "USPS", "collection_times": "Mo-Fr 12:00; Sa 10:15", "name": "USPS COLLECTION BOX - PO LOBBY", "ref": "7204700003"}, "type": "Feature"}
{"geometry": {"coordinates": [-91.163539966, 34.286980021], "type": "Point"}, "id": "2VJq4byL0JS418NzmP9UDKpIpLI=", "properties": {"@spider": "usps_collection_boxes", "addr:city": "ETHEL", "addr:country": "US", "addr:full": "2 ETHEL RD", "addr:postcode": "72048", "addr:state": "AR", "brand": "USPS", "collection_times": "Mo-Sa 09:45", "name": "USPS COLLECTION BOX - PO LOBBY", "ref": "7204800002"}, "type": "Feature"}
{"geometry": {"coordinates": [-91.163539966, 34.286980021], "type": "Point"}, "id": "bYeWiQfShgJOS8GleCQfr_J0XAM=", "properties": {"@spider": "usps_collection_boxes", "addr:city": "ETHEL", "addr:country": "US", "addr:full": "2 ETHEL RD", "addr:postcode": "72048", "addr:state": "AR", "brand": "USPS", "collection_times": "Mo-Fr 11:00; Sa 10:30", "name": "USPS COLLECTION BOX - PO LOBBY", "ref": "7204800003"}, "type": "Feature"}
{"geometry": {"coordinates": [-92.296605, 35.790855], "type": "Point"}, "id": "lmOvYkQdO5GNFLe_TVZuSb6qWxc=", "properties": {"@spider": "usps_collection_boxes", "addr:city": "FOX", "addr:country": "US", "addr:full": "15949 HIGHWAY 263", "addr:postcode": "72051", "addr:state": "AR", "brand": "USPS", "collection_times": "Mo-Fr 14:00; Sa 12:30", "name": "USPS COLLECTION BOX - PO LOBBY", "note": "ON 12/24 AND 12/31, THIS BOX MAY BE COLLECTED AS EARLY AS 12 NOON.", "ref": "7205100001"}, "type": "Feature"}
{"geometry": {"coordinates": [-92.296980428, 35.791154456], "type": "Point"}, "id": "linUJMP6PEoTi8IORtTerigqeiI=", "properties": {"@spider": "usps_collection_boxes", "addr:city": "FOX", "addr:country": "US", "addr:full": "15949 HIGHWAY 263", "addr:postcode": "72051", "addr:state": "AR", "brand": "USPS", "collection_times": "Mo-Fr 14:00; Sa 12:30", "name": "USPS COLLECTION BOX - PO LOBBY", "note": "ON 12/24 AND 12/31, THIS BOX MAY BE COLLECTED AS EARLY AS 12 NOON.", "ref": "7205100003"}, "type": "Feature"}
{"geometry": {"coordinates": [-91.7848421307, 35.1426140275], "type": "Point"}, "id": "j8hTuUFDjKtvJyxG1aKU9H1BiAg=", "properties": {"@spider": "usps_collection_boxes", "addr:city": "GARNER", "addr:country": "US", "addr:full": "4392 HWY 367 N", "addr:postcode": "72052", "addr:state": "AR", "brand": "USPS", "collection_times": "Mo-Fr 10:00; Sa 09:30", "name": "USPS COLLECTION BOX - PO LOBBY", "ref": "7205200002"}, "type": "Feature"}
{"geometry": {"coordinates": [-91.786041664, 35.141647116], "type": "Point"}, "id": "4FESzAWlH07kYNClIQYMxUEkTa4=", "properties": {"@spider": "usps_collection_boxes", "addr:city": "GARNER", "addr:country": "US", "addr:full": "4392 HIGHWAY 367 S", "addr:postcode": "72052", "addr:state": "AR", "brand": "USPS", "collection_times": "Mo-Sa 10:00", "name": "USPS COLLECTION BOX - PO LOBBY", "ref": "7205200003"}, "type": "Feature"}
{"geometry": {"coordinates": [-92.224025, 34.707681], "type": "Point"}, "id": "oKmcxICBEBfLXOrw_-TqNQIh6cM=", "properties": {"@spider": "usps_collection_boxes", "addr:city": "COLLEGE STATION", "addr:country": "US", "addr:full": "4000 GRAY ST", "addr:postcode": "72053", "addr:state": "AR", "brand": "USPS", "collection_times": "Mo-Fr 11:30; Sa 10:45", "name": "USPS COLLECTION BOX - BLUE BOX", "ref": "7205300001"}, "type": "Feature"}
{"geometry": {"coordinates": [-92.224191, 34.70713], "type": "Point"}, "id": "oleb9zPExq_ZPsAD5sZAmTtKnM8=", "properties": {"@spider": "usps_collection_boxes", "addr:city": "COLLEGE STATION", "addr:country": "US", "addr:full": "4000 GRAY ST", "addr:postcode": "72053", "addr:state": "AR", "brand": "USPS", "collection_times": "Mo-Fr 11:30; Sa 10:45", "name": "USPS COLLECTION BOX - PO LOBBY", "ref": "7205300002"}, "type": "Feature"}
{"geometry": {"coordinates": [-92.224006375, 34.707104078], "type": "Point"}, "id": "YoqJXYYl_2Klb-DgOMJEjpiwFAM=", "properties": {"@spider": "usps_collection_boxes", "addr:city": "COLLEGE STATION", "addr:country": "US", "addr:full": "4000 GRAY ST STE A", "addr:postcode": "72053", "addr:state": "AR", "brand": "USPS", "collection_times": "Mo-Fr 12:00; Sa 10:30", "name": "USPS COLLECTION BOX - PO LOBBY", "ref": "7205300003"}, "type": "Feature"}
{"geometry": {"coordinates": [-91.377150003, 34.117820013], "type": "Point"}, "id": "q83ki3Mi8F5i32oq-Gww5hKJLxU=", "properties": {"@spider": "usps_collection_boxes", "addr:city": "GILLETT", "addr:country": "US", "addr:full": "14 W MAIN ST", "addr:postcode": "72055", "addr:state": "AR", "brand": "USPS", "collection_times": "Mo-Fr 15:45; Sa 11:30", "name": "USPS COLLECTION BOX - BLUE BOX", "note": "ON 12/24 AND 12/31, THIS BOX MAY BE COLLECTED AS EARLY AS 12 NOON.", "ref": "7205500001"}, "type": "Feature"}
{"geometry": {"coordinates": [-91.377150003, 34.117820013], "type": "Point"}, "id": "SosuUDxqGEXU59cS_U6tTiHFbw0=", "properties": {"@spider": "usps_collection_boxes", "addr:city": "GILLETT", "addr:country": "US", "addr:full": "14 W MAIN ST", "addr:postcode": "72055", "addr:state": "AR", "brand": "USPS", "collection_times": "Mo-Fr 15:45; Sa 11:30", "name": "USPS COLLECTION BOX - PO LOBBY", "note": "ON 12/24 AND 12/31, THIS BOX MAY BE COLLECTED AS EARLY AS 12 NOON.", "ref": "7205500002"}, "type": "Feature"}
{"geometry": {"coordinates": [-91.377150003, 34.117820013], "type": "Point"}, "id": "DXIuySSCAEu91zW68vtXo4fhCqo=", "properties": {"@spider": "usps_collection_boxes", "addr:city": "GILLETT", "addr:country": "US", "addr:full": "14 W MAIN ST", "addr:postcode": "72055", "addr:state": "AR", "brand": "USPS", "collection_times": "Mo-Fr 15:45; Sa 11:30", "name": "USPS COLLECTION BOX - PO LOBBY", "note": "ON 12/24 AND 12/31, THIS BOX MAY BE COLLECTED AS EARLY AS 12 NOON.", "ref": "7205500003"}, "type": "Feature"}
{"geometry": {"coordinates": [-91.377150003, 34.117820013], "type": "Point"}, "id": "zf1bdvJ1_iEbWU2B869L7sy58H8=", "properties": {"@spider": "usps_collection_boxes", "addr:city": "GILLETT", "addr:country": "US", "addr:full": "14 W MAIN ST", "addr:postcode": "72055", "addr:state": "AR", "brand": "USPS", "collection_times": "Mo-Fr 15:45; Sa 11:30", "name": "USPS COLLECTION BOX - PO LOBBY", "note": "ON 12/24 AND 12/31, THIS BOX MAY BE COLLECTED AS EARLY AS 12 NOON.", "ref": "7205500006"}, "type": "Feature"}
{"geometry": {"coordinates": [-92.313398, 34.147429], "type": "Point"}, "id": "hI9w-BNgFwtivlYNG8lpK6C5d28=", "properties": {"@spider": "usps_collection_boxes", "addr:city": "GRAPEVINE", "addr:country": "US", "addr:full": "151 GRANT COUNTY 18", "addr:postcode": "72057", "addr:state": "AR", "brand": "USPS", "collection_times": "Mo-Fr 11:30; Sa 09:30", "name": "USPS COLLECTION BOX - BLUE BOX", "ref": "7205700001"}, "type": "Feature"}
{"geometry": {"coordinates": [-92.313398, 34.147429], "type": "Point"}, "id": "FpTwN1TrLfiPBaIhWuS-W5qJH6I=", "properties": {"@spider": "usps_collection_boxes", "addr:city": "GRAPEVINE", "addr:country": "US", "addr:full": "151 GRANT COUNTY 18", "addr:postcode": "72057", "addr:state": "AR", "brand": "USPS", "collection_times": "Mo-Fr 11:30; Sa 09:30", "name": "USPS COLLECTION BOX - PO LOBBY", "ref": "7205700002"}, "type": "Feature"}
{"geometry": {"coordinates": [-92.313570783, 34.14742056], "type": "Point"}, "id": "dF5SrqAlJc1hjOzaTFLRBG7L5rY=", "properties": {"@spider": "usps_collection_boxes", "addr:city": "GRAPEVINE", "addr:country": "US", "addr:full": "151 GRANT COUNTY 18", "addr:postcode": "72057", "addr:state": "AR", "brand": "USPS", "collection_times": "Mo-Fr 12:00; Sa 09:45", "name": "USPS COLLECTION BOX - PO LOBBY", "ref": "7205700004"}, "type": "Feature"}
{"geometry": {"coordinates": [-92.388121, 35.224182], "type": "Point"}, "id": "Mtr5Omix5mWeWWKMAPRKuQ4cm2c=", "properties": {"@spider": "usps_collection_boxes", "addr:city": "GREENBRIER", "addr:country": "US", "addr:full": "88 S BROADVIEW ST", "addr:postcode": "72058", "addr:state": "AR", "brand": "USPS", "collection_times": "Mo-Fr 16:45; Sa 12:00", "name": "USPS COLLECTION BOX - BLUE BOX", "note": "ON 12/24 AND 12/31, THIS BOX MAY BE COLLECTED AS EARLY AS 12 NOON.", "ref": "7205800001"}, "type": "Feature"}
{"geometry": {"coordinates": [-92.388121, 35.224182], "type": "Point"}, "id": "LTWsHr1Q4rvPGs5fA5ajtvTlMgE=", "properties": {"@spider": "usps_collection_boxes", "addr:city": "GREENBRIER", "addr:country": "US", "addr:full": "88 S BROADVIEW ST", "addr:postcode": "72058", "addr:state": "AR", "brand": "USPS", "collection_times": "Mo-Fr 16:45; Sa 12:00", "name": "USPS COLLECTION BOX - PO LOBBY", "note": "ON 12/24 AND 12/31, THIS BOX MAY BE COLLECTED AS EARLY AS 12 NOON.", "ref": "7205800002"}, "type": "Feature"}
{"geometry": {"coordinates": [-92.388118902, 35.224397162], "type": "Point"}, "id": "5dEOR-ybq3pK5b3PhAmHnbtm6yk=", "properties": {"@spider": "usps_collection_boxes", "addr:city": "GREENBRIER", "addr:country": "US", "addr:full": "88 S BROADVIEW ST", "addr:postcode": "72058", "addr:state": "AR", "brand": "USPS", "collection_times": "Mo-Fr 16:30; Sa 12:00", "name": "USPS COLLECTION BOX - PO LOBBY", "note": "ON 12/24 AND 12/31, THIS BOX MAY BE COLLECTED AS EARLY AS 12 NOON.", "ref": "7205800006"}, "type": "Feature"}
{"geometry": {"coordinates": [-91.6452377, 35.124485], "type": "Point"}, "id": "BU9vI2BUPow4Tr38AKO1o7zDNzI=", "properties": {"@spider": "usps_collection_boxes", "addr:city": "GRIFFITHVILLE", "addr:country": "US", "addr:full": "311 MAIN ST", "addr:postcode": "72060", "addr:state": "AR", "brand": "USPS", "collection_times": "Mo-Fr 16:00; Sa 11:00", "name": "USPS COLLECTION BOX - BLUE BOX", "note": "ON 12/24 AND 12/31, THIS BOX MAY BE COLLECTED AS EARLY AS 12 NOON.", "ref": "7206000001"}, "type": "Feature"}
{"geometry": {"coordinates": [-91.644987, 35.123851], "type": "Point"}, "id": "0-GJRQW7u3Bj6GRGAmjZx2NPkjM=", "properties": {"@spider": "usps_collection_boxes", "addr:city": "GRIFFITHVILLE", "addr:country": "US", "addr:full": "311 MAIN ST", "addr:postcode": "72060", "addr:state": "AR", "brand": "USPS", "collection_times": "Mo-Fr 13:00; Sa 11:00", "name": "USPS COLLECTION BOX - PO LOBBY", "note": "ON 12/24 AND 12/31, THIS BOX MAY BE COLLECTED AS EARLY AS 12 NOON.", "ref": "7206000002"}, "type": "Feature"}
{"geometry": {"coordinates": [-91.644986627, 35.124309335], "type": "Point"}, "id": "zPssBoF58oeUUu0-N62EZrXrxv8=", "properties": {"@spider": "usps_collection_boxes", "addr:city": "GRIFFITHVILLE", "addr:country": "US", "addr:full": "311 MAIN ST", "addr:postcode": "72060", "addr:state": "AR", "brand": "USPS", "collection_times": "Mo-Fr 13:00; Sa 11:30", "name": "USPS COLLECTION BOX - PO LOBBY", "note": "ON 12/24 AND 12/31, THIS BOX MAY BE COLLECTED AS EARLY AS 12 NOON.", "ref": "7206000004"}, "type": "Feature"}
{"geometry": {"coordinates": [-92.344333, 35.316496], "type": "Point"}, "id": "aJKlJk_7pxIr924az-adPeZiTRI=", "properties": {"@spider": "usps_collection_boxes", "addr:city": "GUY", "addr:country": "US", "addr:full": "4 SUNSET LN", "addr:postcode": "72061", "addr:state": "AR", "brand": "USPS", "collection_times": "Mo-Fr 11:30; Sa 09:45", "name": "USPS COLLECTION BOX - BLUE BOX", "ref": "7206100002"}, "type": "Feature"}
{"geometry": {"coordinates": [-92.344333, 35.316497], "type": "Point"}, "id": "lmUNgOdLQhPKZO8QsupIiewvBOw=", "properties": {"@spider": "usps_collection_boxes", "addr:city": "GUY", "addr:country": "US", "addr:full": "4 SUNSET LN", "addr:postcode": "72061", "addr:state": "AR", "brand": "USPS", "collection_times": "Mo-Fr 11:30; Sa 09:45", "name": "USPS COLLECTION BOX - PO LOBBY", "ref": "7206100003"}, "type": "Feature"}
{"geometry": {"coordinates": [-92.344333, 35.316497], "type": "Point"}, "id": "rcqag4S4ZkwuYrDPk42k1wi5oWI=", "properties": {"@spider": "usps_collection_boxes", "addr:city": "GUY", "addr:country": "US", "addr:full": "4 SUNSET LN", "addr:postcode": "72061", "addr:state": "AR", "brand": "USPS", "collection_times": "Mo-Fr 11:30; Sa 09:45", "name": "USPS COLLECTION BOX - PO LOBBY", "ref": "7206100004"}, "type": "Feature"}
{"geometry": {"coordinates": [-92.344743168, 35.316497523], "type": "Point"}, "id": "F0FAmHUZwW6iRxjrYXvy0abGbcU=", "properties": {"@spider": "usps_collection_boxes", "addr:city": "GUY", "addr:country": "US", "addr:full": "4 SUNSET LN", "addr:postcode": "72061", "addr:state": "AR", "brand": "USPS", "collection_times": "Mo-Fr 12:00; Sa 09:30", "name": "USPS COLLECTION BOX - PO LOBBY", "ref": "7206100006"}, "type": "Feature"}
{"geometry": {"coordinates": [-92.7871776, 35.287676], "type": "Point"}, "id": "OmMLi_-JQKbKE3K7jKZwnGkMJEE=", "properties": {"@spider": "usps_collection_boxes", "addr:city": "HATTIEVILLE", "addr:country": "US", "addr:full": "670 HIGHWAY 213", "addr:postcode": "72063", "addr:state": "AR", "brand": "USPS", "collection_times": "Mo-Fr 16:00; Sa 10:00", "name": "USPS COLLECTION BOX - BLUE BOX", "note": "ON 12/24 AND 12/31, THIS BOX MAY BE COLLECTED AS EARLY AS 12 NOON.", "ref": "7206300001"}, "type": "Feature"}
{"geometry": {"coordinates": [-92.787126, 35.287548], "type": "Point"}, "id": "N6CHAEfSVVeQwSsZ53yO_c4s_qo=", "properties": {"@spider": "usps_collection_boxes", "addr:city": "HATTIEVILLE", "addr:country": "US", "addr:full": "670 HIGHWAY 213", "addr:postcode": "72063", "addr:state": "AR", "brand": "USPS", "collection_times": "Mo-Fr 11:00; Sa 10:00", "name": "USPS COLLECTION BOX - PO LOBBY", "ref": "7206300002"}, "type": "Feature"}
{"geometry": {"coordinates": [-92.787125532, 35.287539275], "type": "Point"}, "id": "71QsoN6ByXRwuT242tIqYlIeKEY=", "properties": {"@spider": "usps_collection_boxes", "addr:city": "HATTIEVILLE", "addr:country": "US", "addr:full": "670 HIGHWAY 213", "addr:postcode": "72063", "addr:state": "AR", "brand": "USPS", "collection_times": "Mo-Fr 11:30; Sa 10:00", "name": "USPS COLLECTION BOX - PO LOBBY", "ref": "7206300004"}, "type": "Feature"}
{"geometry": {"coordinates": [-91.583506, 34.781103], "type": "Point"}, "id": "bvB3yzvWTOm0IVPQ1GOzb1rg5AU=", "properties": {"@spider": "usps_collection_boxes", "addr:city": "HAZEN", "addr:country": "US", "addr:full": "109 N CHESTER ST", "addr:postcode": "72064", "addr:state": "AR", "brand": "USPS", "collection_times": "Mo-Fr 16:00; Sa 12:00", "name": "USPS COLLECTION BOX - PO LOBBY", "note": "ON 12/24 AND 12/31, THIS BOX MAY BE COLLECTED AS EARLY AS 12 NOON.", "ref": "7206400002"}, "type": "Feature"}
{"geometry": {"coordinates": [-91.583506, 34.781103], "type": "Point"}, "id": "nMLxV67A_tx8Z5DU_wdewbUBxQs=", "properties": {"@spider": "usps_collection_boxes", "addr:city": "HAZEN", "addr:country": "US", "addr:full": "109 N CHESTER ST", "addr:postcode": "72064", "addr:state": "AR", "brand": "USPS", "collection_times": "Mo-Fr 16:00; Sa 12:00", "name": "USPS COLLECTION BOX - PO LOBBY", "note": "ON 12/24 AND 12/31, THIS BOX MAY BE COLLECTED AS EARLY AS 12 NOON.", "ref": "7206400004"}, "type": "Feature"}
{"geometry": {"coordinates": [-91.583506, 34.781103], "type": "Point"}, "id": "L1gTWFqFkrOHKgYR5J6b3KMYOUU=", "properties": {"@spider": "usps_collection_boxes", "addr:city": "HAZEN", "addr:country": "US", "addr:full": "109 N CHESTER ST", "addr:postcode": "72064", "addr:state": "AR", "brand": "USPS", "collection_times": "Mo-Fr 16:00; Sa 12:00", "name": "USPS COLLECTION BOX - BLUE BOX", "note": "ON 12/24 AND 12/31, THIS BOX MAY BE COLLECTED AS EARLY AS 12 NOON.", "ref": "7206400005"}, "type": "Feature"}
{"geometry": {"coordinates": [-91.583487048, 34.781767827], "type": "Point"}, "id": "fX_0mZxrT810NPJChkid1QtWKdA=", "properties": {"@spider": "usps_collection_boxes", "addr:city": "HAZEN", "addr:country": "US", "addr:full": "109 N CHESTER ST", "addr:postcode": "72064", "addr:state": "AR", "brand": "USPS", "collection_times": "Mo-Fr 16:00; Sa 12:00", "name": "USPS COLLECTION BOX - PO LOBBY", "note": "ON 12/24 AND 12/31, THIS BOX MAY BE COLLECTED AS EARLY AS 12 NOON.", "ref": "7206400006"}, "type": "Feature"}
{"geometry": {"coordinates": [-91.737258, 34.989675], "type": "Point"}, "id": "aib9pukueDaYrqoK2QVuSJXCFEg=", "properties": {"@spider": "usps_collection_boxes", "addr:city": "HICKORY PLAINS", "addr:country": "US", "addr:full": "9992 HIGHWAY 38 W", "addr:postcode": "72066", "addr:state": "AR", "brand": "USPS", "collection_times": "Mo-Sa 12:30", "name": "USPS COLLECTION BOX - PO LOBBY", "note": "ON 12/24 AND 12/31, THIS BOX MAY BE COLLECTED AS EARLY AS 12 NOON.", "ref": "7206600000"}, "type": "Feature"}
{"geometry": {"coordinates": [-91.737223464, 34.989679696], "type": "Point"}, "id": "xHz4FeovQFMsAj_etSxKuwkOa0c=", "properties": {"@spider": "usps_collection_boxes", "addr:city": "HICKORY PLAINS", "addr:country": "US", "addr:full": "9992 HIGHWAY 38 W", "addr:postcode": "72066", "addr:state": "AR", "brand": "USPS", "collection_times": "Mo-Sa 12:30", "name": "USPS COLLECTION BOX - PO LOBBY", "note": "ON 12/24 AND 12/31, THIS BOX MAY BE COLLECTED AS EARLY AS 12 NOON.", "ref": "7206600001"}, "type": "Feature"}
{"geometry": {"coordinates": [-92.202956, 35.560575], "type": "Point"}, "id": "Ww_7cc9WD9rY-rkCP_RoTy3QxBw=", "properties": {"@spider": "usps_collection_boxes", "addr:city": "HIGDEN", "addr:country": "US", "addr:full": "7545 EDGEMONT RD", "addr:postcode": "72067", "addr:state": "AR", "brand": "USPS", "collection_times": "Mo-Fr 16:00; Sa 10:15", "name": "USPS COLLECTION BOX - BLUE BOX", "note": "ON 12/24 AND 12/31, THIS BOX MAY BE COLLECTED AS EARLY AS 12 NOON.", "ref": "7206700001"}, "type": "Feature"}
{"geometry": {"coordinates": [-92.202956, 35.560575], "type": "Point"}, "id": "6UwC0mnTTV4I5U4ogVz52xGCtK8=", "properties": {"@spider": "usps_collection_boxes", "addr:city": "HIGDEN", "addr:country": "US", "addr:full": "7545 EDGEMONT RD", "addr:postcode": "72067", "addr:state": "AR", "brand": "USPS", "collection_times": "Mo-Fr 16:00; Sa 10:15", "name": "USPS COLLECTION BOX - PO LOBBY", "note": "ON 12/24 AND 12/31, THIS BOX MAY BE COLLECTED AS EARLY AS 12 NOON.", "ref": "7206700003"}, "type": "Feature"}
{"geometry": {"coordinates": [-92.202956, 35.560575], "type": "Point"}, "id": "G8Z3T7fviClP_OoUYnPIk1mbqZ0=", "properties": {"@spider": "usps_collection_boxes", "addr:city": "HIGDEN", "addr:country": "US", "addr:full": "7545 EDGEMONT RD", "addr:postcode": "72067", "addr:state": "AR", "brand": "USPS", "collection_times": "Mo-Fr 16:00; Sa 10:15", "name": "USPS COLLECTION BOX - PO LOBBY", "note": "ON 12/24 AND 12/31, THIS BOX MAY BE COLLECTED AS EARLY AS 12 NOON.", "ref": "7206700004"}, "type": "Feature"}
{"geometry": {"coordinates": [-92.202898523, 35.560602793], "type": "Point"}, "id": "u0InlZHmtNcFqAgftujzKTfnHxg=", "properties": {"@spider": "usps_collection_boxes", "addr:city": "HIGDEN", "addr:country": "US", "addr:full": "7545 EDGEMONT RD", "addr:postcode": "72067", "addr:state": "AR", "brand": "USPS", "collection_times": "Mo-Fr 16:15; Sa 10:15", "name": "USPS COLLECTION BOX - PO LOBBY", "note": "ON 12/24 AND 12/31, THIS BOX MAY BE COLLECTED AS EARLY AS 12 NOON.", "ref": "7206700005"}, "type": "Feature"}
{"geometry": {"coordinates": [-91.7128457, 35.196436], "type": "Point"}, "id": "T8oYJkyUzCEWusrCJhq1kOmMr7k=", "properties": {"@spider": "usps_collection_boxes", "addr:city": "HIGGINSON", "addr:country": "US", "addr:full": "105 WALKER RD", "addr:postcode": "72068", "addr:state": "AR", "brand": "USPS", "collection_times": "Mo-Fr 16:00; Sa 10:30", "name": "USPS COLLECTION BOX - BLUE BOX", "note": "ON 12/24 AND 12/31, THIS BOX MAY BE COLLECTED AS EARLY AS 12 NOON.", "ref": "7206800003"}, "type": "Feature"}
{"geometry": {"coordinates": [-91.712785, 35.196511], "type": "Point"}, "id": "3P2HGcv3W4F1INBofYx2c_dP9Ys=", "properties": {"@spider": "usps_collection_boxes", "addr:city": "HIGGINSON", "addr:country": "US", "addr:full": "105 WALKER RD", "addr:postcode": "72068", "addr:state": "AR", "brand": "USPS", "collection_times": "Mo-Fr 11:45; Sa 10:30", "name": "USPS COLLECTION BOX - PO LOBBY", "ref": "7206800004"}, "type": "Feature"}
{"geometry": {"coordinates": [-91.713148824, 35.19684719], "type": "Point"}, "id": "6N3I3yBMzjbKT-VnVKLZnOL50gQ=", "properties": {"@spider": "usps_collection_boxes", "addr:city": "HIGGINSON", "addr:country": "US", "addr:full": "105 WALKER RD", "addr:postcode": "72068", "addr:state": "AR", "brand": "USPS", "collection_times": "Mo-Fr 12:00; Sa 11:30", "name": "USPS COLLECTION BOX - PO LOBBY", "ref": "7206800005"}, "type": "Feature"}
{"geometry": {"coordinates": [-91.199846012, 34.595102009], "type": "Point"}, "id": "QWPcnWY0DXH5TESfV1Ar9g_qWBI=", "properties": {"@spider": "usps_collection_boxes", "addr:city": "HOLLY GROVE", "addr:country": "US", "addr:full": "169 E RALPH ABRAMSON ST", "addr:postcode": "72069", "addr:state": "AR", "brand": "USPS", "collection_times": "Mo-Fr 15:30; Sa 11:30", "name": "USPS COLLECTION BOX - PO LOBBY", "note": "ON 12/24 AND 12/31, THIS BOX MAY BE COLLECTED AS EARLY AS 12 NOON.", "ref": "7206900001"}, "type": "Feature"}
{"geometry": {"coordinates": [-91.199846012, 34.595102009], "type": "Point"}, "id": "ib084DSLlfdr_lq01JtjN8ngXLY=", "properties": {"@spider": "usps_collection_boxes", "addr:city": "HOLLY GROVE", "addr:country": "US", "addr:full": "169 E RALPH ABRAMSON ST", "addr:postcode": "72069", "addr:state": "AR", "brand": "USPS", "collection_times": "Mo-Fr 15:30; Sa 11:30", "name": "USPS COLLECTION BOX - BLUE BOX", "note": "ON 12/24 AND 12/31, THIS BOX MAY BE COLLECTED AS EARLY AS 12 NOON.", "ref": "7206900002"}, "type": "Feature"}
{"geometry": {"coordinates": [-91.199846012, 34.595102009], "type": "Point"}, "id": "8Ftk4NbCbv5BsS3JkYY6aN_bRjk=", "properties": {"@spider": "usps_collection_boxes", "addr:city": "HOLLY GROVE", "addr:country": "US", "addr:full": "169 E RALPH ABRAMSON ST", "addr:postcode": "72069", "addr:state": "AR", "brand": "USPS", "collection_times": "Mo-Fr 15:30; Sa 11:30", "name": "USPS COLLECTION BOX - PO LOBBY", "note": "ON 12/24 AND 12/31, THIS BOX MAY BE COLLECTED AS EARLY AS 12 NOON.", "ref": "7206900003"}, "type": "Feature"}
{"geometry": {"coordinates": [-91.199846012, 34.595102009], "type": "Point"}, "id": "wSE5N4ZxvIiobkpfbUbP_4xgDTA=", "properties": {"@spider": "usps_collection_boxes", "addr:city": "HOLLY GROVE", "addr:country": "US", "addr:full": "169 E RALPH ABRAMSON ST", "addr:postcode": "72069", "addr:state": "AR", "brand": "USPS", "collection_times": "Mo-Fr 15:30; Sa 11:30", "name": "USPS COLLECTION BOX - PO LOBBY", "note": "ON 12/24 AND 12/31, THIS BOX MAY BE COLLECTED AS EARLY AS 12 NOON.", "ref": "7206900004"}, "type": "Feature"}
{"geometry": {"coordinates": [-92.695117, 35.034165], "type": "Point"}, "id": "2o45Vk0nOiqNjzLdQ0i43IB0QSk=", "properties": {"@spider": "usps_collection_boxes", "addr:city": "HOUSTON", "addr:country": "US", "addr:full": "2087 HIGHWAY 60 E STE A", "addr:postcode": "72070", "addr:state": "AR", "brand": "USPS", "collection_times": "Mo-Fr 11:30; Sa 10:00", "name": "USPS COLLECTION BOX - PO LOBBY", "ref": "7207000002"}, "type": "Feature"}
{"geometry": {"coordinates": [-92.695117, 35.034165], "type": "Point"}, "id": "zTCq15Mx-_nxRF0avDpDrb7UmE4=", "properties": {"@spider": "usps_collection_boxes", "addr:city": "HOUSTON", "addr:country": "US", "addr:full": "2087 HIGHWAY 60 E STE A", "addr:postcode": "72070", "addr:state": "AR", "brand": "USPS", "collection_times": "Mo-Fr 11:30; Sa 10:00", "name": "USPS COLLECTION BOX - BLUE BOX", "ref": "7207000003"}, "type": "Feature"}
{"geometry": {"coordinates": [-92.695107137, 35.034148122], "type": "Point"}, "id": "CDiAFFnLMWSFYaDg3E7VFSYbBSI=", "properties": {"@spider": "usps_collection_boxes", "addr:city": "HOUSTON", "addr:country": "US", "addr:full": "2087 HIGHWAY 60 E STE A", "addr:postcode": "72070", "addr:state": "AR", "brand": "USPS", "collection_times": "Mo-Fr 11:30; Sa 10:00", "name": "USPS COLLECTION BOX - PO LOBBY", "ref": "7207000006"}, "type": "Feature"}
{"geometry": {"coordinates": [-91.708129985, 34.421860014], "type": "Point"}, "id": "WqVKNPxdOeq5mQDUrDmVrXNny7I=", "properties": {"@spider": "usps_collection_boxes", "addr:city": "HUMPHREY", "addr:country": "US", "addr:full": "100 N MULBERRY ST", "addr:postcode": "72073", "addr:state": "AR", "brand": "USPS", "collection_times": "Mo-Fr 15:30; Sa 11:00", "name": "USPS COLLECTION BOX - BLUE BOX", "note": "ON 12/24 AND 12/31, THIS BOX MAY BE COLLECTED AS EARLY AS 12 NOON.", "ref": "7207300001"}, "type": "Feature"}
{"geometry": {"coordinates": [-91.708129985, 34.421860014], "type": "Point"}, "id": "CAaH9JU_s38Q49uK8BII0kWPfS8=", "properties": {"@spider": "usps_collection_boxes", "addr:city": "HUMPHREY", "addr:country": "US", "addr:full": "100 N MULBERRY ST", "addr:postcode": "72073", "addr:state": "AR", "brand": "USPS", "collection_times": "Mo-Fr 15:30; Sa 11:00", "name": "USPS COLLECTION BOX - PO LOBBY", "note": "ON 12/24 AND 12/31, THIS BOX MAY BE COLLECTED AS EARLY AS 12 NOON.", "ref": "7207300002"}, "type": "Feature"}
{"geometry": {"coordinates": [-91.708129985, 34.421860014], "type": "Point"}, "id": "FdLR5mX6lgL_6VOzjrlvlEaw5-A=", "properties": {"@spider": "usps_collection_boxes", "addr:city": "HUMPHREY", "addr:country": "US", "addr:full": "100 N MULBERRY ST", "addr:postcode": "72073", "addr:state": "AR", "brand": "USPS", "collection_times": "Mo-Fr 15:30; Sa 11:00", "name": "USPS COLLECTION BOX - PO LOBBY", "note": "ON 12/24 AND 12/31, THIS BOX MAY BE COLLECTED AS EARLY AS 12 NOON.", "ref": "7207300004"},