{"geometry": {"coordinates": [-104.992053, 39.750885], "type": "Point"}, "id": "aHzLfeq20wBQh9mKGJHaOPMeuxk=", "properties": {"@spider": "usps_collection_boxes", "addr:city": "DENVER", "addr:country": "US", "addr:full": "1955 ARAPAHOE ST", "addr:postcode": "80202", "addr:state": "CO", "brand": "USPS", "collection_times": "Mo-Fr 14:30; Sa 15:00", "name": "USPS COLLECTION BOX - BLUE BOX", "note": "ON 12/24 AND 12/31, THIS BOX MAY BE COLLECTED AS EARLY AS 12 NOON.", "ref": "8020200002"}, "type": "Feature"}
{"geometry": {"coordinates": [-104.993021, 39.747446], "type": "Point"}, "id": "qmh3ofjp5UKNtijlNkQh3Cg2EXo=", "properties": {"@spider": "usps_collection_boxes", "addr:city": "DENVER", "addr:country": "US", "addr:full": "1658 CHAMPA ST", "addr:postcode": "80202", "addr:state": "CO", "brand": "USPS", "collection_times": "Mo-Fr 15:45; Sa 10:00", "name": "USPS COLLECTION BOX - BLUE BOX", "note": "ON 12/24 AND 12/31, THIS BOX MAY BE COLLECTED AS EARLY AS 12 NOON.", "ref": "8020200024"}, "type": "Feature"}
{"geometry": {"coordinates": [-105.000479, 39.748154], "type": "Point"}, "id": "9TR8j5WQpWk76DN4u-KqLqMwhZ4=", "properties": {"@spider": "usps_collection_boxes", "addr:city": "DENVER", "addr:country": "US", "addr:full": "1400 MARKET ST", "addr:postcode": "80202", "addr:state": "CO", "brand": "USPS", "collection_times": "Mo-Fr 15:15; Sa 10:45", "name": "USPS COLLECTION BOX - BLUE BOX", "note": "ON 12/24 AND 12/31, THIS BOX MAY BE COLLECTED AS EARLY AS 12 NOON.", "ref": "8020200049"}, "type": "Feature"}
{"geometry": {"coordinates": [-104.998404177, 39.7498737086], "type": "Point"}, "id": "mk2CJ1UHB_eCS50bnuKj1m8JJUM=", "properties": {"@spider": "usps_collection_boxes", "addr:city": "DENVER", "addr:country": "US", "addr:full": "1400 16TH ST", "addr:postcode": "80202", "addr:state": "CO", "brand": "USPS", "collection_times": "Mo-Fr 17:00; Sa 10:45", "name": "USPS COLLECTION BOX - BLUE BOX", "note": "ON 12/24 AND 12/31, THIS BOX MAY BE COLLECTED AS EARLY AS 12 NOON.", "ref": "8020200050"}, "type": "Feature"}
{"geometry": {"coordinates": [-104.991004, 39.747447], "type": "Point"}, "id": "25L7qJ8Nya17GqVyi4Bha-9dNMo=", "properties": {"@spider": "usps_collection_boxes", "addr:city": "DENVER", "addr:country": "US", "addr:full": "1745 STOUT ST", "addr:postcode": "80202", "addr:state": "CO", "brand": "USPS", "collection_times": "Mo-Fr 15:45", "name": "USPS COLLECTION BOX - EXPRESS", "note": "ON 12/24 AND 12/31, THIS BOX MAY BE COLLECTED AS EARLY AS 12 NOON.", "ref": "8020200056"}, "type": "Feature"}
{"geometry": {"coordinates": [-104.996317, 39.754121], "type": "Point"}, "id": "RGmkga5sqmXj8jMCTyoimumlNnY=", "properties": {"@spider": "usps_collection_boxes", "addr:city": "DENVER", "addr:country": "US", "addr:full": "1900 WAZEE ST", "addr:postcode": "80202", "addr:state": "CO", "brand": "USPS", "collection_times": "Mo-Fr 17:00; Sa 12:15", "name": "USPS COLLECTION BOX - BLUE BOX", "note": "ON 12/24 AND 12/31, THIS BOX MAY BE COLLECTED AS EARLY AS 12 NOON.", "ref": "8020200061"}, "type": "Feature"}
{"geometry": {"coordinates": [-104.9892255, 39.751056], "type": "Point"}, "id": "854Hl6VZdNDNpuHEC4Hd8auGXiQ=", "properties": {"@spider": "usps_collection_boxes", "addr:city": "DENVER", "addr:country": "US", "addr:full": "951 20TH ST", "addr:postcode": "80202", "addr:state": "CO", "brand": "USPS", "collection_times": "Mo-Sa 18:00", "name": "USPS COLLECTION BOX - EXPRESS", "note": "ON 12/24 AND 12/31, THIS BOX MAY BE COLLECTED AS EARLY AS 12 NOON.", "ref": "8020200101"}, "type": "Feature"}
{"geometry": {"coordinates": [-104.998862, 39.750709], "type": "Point"}, "id": "vSEqS5wbj6cQcLB8Euc6869dq40=", "properties": {"@spider": "usps_collection_boxes", "addr:city": "DENVER", "addr:country": "US", "addr:full": "1601 BLAKE ST", "addr:postcode": "80202", "addr:state": "CO", "brand": "USPS", "collection_times": "Mo-Fr 16:30", "name": "USPS COLLECTION BOX - BLUE BOX", "note": "ON 12/24 AND 12/31, THIS BOX MAY BE COLLECTED AS EARLY AS 12 NOON.", "ref": "8020200120"}, "type": "Feature"}
{"geometry": {"coordinates": [-104.9869665, 39.742065], "type": "Point"}, "id": "087iMdfrC6HBudyTaPHyU5QVLRI=", "properties": {"@spider": "usps_collection_boxes", "addr:city": "DENVER", "addr:country": "US", "addr:full": "1600 BROADWAY", "addr:postcode": "80202", "addr:state": "CO", "brand": "USPS", "collection_times": "Mo-Fr 16:45; Sa 14:15", "name": "USPS COLLECTION BOX - BLUE BOX", "note": "ON 12/24 AND 12/31, THIS BOX MAY BE COLLECTED AS EARLY AS 12 NOON.", "ref": "8020200124"}, "type": "Feature"}
{"geometry": {"coordinates": [-104.992021, 39.745269], "type": "Point"}, "id": "ZRiwsGYKZ4D1BZ9K-Jcu40UYVtc=", "properties": {"@spider": "usps_collection_boxes", "addr:city": "DENVER", "addr:country": "US", "addr:full": "701 16TH ST", "addr:postcode": "80202", "addr:state": "CO", "brand": "USPS", "collection_times": "Mo-Fr 16:45; Sa 14:00", "name": "USPS COLLECTION BOX - BLUE BOX", "note": "ON 12/24 AND 12/31, THIS BOX MAY BE COLLECTED AS EARLY AS 12 NOON.", "ref": "8020200136"}, "type": "Feature"}
{"geometry": {"coordinates": [-104.991875884, 39.746901807], "type": "Point"}, "id": "yEkiYtYclntJ08lll02cxqG6AMw=", "properties": {"@spider": "usps_collection_boxes", "addr:city": "DENVER", "addr:country": "US", "addr:full": "807 17TH ST", "addr:postcode": "80202", "addr:state": "CO", "brand": "USPS", "collection_times": "Mo-Fr 16:30; Sa 10:00", "name": "USPS COLLECTION BOX - BLUE BOX", "note": "ON 12/24 AND 12/31, THIS BOX MAY BE COLLECTED AS EARLY AS 12 NOON.", "ref": "8020200139"}, "type": "Feature"}
{"geometry": {"coordinates": [-104.99773, 39.749111], "type": "Point"}, "id": "fW1FPPIPax5NTFIXXToEXlXqsmM=", "properties": {"@spider": "usps_collection_boxes", "addr:city": "DENVER", "addr:country": "US", "addr:full": "1512 LARIMER ST", "addr:postcode": "80202", "addr:state": "CO", "brand": "USPS", "collection_times": "Mo-Fr 16:00", "name": "USPS COLLECTION BOX - BLUE BOX", "note": "ON 12/24 AND 12/31, THIS BOX MAY BE COLLECTED AS EARLY AS 12 NOON.", "ref": "8020200146"}, "type": "Feature"}
{"geometry": {"coordinates": [-104.997679, 39.749141], "type": "Point"}, "id": "qYu2mDQx0uLEq7JBTY9qVz3aHIA=", "properties": {"@spider": "usps_collection_boxes", "addr:city": "DENVER", "addr:country": "US", "addr:full": "1512 LARIMER ST", "addr:postcode": "80202", "addr:state": "CO", "brand": "USPS", "collection_times": "Mo-Fr 16:00", "name": "USPS COLLECTION BOX - BLUE BOX", "note": "ON 12/24 AND 12/31, THIS BOX MAY BE COLLECTED AS EARLY AS 12 NOON.", "ref": "8020200148"}, "type": "Feature"}
{"geometry": {"coordinates": [-104.998404177, 39.7498737086], "type": "Point"}, "id": "y_qL3DfBaiCVzKYY6MKAaz4hviI=", "properties": {"@spider": "usps_collection_boxes", "addr:city": "DENVER", "addr:country": "US", "addr:full": "1400 16TH ST", "addr:postcode": "80202", "addr:state": "CO", "brand": "USPS", "collection_times": "Mo-Fr 17:00; Sa 10:45", "name": "USPS COLLECTION BOX - BLUE BOX", "note": "ON 12/24 AND 12/31, THIS BOX MAY BE COLLECTED AS EARLY AS 12 NOON.", "ref": "8020200152"}, "type": "Feature"}
{"geometry": {"coordinates": [-104.995674, 39.746083], "type": "Point"}, "id": "C-Oe850u2gva3Luo0kHo_ed2EW4=", "properties": {"@spider": "usps_collection_boxes", "addr:city": "DENVER", "addr:country": "US", "addr:full": "930 15TH ST", "addr:postcode": "80202", "addr:state": "CO", "brand": "USPS", "collection_times": "Mo-Fr 17:00; Sa 10:00", "name": "USPS COLLECTION BOX - BLUE BOX", "note": "ON 12/24 AND 12/31, THIS BOX MAY BE COLLECTED AS EARLY AS 12 NOON.", "ref": "8020200160"}, "type": "Feature"}
{"geometry": {"coordinates": [-104.990332, 39.745659], "type": "Point"}, "id": "YUOCMznMD8jX6fQz41sF4zcY3Jw=", "properties": {"@spider": "usps_collection_boxes", "addr:city": "DENVER", "addr:country": "US", "addr:full": "621 17TH ST", "addr:postcode": "80202", "addr:state": "CO", "brand": "USPS", "collection_times": "Mo-Fr 16:45; Sa 13:15", "name": "USPS COLLECTION BOX - BLUE BOX", "note": "ON 12/24 AND 12/31, THIS BOX MAY BE COLLECTED AS EARLY AS 12 NOON.", "ref": "8020200183"}, "type": "Feature"}
{"geometry": {"coordinates": [-104.9892255, 39.751056], "type": "Point"}, "id": "WUteNIRpY-Gv3rLs_l5Vw_-fgdw=", "properties": {"@spider": "usps_collection_boxes", "addr:city": "DENVER", "addr:country": "US", "addr:full": "951 20TH ST", "addr:postcode": "80202", "addr:state": "CO", "brand": "USPS", "collection_times": "Mo-Sa 18:00", "name": "USPS COLLECTION BOX - BLUE BOX", "note": "ON 12/24 AND 12/31, THIS BOX MAY BE COLLECTED AS EARLY AS 12 NOON.", "ref": "8020200192"}, "type": "Feature"}
{"geometry": {"coordinates": [-104.9892255, 39.751056], "type": "Point"}, "id": "JOBdmP4icC68eCHUhiRWSMfD33o=", "properties": {"@spider": "usps_collection_boxes", "addr:city": "DENVER", "addr:country": "US", "addr:full": "951 20TH ST", "addr:postcode": "80202", "addr:state": "CO", "brand": "USPS", "collection_times": "Mo-Sa 18:00", "name": "USPS COLLECTION BOX - BLUE BOX", "note": "ON 12/24 AND 12/31, THIS BOX MAY BE COLLECTED AS EARLY AS 12 NOON.", "ref": "8020200193"}, "type": "Feature"}
{"geometry": {"coordinates": [-104.991532, 39.746773], "type": "Point"}, "id": "0hafOA6FVds98xIJpesb-_LuAvw=", "properties": {"@spider": "usps_collection_boxes", "addr:city": "DENVER", "addr:country": "US", "addr:full": "730 17TH ST", "addr:postcode": "80202", "addr:state": "CO", "brand": "USPS", "collection_times": "Mo-Fr 17:00", "name": "USPS COLLECTION BOX - BLUE BOX", "note": "ON 12/24 AND 12/31, THIS BOX MAY BE COLLECTED AS EARLY AS 12 NOON.", "ref": "8020200268"}, "type": "Feature"}
{"geometry": {"coordinates": [-104.9869665, 39.742065], "type": "Point"}, "id": "lwLiIVe1zSWt2r3UlV6FxwQfGL0=", "properties": {"@spider": "usps_collection_boxes", "addr:city": "DENVER", "addr:country": "US", "addr:full": "1600 BROADWAY", "addr:postcode": "80202", "addr:state": "CO", "brand": "USPS", "collection_times": "Mo-Fr 16:45; Sa 14:15", "name": "USPS COLLECTION BOX - BLUE BOX", "note": "ON 12/24 AND 12/31, THIS BOX MAY BE COLLECTED AS EARLY AS 12 NOON.", "ref": "8020200294"}, "type": "Feature"}
{"geometry": {"coordinates": [-105.000459, 39.748141], "type": "Point"}, "id": "noCvSCPPJ0sCut-8CYurLITeNYk=", "properties": {"@spider": "usps_collection_boxes", "addr:city": "DENVER", "addr:country": "US", "addr:full": "1400 MARKET ST", "addr:postcode": "80202", "addr:state": "CO", "brand": "USPS", "collection_times": "Mo-Fr 15:15; Sa 10:45", "name": "USPS COLLECTION BOX - BLUE BOX", "note": "ON 12/24 AND 12/31, THIS BOX MAY BE COLLECTED AS EARLY AS 12 NOON.", "ref": "8020200296"}, "type": "Feature"}
{"geometry": {"coordinates": [-104.996326, 39.754167], "type": "Point"}, "id": "vvP26hv1S9VWIgbHpPfYKqgKwgI=", "properties": {"@spider": "usps_collection_boxes", "addr:city": "DENVER", "addr:country": "US", "addr:full": "1900 WAZEE ST", "addr:postcode": "80202", "addr:state": "CO", "brand": "USPS", "collection_times": "Mo-Fr 17:00; Sa 12:15", "name": "USPS COLLECTION BOX - BLUE BOX", "note": "ON 12/24 AND 12/31, THIS BOX MAY BE COLLECTED AS EARLY AS 12 NOON.", "ref": "8020200314"}, "type": "Feature"}
{"geometry": {"coordinates": [-104.9892255, 39.751056], "type": "Point"}, "id": "6Rcag8Hx80_eIXmtEQ2Klo2RMb8=", "properties": {"@spider": "usps_collection_boxes", "addr:city": "DENVER", "addr:country": "US", "addr:full": "951 20TH ST", "addr:postcode": "80202", "addr:state": "CO", "brand": "USPS", "collection_times": "Mo-Sa 18:00", "name": "USPS COLLECTION BOX - PO LOBBY", "note": "ON 12/24 AND 12/31, THIS BOX MAY BE COLLECTED AS EARLY AS 12 NOON.", "ref": "8020200324"}, "type": "Feature"}
{"geometry": {"coordinates": [-104.9892255, 39.751056], "type": "Point"}, "id": "kA0Q-t3eqaRVwRkjnpFUTLHJl44=", "properties": {"@spider": "usps_collection_boxes", "addr:city": "DENVER", "addr:country": "US", "addr:full": "951 20TH ST", "addr:postcode": "80202", "addr:state": "CO", "brand": "USPS", "collection_times": "Mo-Sa 18:00", "name": "USPS COLLECTION BOX - PO LOBBY", "note": "ON 12/24 AND 12/31, THIS BOX MAY BE COLLECTED AS EARLY AS 12 NOON.", "ref": "8020200325"}, "type": "Feature"}
{"geometry": {"coordinates": [-104.996334, 39.752346007], "type": "Point"}, "id": "RWHakqvkzhfePoDG9WIB6nqOchM=", "properties": {"@spider": "usps_collection_boxes", "addr:city": "DENVER", "addr:country": "US", "addr:full": "1441 18TH ST", "addr:postcode": "80202", "addr:state": "CO", "brand": "USPS", "collection_times": "Mo-Fr 17:00; Sa 12:15", "name": "USPS COLLECTION BOX - BLUE BOX", "note": "ON 12/24 AND 12/31, THIS BOX MAY BE COLLECTED AS EARLY AS 12 NOON.", "ref": "8020200328"}, "type": "Feature"}
{"geometry": {"coordinates": [-105.001829, 39.749774], "type": "Point"}, "id": "pv3i19q7ugvpyAcBMZQelzAmvWQ=", "properties": {"@spider": "usps_collection_boxes", "addr:city": "DENVER", "addr:country": "US", "addr:full": "1444 WAZEE ST", "addr:postcode": "80202", "addr:state": "CO", "brand": "USPS", "collection_times": "Mo-Fr 16:00; Sa 12:45", "name": "USPS COLLECTION BOX - BLUE BOX", "note": "ON 12/24 AND 12/31, THIS BOX MAY BE COLLECTED AS EARLY AS 12 NOON.", "ref": "8020200332"}, "type": "Feature"}
{"geometry": {"coordinates": [-104.997619, 39.754383], "type": "Point"}, "id": "wqreLB1LP9vM1nZ6_OSBbd4yA0I=", "properties": {"@spider": "usps_collection_boxes", "addr:city": "DENVER", "addr:country": "US", "addr:full": "1899 WYNKOOP ST", "addr:postcode": "80202", "addr:state": "CO", "brand": "USPS", "collection_times": "Mo-Fr 15:45", "name": "USPS COLLECTION BOX - BLUE BOX", "note": "ON 12/24 AND 12/31, THIS BOX MAY BE COLLECTED AS EARLY AS 12 NOON.", "ref": "8020200370"}, "type": "Feature"}
{"geometry": {"coordinates": [-104.999344, 39.75176], "type": "Point"}, "id": "dh7NVDTzbQZZQA00-ICzqBw7Hqc=", "properties": {"@spider": "usps_collection_boxes", "addr:city": "DENVER", "addr:country": "US", "addr:full": "1628 WAZEE ST", "addr:postcode": "80202", "addr:state": "CO", "brand": "USPS", "collection_times": "Mo-Fr 16:00; Sa 12:45", "name": "USPS COLLECTION BOX - BLUE BOX", "note": "ON 12/24 AND 12/31, THIS BOX MAY BE COLLECTED AS EARLY AS 12 NOON.", "ref": "8020200373"}, "type": "Feature"}
{"geometry": {"coordinates": [-104.996334, 39.752346007], "type": "Point"}, "id": "nQwxfzJXNKC01G00VHvtrvwq8zg=", "properties": {"@spider": "usps_collection_boxes", "addr:city": "DENVER", "addr:country": "US", "addr:full": "1441 18TH ST", "addr:postcode": "80202", "addr:state": "CO", "brand": "USPS", "collection_times": "Mo-Fr 17:00; Sa 12:15", "name": "USPS COLLECTION BOX - BLUE BOX", "note": "ON 12/24 AND 12/31, THIS BOX MAY BE COLLECTED AS EARLY AS 12 NOON.", "ref": "8020200374"}, "type": "Feature"}
{"geometry": {"coordinates": [-104.9897559662, 39.7447769808], "type": "Point"}, "id": "QN_FU41cT6kmWGcSguplrQGyNWc=", "properties": {"@spider": "usps_collection_boxes", "addr:city": "DENVER", "addr:country": "US", "addr:full": "518 17TH ST", "addr:postcode": "80202", "addr:state": "CO", "brand": "USPS", "collection_times": "Mo-Fr 15:45; Sa 13:15", "name": "USPS COLLECTION BOX - BLUE BOX", "note": "ON 12/24 AND 12/31, THIS BOX MAY BE COLLECTED AS EARLY AS 12 NOON.", "ref": "8020200380"}, "type": "Feature"}
{"geometry": {"coordinates": [-104.989887, 39.744982], "type": "Point"}, "id": "eAQEXfNqdEPsvrINUrS3ErXOaK4=", "properties": {"@spider": "usps_collection_boxes", "addr:city": "DENVER", "addr:country": "US", "addr:full": "518 17TH ST", "addr:postcode": "80202", "addr:state": "CO", "brand": "USPS", "collection_times": "Mo-Fr 15:45; Sa 13:15", "name": "USPS COLLECTION BOX - BLUE BOX", "note": "ON 12/24 AND 12/31, THIS BOX MAY BE COLLECTED AS EARLY AS 12 NOON.", "ref": "8020200381"}, "type": "Feature"}
{"geometry": {"coordinates": [-104.991721, 39.746757], "type": "Point"}, "id": "jwCvZa4iNexR7BO63OsCPp1Un4Y=", "properties": {"@spider": "usps_collection_boxes", "addr:city": "DENVER", "addr:country": "US", "addr:full": "730 17TH ST", "addr:postcode": "80202", "addr:state": "CO", "brand": "USPS", "collection_times": "Mo-Fr 17:00", "name": "USPS COLLECTION BOX - BLUE BOX", "note": "ON 12/24 AND 12/31, THIS BOX MAY BE COLLECTED AS EARLY AS 12 NOON.", "ref": "8020200392"}, "type": "Feature"}
{"geometry": {"coordinates": [-104.9892255, 39.751056], "type": "Point"}, "id": "0Dn2K55jDp0g7JKjBQsd_GKk63Y=", "properties": {"@spider": "usps_collection_boxes", "addr:city": "DENVER", "addr:country": "US", "addr:full": "951 20TH ST", "addr:postcode": "80202", "addr:state": "CO", "brand": "USPS", "collection_times": "Mo-Sa 18:00", "name": "USPS COLLECTION BOX - APC", "note": "ON 12/24 AND 12/31, THIS BOX MAY BE COLLECTED AS EARLY AS 12 NOON.", "ref": "8020200393"}, "type": "Feature"}
{"geometry": {"coordinates": [-104.997599, 39.754382], "type": "Point"}, "id": "3zMxSaX3x6tsIGeFMsSIvOgSHu8=", "properties": {"@spider": "usps_collection_boxes", "addr:city": "DENVER", "addr:country": "US", "addr:full": "1899 WYNKOOP ST", "addr:postcode": "80202", "addr:state": "CO", "brand": "USPS", "collection_times": "Mo-Fr 15:45", "name": "USPS COLLECTION BOX - BLUE BOX", "note": "ON 12/24 AND 12/31, THIS BOX MAY BE COLLECTED AS EARLY AS 12 NOON.", "ref": "8020200394"}, "type": "Feature"}
{"geometry": {"coordinates": [-104.991774, 39.746867], "type": "Point"}, "id": "w9BlFvfsCBfQmm85QVYi3EPyeTg=", "properties": {"@spider": "usps_collection_boxes", "addr:city": "DENVER", "addr:country": "US", "addr:full": "730 17TH ST", "addr:postcode": "80202", "addr:state": "CO", "brand": "USPS", "collection_times": "Mo-Fr 17:00", "name": "USPS COLLECTION BOX - BLUE BOX", "note": "ON 12/24 AND 12/31, THIS BOX MAY BE COLLECTED AS EARLY AS 12 NOON.", "ref": "8020200396"}, "type": "Feature"}
{"geometry": {"coordinates": [-104.998943, 39.750741], "type": "Point"}, "id": "BlQ-lpHUznZn8mOh5wGyhL1rgzY=", "properties": {"@spider": "usps_collection_boxes", "addr:city": "DENVER", "addr:country": "US", "addr:full": "1601 BLAKE ST", "addr:postcode": "80202", "addr:state": "CO", "brand": "USPS", "collection_times": "Mo-Fr 16:30", "name": "USPS COLLECTION BOX - BLUE BOX", "note": "ON 12/24 AND 12/31, THIS BOX MAY BE COLLECTED AS EARLY AS 12 NOON.", "ref": "8020200397"}, "type": "Feature"}
{"geometry": {"coordinates": [-104.993862958, 39.750549727], "type": "Point"}, "id": "4RFI7metMo25gGn6VxzagsA3deo=", "properties": {"@spider": "usps_collection_boxes", "addr:city": "DENVER", "addr:country": "US", "addr:full": "1800 LAWRENCE ST", "addr:postcode": "80202", "addr:state": "CO", "brand": "USPS", "collection_times": "Mo-Fr 14:45", "name": "USPS COLLECTION BOX - BLUE BOX", "note": "ON 12/24 AND 12/31, THIS BOX MAY BE COLLECTED AS EARLY AS 12 NOON.", "ref": "8020200401"}, "type": "Feature"}
{"geometry": {"coordinates": [-105.001851, 39.749764], "type": "Point"}, "id": "KB99XCLBWQCh4MeIDxogYyRWlcA=", "properties": {"@spider": "usps_collection_boxes", "addr:city": "DENVER", "addr:country": "US", "addr:full": "1444 WAZEE ST", "addr:postcode": "80202", "addr:state": "CO", "brand": "USPS", "collection_times": "Mo-Fr 16:00; Sa 12:45", "name": "USPS COLLECTION BOX - BLUE BOX", "note": "ON 12/24 AND 12/31, THIS BOX MAY BE COLLECTED AS EARLY AS 12 NOON.", "ref": "8020200403"}, "type": "Feature"}
{"geometry": {"coordinates": [-105.0003647567, 39.7522755484], "type": "Point"}, "id": "RTC73xcsFOm8q5eonP1uCS16h0s=", "properties": {"@spider": "usps_collection_boxes", "addr:city": "DENVER", "addr:country": "US", "addr:full": "1660 WYNKOOP ST", "addr:postcode": "80202", "addr:state": "CO", "brand": "USPS", "collection_times": "Mo-Fr 16:45; Sa 14:45", "name": "USPS COLLECTION BOX - BLUE BOX", "note": "ON 12/24 AND 12/31, THIS BOX MAY BE COLLECTED AS EARLY AS 12 NOON.", "ref": "8020200411"}, "type": "Feature"}
{"geometry": {"coordinates": [-104.998093914, 39.747761801], "type": "Point"}, "id": "uJ_Ja4yOv0zTSlfSqBOm-Vit1Lw=", "properties": {"@spider": "usps_collection_boxes", "addr:city": "DENVER", "addr:country": "US", "addr:full": "1234 15TH ST", "addr:postcode": "80202", "addr:state": "CO", "brand": "USPS", "collection_times": "Mo-Fr 16:30; Sa 10:30", "name": "USPS COLLECTION BOX - BLUE BOX", "note": "ON 12/24 AND 12/31, THIS BOX MAY BE COLLECTED AS EARLY AS 12 NOON.", "ref": "8020200412"}, "type": "Feature"}
{"geometry": {"coordinates": [-104.998093914, 39.747761801], "type": "Point"}, "id": "OxylUGKnutHequCuofrJnlR6Czk=", "properties": {"@spider": "usps_collection_boxes", "addr:city": "DENVER", "addr:country": "US", "addr:full": "1234 15TH ST", "addr:postcode": "80202", "addr:state": "CO", "brand": "USPS", "collection_times": "Mo-Fr 16:30; Sa 10:30", "name": "USPS COLLECTION BOX - BLUE BOX", "note": "ON 12/24 AND 12/31, THIS BOX MAY BE COLLECTED AS EARLY AS 12 NOON.", "ref": "8020200413"}, "type": "Feature"}
{"geometry": {"coordinates": [-104.987614, 39.722817], "type": "Point"}, "id": "T7Y8u0dGBGkg5euKQVoFnjgupfo=", "properties": {"@spider": "usps_collection_boxes", "addr:city": "DENVER", "addr:country": "US", "addr:full": "421 BROADWAY", "addr:postcode": "80203", "addr:state": "CO", "brand": "USPS", "collection_times": "Mo-Fr 11:00; Sa 12:30", "name": "USPS COLLECTION BOX - BLUE BOX", "note": "ON 12/24 AND 12/31, THIS BOX MAY BE COLLECTED AS EARLY AS 12 NOON.", "ref": "8020300003"}, "type": "Feature"}
{"geometry": {"coordinates": [-104.987817, 39.731832], "type": "Point"}, "id": "JWZdpCtpSYxEpt7mOVdP_F2ZDys=", "properties": {"@spider": "usps_collection_boxes", "addr:city": "DENVER", "addr:country": "US", "addr:full": "969 N BROADWAY", "addr:postcode": "80203", "addr:state": "CO", "brand": "USPS", "collection_times": "Mo-Fr 14:00; Sa 12:20", "name": "USPS COLLECTION BOX - BLUE BOX", "note": "ON 12/24 AND 12/31, THIS BOX MAY BE COLLECTED AS EARLY AS 12 NOON.", "ref": "8020300006"}, "type": "Feature"}
{"geometry": {"coordinates": [-104.98328, 39.73045], "type": "Point"}, "id": "4WbxAkjP8WWGdmXTKP9sNwlrg1g=", "properties": {"@spider": "usps_collection_boxes", "addr:city": "DENVER", "addr:country": "US", "addr:full": "300 E 9TH AVE", "addr:postcode": "80203", "addr:state": "CO", "brand": "USPS", "collection_times": "Mo-Fr 12:30; Sa 14:10", "name": "USPS COLLECTION BOX - BLUE BOX", "note": "ON 12/24 AND 12/31, THIS BOX MAY BE COLLECTED AS EARLY AS 12 NOON.", "ref": "8020300016"}, "type": "Feature"}
{"geometry": {"coordinates": [-104.983519, 39.738587], "type": "Point"}, "id": "8R1XDpz8KgHQO65FCzqhNtkkU3o=", "properties": {"@spider": "usps_collection_boxes", "addr:city": "DENVER", "addr:country": "US", "addr:full": "1410 GRANT ST", "addr:postcode": "80203", "addr:state": "CO", "brand": "USPS", "collection_times": "Mo-Fr 11:30; Sa 13:00", "name": "USPS COLLECTION BOX - BLUE BOX", "note": "ON 12/24 AND 12/31, THIS BOX MAY BE COLLECTED AS EARLY AS 12 NOON.", "ref": "8020300019"}, "type": "Feature"}
{"geometry": {"coordinates": [-104.986135, 39.73068], "type": "Point"}, "id": "tBq1NQVKH6IZoXraWjGPoNP10cA=", "properties": {"@spider": "usps_collection_boxes", "addr:city": "DENVER", "addr:country": "US", "addr:full": "900 LINCOLN ST", "addr:postcode": "80203", "addr:state": "CO", "brand": "USPS", "collection_times": "Mo-Fr 13:45; Sa 13:50", "name": "USPS COLLECTION BOX - BLUE BOX", "note": "ON 12/24 AND 12/31, THIS BOX MAY BE COLLECTED AS EARLY AS 12 NOON.", "ref": "8020300024"}, "type": "Feature"}
{"geometry": {"coordinates": [-104.9857515, 39.733596], "type": "Point"}, "id": "7xVDK74-AAcfGpzSMLXmFL_FPm0=", "properties": {"@spider": "usps_collection_boxes", "addr:city": "DENVER", "addr:country": "US", "addr:full": "1090 LINCOLN ST", "addr:postcode": "80203", "addr:state": "CO", "brand": "USPS", "collection_times": "Mo-Fr 11:30; Sa 13:55", "name": "USPS COLLECTION BOX - BLUE BOX", "note": "ON 12/24 AND 12/31, THIS BOX MAY BE COLLECTED AS EARLY AS 12 NOON.", "ref": "8020300025"}, "type": "Feature"}
{"geometry": {"coordinates": [-104.9854589836, 39.7365850116], "type": "Point"}, "id": "sAazCbHEI3j6Zy4VHj9C9-qMPcY=", "properties": {"@spider": "usps_collection_boxes", "addr:city": "DENVER", "addr:country": "US", "addr:full": "1278 LINCOLN ST", "addr:postcode": "80203", "addr:state": "CO", "brand": "USPS", "collection_times": "Mo-Fr 12:30", "name": "USPS COLLECTION BOX - BLUE BOX", "note": "ON 12/24 AND 12/31, THIS BOX MAY BE COLLECTED AS EARLY AS 12 NOON.", "ref": "8020300027"}, "type": "Feature"}
{"geometry": {"coordinates": [-104.9860542043, 39.7436488226], "type": "Point"}, "id": "y133tujD3aHyFQfI4fozbDbWT5s=", "properties": {"@spider": "usps_collection_boxes", "addr:city": "DENVER", "addr:country": "US", "addr:full": "1740 N LINCOLN ST", "addr:postcode": "80203", "addr:state": "CO", "brand": "USPS", "collection_times": "Mo-Fr 17:00; Sa 09:45", "name": "USPS COLLECTION BOX - BLUE BOX", "note": "ON 12/24 AND 12/31, THIS BOX MAY BE COLLECTED AS EARLY AS 12 NOON.", "ref": "8020300033"}, "type": "Feature"}
{"geometry": {"coordinates": [-104.982647, 39.729814], "type": "Point"}, "id": "qO6etYvsLuvPEN3gmSzmCBoCPTI=", "properties": {"@spider": "usps_collection_boxes", "addr:city": "DENVER", "addr:country": "US", "addr:full": "899 LOGAN ST", "addr:postcode": "80203", "addr:state": "CO", "brand": "USPS", "collection_times": "Mo-Fr 12:30; Sa 12:00", "name": "USPS COLLECTION BOX - BLUE BOX", "note": "ON 12/24 AND 12/31, THIS BOX MAY BE COLLECTED AS EARLY AS 12 NOON.", "ref": "8020300036"}, "type": "Feature"}
{"geometry": {"coordinates": [-104.982310045, 39.738129905], "type": "Point"}, "id": "Lslh7YhrlCZmrw0xrbi0kKNKIkA=", "properties": {"@spider": "usps_collection_boxes", "addr:city": "DENVER", "addr:country": "US", "addr:full": "1390 N LOGAN ST", "addr:postcode": "80203", "addr:state": "CO", "brand": "USPS", "collection_times": "Mo-Fr 14:00; Sa 12:10", "name": "USPS COLLECTION BOX - BLUE BOX", "note": "ON 12/24 AND 12/31, THIS BOX MAY BE COLLECTED AS EARLY AS 12 NOON.", "ref": "8020300039"}, "type": "Feature"}
{"geometry": {"coordinates": [-104.9827005, 39.741984], "type": "Point"}, "id": "eDhefCfayekCy0EeE73OCI9dFmU=", "properties": {"@spider": "usps_collection_boxes", "addr:city": "DENVER", "addr:country": "US", "addr:full": "333 E 16TH AVE", "addr:postcode": "80203", "addr:state": "CO", "brand": "USPS", "collection_times": "Mo-Fr 12:00; Sa 13:30", "name": "USPS COLLECTION BOX - BLUE BOX", "note": "ON 12/24 AND 12/31, THIS BOX MAY BE COLLECTED AS EARLY AS 12 NOON.", "ref": "8020300041"}, "type": "Feature"}
{"geometry": {"coordinates": [-104.97982, 39.725541], "type": "Point"}, "id": "YP15CENaPGb8zrpghHt-hQA_IDE=", "properties": {"@spider": "usps_collection_boxes", "addr:city": "DENVER", "addr:country": "US", "addr:full": "606 E 6TH AVE", "addr:postcode": "80203", "addr:state": "CO", "brand": "USPS", "collection_times": "Mo-Fr 13:30; Sa 11:35", "name": "USPS COLLECTION BOX - BLUE BOX", "note": "ON 12/24 AND 12/31, THIS BOX MAY BE COLLECTED AS EARLY AS 12 NOON.", "ref": "8020300043"}, "type": "Feature"}
{"geometry": {"coordinates": [-104.970734, 39.761931], "type": "Point"}, "id": "p3ji-FtAtEId04_FFs3KvC8hzcg=", "properties": {"@spider": "usps_collection_boxes", "addr:city": "DENVER", "addr:country": "US", "addr:full": "3100 N LAFAYETTE ST", "addr:postcode": "80203", "addr:state": "CO", "brand": "USPS", "collection_times": "Mo-Fr 11:00; Sa 11:30", "name": "USPS COLLECTION BOX - BLUE BOX", "ref": "8020300044"}, "type": "Feature"}
{"geometry": {"coordinates": [-104.979986, 39.736777], "type": "Point"}, "id": "tOjQK0Qaecwa9I5GcSFLCcxLjtA=", "properties": {"@spider": "usps_collection_boxes", "addr:city": "DENVER", "addr:country": "US", "addr:full": "1299 PEARL ST", "addr:postcode": "80203", "addr:state": "CO", "brand": "USPS", "collection_times": "Mo-Fr 11:30; Sa 13:30", "name": "USPS COLLECTION BOX - BLUE BOX", "note": "ON 12/24 AND 12/31, THIS BOX MAY BE COLLECTED AS EARLY AS 12 NOON.", "ref": "8020300046"}, "type": "Feature"}
{"geometry": {"coordinates": [-104.981314, 39.727191], "type": "Point"}, "id": "yb5aDZKyuQbGZE3XLhMnoUzqZzQ=", "properties": {"@spider": "usps_collection_boxes", "addr:city": "DENVER", "addr:country": "US", "addr:full": "430 E 7TH AVE", "addr:postcode": "80203", "addr:state": "CO", "brand": "USPS", "collection_times": "Mo-Fr 13:00; Sa 11:55", "name": "USPS COLLECTION BOX - BLUE BOX", "note": "ON 12/24 AND 12/31, THIS BOX MAY BE COLLECTED AS EARLY AS 12 NOON.", "ref": "8020300047"}, "type": "Feature"}
{"geometry": {"coordinates": [-104.980749093, 39.7433066], "type": "Point"}, "id": "fyytjNybLE8ViwAhwqZe53vOEtY=", "properties": {"@spider": "usps_collection_boxes", "addr:city": "DENVER", "addr:country": "US", "addr:full": "501 E 17TH AVE", "addr:postcode": "80203", "addr:state": "CO", "brand": "USPS", "collection_times": "Mo-Fr 11:30; Sa 10:20", "name": "USPS COLLECTION BOX - BLUE BOX", "ref": "8020300049"}, "type": "Feature"}
{"geometry": {"coordinates": [-104.985112, 39.728378], "type": "Point"}, "id": "VCIzhvwuuGJihzQ24QYgVGRAYo0=", "properties": {"@spider": "usps_collection_boxes", "addr:city": "DENVER", "addr:country": "US", "addr:full": "789 SHERMAN ST", "addr:postcode": "80203", "addr:state": "CO", "brand": "USPS", "collection_times": "Mo-Fr 11:30; Sa 13:20", "name": "USPS COLLECTION BOX - BLUE BOX", "note": "ON 12/24 AND 12/31, THIS BOX MAY BE COLLECTED AS EARLY AS 12 NOON.", "ref": "8020300052"}, "type": "Feature"}
{"geometry": {"coordinates": [-104.984696, 39.730382], "type": "Point"}, "id": "WYXr2D31HY93G08lEKGUxH5IsVA=", "properties": {"@spider": "usps_collection_boxes", "addr:city": "DENVER", "addr:country": "US", "addr:full": "200 E 9TH AVE", "addr:postcode": "80203", "addr:state": "CO", "brand": "USPS", "collection_times": "Mo-Fr 12:30; Sa 13:30", "name": "USPS COLLECTION BOX - BLUE BOX", "note": "ON 12/24 AND 12/31, THIS BOX MAY BE COLLECTED AS EARLY AS 12 NOON.", "ref": "8020300053"}, "type": "Feature"}
{"geometry": {"coordinates": [-104.984461, 39.73659], "type": "Point"}, "id": "giwHY80TidVqiwE-ibvzghmIU2M=", "properties": {"@spider": "usps_collection_boxes", "addr:city": "DENVER", "addr:country": "US", "addr:full": "200 E 13TH AVE", "addr:postcode": "80203", "addr:state": "CO", "brand": "USPS", "collection_times": "Mo-Fr 13:45; Sa 13:35", "name": "USPS COLLECTION BOX - BLUE BOX", "note": "ON 12/24 AND 12/31, THIS BOX MAY BE COLLECTED AS EARLY AS 12 NOON.", "ref": "8020300055"}, "type": "Feature"}
{"geometry": {"coordinates": [-104.9852050119, 39.744543], "type": "Point"}, "id": "MU4xm6YSSFOpq5HobxA_12RnFC8=", "properties": {"@spider": "usps_collection_boxes", "addr:city": "DENVER", "addr:country": "US", "addr:full": "1775 SHERMAN ST", "addr:postcode": "80203", "addr:state": "CO", "brand": "USPS", "collection_times": "Mo-Fr 16:00; Sa 09:20", "name": "USPS COLLECTION BOX - BLUE BOX", "note": "ON 12/24 AND 12/31, THIS BOX MAY BE COLLECTED AS EARLY AS 12 NOON.", "ref": "8020300060"}, "type": "Feature"}
{"geometry": {"coordinates": [-104.9844860122, 39.7468709898], "type": "Point"}, "id": "w3GdFe3HN9mvCkmuE2xiAY_kSwc=", "properties": {"@spider": "usps_collection_boxes", "addr:city": "DENVER", "addr:country": "US", "addr:full": "1930 SHERMAN ST", "addr:postcode": "80203", "addr:state": "CO", "brand": "USPS", "collection_times": "Mo-Fr 14:00; Sa 09:55", "name": "USPS COLLECTION BOX - BLUE BOX", "note": "ON 12/24 AND 12/31, THIS BOX MAY BE COLLECTED AS EARLY AS 12 NOON.", "ref": "8020300062"}, "type": "Feature"}
{"geometry": {"coordinates": [-104.97888, 39.727213], "type": "Point"}, "id": "nrHGSyULLJD8AfUb_8qEo-BEq70=", "properties": {"@spider": "usps_collection_boxes", "addr:city": "DENVER", "addr:country": "US", "addr:full": "669 WASHINGTON ST", "addr:postcode": "80203", "addr:state": "CO", "brand": "USPS", "collection_times": "Mo-Fr 13:00; Sa 11:50", "name": "USPS COLLECTION BOX - BLUE BOX", "note": "ON 12/24 AND 12/31, THIS BOX MAY BE COLLECTED AS EARLY AS 12 NOON.", "ref": "8020300063"}, "type": "Feature"}
{"geometry": {"coordinates": [-104.9805478498, 39.7351198629], "type": "Point"}, "id": "sQ6G4iLBCBcKL-azEuCxP1w3R2U=", "properties": {"@spider": "usps_collection_boxes", "addr:city": "DENVER", "addr:country": "US", "addr:full": "550 E 12TH AVE", "addr:postcode": "80203", "addr:state": "CO", "brand": "USPS", "collection_times": "Mo-Fr 11:30; Sa 13:50", "name": "USPS COLLECTION BOX - BLUE BOX", "note": "ON 12/24 AND 12/31, THIS BOX MAY BE COLLECTED AS EARLY AS 12 NOON.", "ref": "8020300066"}, "type": "Feature"}
{"geometry": {"coordinates": [-104.979022, 39.744941], "type": "Point"}, "id": "l0UCKItaAYchuqVDOTbsX5opvF8=", "properties": {"@spider": "usps_collection_boxes", "addr:city": "DENVER", "addr:country": "US", "addr:full": "639 E 18TH AVE", "addr:postcode": "80203", "addr:state": "CO", "brand": "USPS", "collection_times": "Mo-Fr 11:30; Sa 09:10", "name": "USPS COLLECTION BOX - BLUE BOX", "ref": "8020300069"}, "type": "Feature"}
{"geometry": {"coordinates": [-104.985702, 39.74139], "type": "Point"}, "id": "eV82GPEt85vB7sOfwo0--Qvu9Q8=", "properties": {"@spider": "usps_collection_boxes", "addr:city": "DENVER", "addr:country": "US", "addr:full": "1580 N LINCOLN ST", "addr:postcode": "80203", "addr:state": "CO", "brand": "USPS", "collection_times": "Mo-Fr 16:30; Sa 14:30", "name": "USPS COLLECTION BOX - BLUE BOX", "note": "ON 12/24 AND 12/31, THIS BOX MAY BE COLLECTED AS EARLY AS 12 NOON.", "ref": "8020300071"}, "type": "Feature"}
{"geometry": {"coordinates": [-104.984389, 39.74625], "type": "Point"}, "id": "j5vY7tIwa4i5HlU8h1MhsjrHero=", "properties": {"@spider": "usps_collection_boxes", "addr:city": "DENVER", "addr:country": "US", "addr:full": "1888 N SHERMAN ST", "addr:postcode": "80203", "addr:state": "CO", "brand": "USPS", "collection_times": "Mo-Fr 11:00; Sa 09:55", "name": "USPS COLLECTION BOX - BLUE BOX", "ref": "8020300073"}, "type": "Feature"}
{"geometry": {"coordinates": [-104.98738, 39.71892], "type": "Point"}, "id": "TfIINF1n1LTv-mR2ZkFX2NcI-wU=", "properties": {"@spider": "usps_collection_boxes", "addr:city": "DENVER", "addr:country": "US", "addr:full": "120 BROADWAY", "addr:postcode": "80203", "addr:state": "CO", "brand": "USPS", "collection_times": "Mo-Fr 11:00; Sa 12:45", "name": "USPS COLLECTION BOX - BLUE BOX", "note": "ON 12/24 AND 12/31, THIS BOX MAY BE COLLECTED AS EARLY AS 12 NOON.", "ref": "8020300086"}, "type": "Feature"}
{"geometry": {"coordinates": [-104.980379, 39.720851], "type": "Point"}, "id": "SX99nNplt-i4nILYRI_b1gHNDEU=", "properties": {"@spider": "usps_collection_boxes", "addr:city": "DENVER", "addr:country": "US", "addr:full": "550 E 3RD AVE", "addr:postcode": "80203", "addr:state": "CO", "brand": "USPS", "collection_times": "Mo-Fr 11:30; Sa 13:10", "name": "USPS COLLECTION BOX - BLUE BOX", "note": "ON 12/24 AND 12/31, THIS BOX MAY BE COLLECTED AS EARLY AS 12 NOON.", "ref": "8020300096"}, "type": "Feature"}
{"geometry": {"coordinates": [-104.984408, 39.746245], "type": "Point"}, "id": "ZD8-n5o3wsV8Ubr0QufbAQWC678=", "properties": {"@spider": "usps_collection_boxes", "addr:city": "DENVER", "addr:country": "US", "addr:full": "1888 N SHERMAN ST", "addr:postcode": "80203", "addr:state": "CO", "brand": "USPS", "collection_times": "Mo-Fr 11:00; Sa 09:55", "name": "USPS COLLECTION BOX - BLUE BOX", "ref": "8020300112"}, "type": "Feature"}
{"geometry": {"coordinates": [-104.9852050119, 39.744543], "type": "Point"}, "id": "cOa-bLUprWCCGTcVZBaya0XexxQ=", "properties": {"@spider": "usps_collection_boxes", "addr:city": "DENVER", "addr:country": "US", "addr:full": "1775 SHERMAN ST", "addr:postcode": "80203", "addr:state": "CO", "brand": "USPS", "collection_times": "Mo-Fr 12:00; Sa 14:30", "name": "USPS COLLECTION BOX - EXPRESS", "note": "ON 12/24 AND 12/31, THIS BOX MAY BE COLLECTED AS EARLY AS 12 NOON.", "ref": "8020300124"}, "type": "Feature"}
{"geometry": {"coordinates": [-104.986066, 39.743354], "type": "Point"}, "id": "NY1C2g0ukM4K3o0KQMzM4mPHKh8=", "properties": {"@spider": "usps_collection_boxes", "addr:city": "DENVER", "addr:country": "US", "addr:full": "1700 LINCOLN ST", "addr:postcode": "80203", "addr:state": "CO", "brand": "USPS", "collection_times": "Mo-Fr 13:40", "name": "USPS COLLECTION BOX - EXPRESS", "note": "ON 12/24 AND 12/31, THIS BOX MAY BE COLLECTED AS EARLY AS 12 NOON.", "ref": "8020300137"}, "type": "Feature"}
{"geometry": {"coordinates": [-104.986077764, 39.745747509], "type": "Point"}, "id": "6B6ZAUxNjKANycy7MAJn_anbH8U=", "properties": {"@spider": "usps_collection_boxes", "addr:city": "DENVER", "addr:country": "US", "addr:full": "1860 LINCOLN ST", "addr:postcode": "80203", "addr:state": "CO", "brand": "USPS", "collection_times": "Mo-Fr 17:00; Sa 09:50", "name": "USPS COLLECTION BOX - BLUE BOX", "note": "ON 12/24 AND 12/31, THIS BOX MAY BE COLLECTED AS EARLY AS 12 NOON.", "ref": "8020300142"}, "type": "Feature"}
{"geometry": {"coordinates": [-104.9844105, 39.735288511], "type": "Point"}, "id": "-ro6l9FJj1viFtodjG16hCPNHBM=", "properties": {"@spider": "usps_collection_boxes", "addr:city": "DENVER", "addr:country": "US", "addr:full": "251 E 12TH AVE", "addr:postcode": "80203", "addr:state": "CO", "brand": "USPS", "collection_times": "Mo-Fr 12:00; Sa 13:40", "name": "USPS COLLECTION BOX - BLUE BOX", "note": "ON 12/24 AND 12/31, THIS BOX MAY BE COLLECTED AS EARLY AS 12 NOON.", "ref": "8020300148"}, "type": "Feature"}
{"geometry": {"coordinates": [-104.9842305, 39.7422], "type": "Point"}, "id": "w50-bj-TToQ1TICU2ew0ji0tj3c=", "properties": {"@spider": "usps_collection_boxes", "addr:city": "DENVER", "addr:country": "US", "addr:full": "225 E 16TH AVE", "addr:postcode": "80203", "addr:state": "CO", "brand": "USPS", "collection_times": "Mo-Fr 14:15; Sa 09:30", "name": "USPS COLLECTION BOX - BLUE BOX", "note": "ON 12/24 AND 12/31, THIS BOX MAY BE COLLECTED AS EARLY AS 12 NOON.", "ref": "8020300149"}, "type": "Feature"}
{"geometry": {"coordinates": [-104.9842305, 39.7422], "type": "Point"}, "id": "GOCd8cqMGBG_8hDjPF6a8Unn-YE=", "properties": {"@spider": "usps_collection_boxes", "addr:city": "DENVER", "addr:country": "US", "addr:full": "225 E 16TH AVE", "addr:postcode": "80203", "addr:state": "CO", "brand": "USPS", "collection_times": "Mo-Fr 12:00; Sa 09:30", "name": "USPS COLLECTION BOX - EXPRESS", "ref": "8020300150"}, "type": "Feature"}
{"geometry": {"coordinates": [-104.984393, 39.746251], "type": "Point"}, "id": "h86Vg0FNhvxQXY3Sg6NKiRppgik=", "properties": {"@spider": "usps_collection_boxes", "addr:city": "DENVER", "addr:country": "US", "addr:full": "1888 SHERMAN ST", "addr:postcode": "80203", "addr:state": "CO", "brand": "USPS", "collection_times": "Mo-Fr 11:00; Sa 09:55", "name": "USPS COLLECTION BOX - BLUE BOX", "ref": "8020300188"}, "type": "Feature"}
{"geometry": {"coordinates": [-104.983504, 39.725699], "type": "Point"}, "id": "Vm_scwqIGODVsoq3X580Uk-5mhk=", "properties": {"@spider": "usps_collection_boxes", "addr:city": "DENVER", "addr:country": "US", "addr:full": "600 N GRANT ST", "addr:postcode": "80203", "addr:state": "CO", "brand": "USPS", "collection_times": "Mo-Fr 13:00; Sa 13:25", "name": "USPS COLLECTION BOX - BLUE BOX", "note": "ON 12/24 AND 12/31, THIS BOX MAY BE COLLECTED AS EARLY AS 12 NOON.", "ref": "8020300189"}, "type": "Feature"}
{"geometry": {"coordinates": [-104.984953, 39.72318], "type": "Point"}, "id": "W8X__ZLIrT6l5T2sfH-hPSNm_os=", "properties": {"@spider": "usps_collection_boxes", "addr:city": "DENVER", "addr:country": "US", "addr:full": "444 SHERMAN ST", "addr:postcode": "80203", "addr:state": "CO", "brand": "USPS", "collection_times": "Mo-Fr 12:00; Sa 13:15", "name": "USPS COLLECTION BOX - BLUE BOX", "note": "ON 12/24 AND 12/31, THIS BOX MAY BE COLLECTED AS EARLY AS 12 NOON.", "ref": "8020300206"}, "type": "Feature"}
{"geometry": {"coordinates": [-104.986773, 39.728169], "type": "Point"}, "id": "9-EVpLYw8eHfHsOauPFh2jLu7PQ=", "properties": {"@spider": "usps_collection_boxes", "addr:city": "DENVER", "addr:country": "US", "addr:full": "700 BROADWAY", "addr:postcode": "80203", "addr:state": "CO", "brand": "USPS", "collection_times": "Mo-Fr 11:30", "name": "USPS COLLECTION BOX - BLUE BOX", "ref": "8020300213"}, "type": "Feature"}
{"geometry": {"coordinates": [-104.983239, 39.746572], "type": "Point"}, "id": "5BL0GKVyQfNxe7Cta7xA0vj-qJg=", "properties": {"@spider": "usps_collection_boxes", "addr:city": "DENVER", "addr:country": "US", "addr:full": "1900 N GRANT ST", "addr:postcode": "80203", "addr:state": "CO", "brand": "USPS", "collection_times": "Mo-Fr 14:00", "name": "USPS COLLECTION BOX - BLUE BOX", "note": "ON 12/24 AND 12/31, THIS BOX MAY BE COLLECTED AS EARLY AS 12 NOON.", "ref": "8020300239"}, "type": "Feature"}
{"geometry": {"coordinates": [-104.984947, 39.723162], "type": "Point"}, "id": "O6NU-0s_fquye2SM7ptNBikJPjY=", "properties": {"@spider": "usps_collection_boxes", "addr:city": "DENVER", "addr:country": "US", "addr:full": "444 SHERMAN ST", "addr:postcode": "80203", "addr:state": "CO", "brand": "USPS", "collection_times": "Mo-Fr 12:00; Sa 13:15", "name": "USPS COLLECTION BOX - BLUE BOX", "note": "ON 12/24 AND 12/31, THIS BOX MAY BE COLLECTED AS EARLY AS 12 NOON.", "ref": "8020300244"}, "type": "Feature"}
{"geometry": {"coordinates": [-104.982656, 39.729837], "type": "Point"}, "id": "LtNyuQuhTc1yBzmmWIn8vxRaEEU=", "properties": {"@spider": "usps_collection_boxes", "addr:city": "DENVER", "addr:country": "US", "addr:full": "899 LOGAN ST", "addr:postcode": "80203", "addr:state": "CO", "brand": "USPS", "collection_times": "Mo-Fr 12:30; Sa 12:00", "name": "USPS COLLECTION BOX - BLUE BOX", "note": "ON 12/24 AND 12/31, THIS BOX MAY BE COLLECTED AS EARLY AS 12 NOON.", "ref": "8020300245"}, "type": "Feature"}
{"geometry": {"coordinates": [-104.9981399649, 39.7436359943], "type": "Point"}, "id": "-mVa9wHeu61UWrgCERE13FFfJB0=", "properties": {"@spider": "usps_collection_boxes", "addr:city": "DENVER", "addr:country": "US", "addr:full": "1245 CHAMPA ST", "addr:postcode": "80204", "addr:state": "CO", "brand": "USPS", "collection_times": "Mo-Fr 15:00; Sa 14:30", "name": "USPS COLLECTION BOX - BLUE BOX", "note": "ON 12/24 AND 12/31, THIS BOX MAY BE COLLECTED AS EARLY AS 12 NOON.", "ref": "8020400009"}, "type": "Feature"}
{"geometry": {"coordinates": [-104.991911, 39.727787], "type": "Point"}, "id": "Kg4DIbwsPSmEUgL__J1k6vFU-2o=", "properties": {"@spider": "usps_collection_boxes", "addr:city": "DENVER", "addr:country": "US", "addr:full": "770 CHEROKEE ST", "addr:postcode": "80204", "addr:state": "CO", "brand": "USPS", "collection_times": "Mo-Fr 12:00; Sa 14:40", "name": "USPS COLLECTION BOX - BLUE BOX", "note": "ON 12/24 AND 12/31, THIS BOX MAY BE COLLECTED AS EARLY AS 12 NOON.", "ref": "8020400010"}, "type": "Feature"}
{"geometry": {"coordinates": [-104.991964, 39.740131], "type": "Point"}, "id": "ptm7Ziy5ZjWTzOJ1R8Tl9iooqgI=", "properties": {"@spider": "usps_collection_boxes", "addr:city": "DENVER", "addr:country": "US", "addr:full": "303 W COLFAX AVE", "addr:postcode": "80204", "addr:state": "CO", "brand": "USPS", "collection_times": "Mo-Fr 14:00; Sa 13:00", "name": "USPS COLLECTION BOX - BLUE BOX", "note": "ON 12/24 AND 12/31, THIS BOX MAY BE COLLECTED AS EARLY AS 12 NOON.", "ref": "8020400012"}, "type": "Feature"}
{"geometry": {"coordinates": [-105.040603, 39.74012], "type": "Point"}, "id": "Vt80DctA3pIyJwKh0tYBW4Cw7Gw=", "properties": {"@spider": "usps_collection_boxes", "addr:city": "DENVER", "addr:country": "US", "addr:full": "4100 W COLFAX AVE", "addr:postcode": "80204", "addr:state": "CO", "brand": "USPS", "collection_times": "Mo-Fr 11:00; Sa 15:15", "name": "USPS COLLECTION BOX - BLUE BOX", "note": "ON 12/24 AND 12/31, THIS BOX MAY BE COLLECTED AS EARLY AS 12 NOON.", "ref": "8020400016"}, "type": "Feature"}
{"geometry": {"coordinates": [-105.0416508888, 39.7414929753], "type": "Point"}, "id": "LQgdd16rZDen4SPeYXtzzGXEK_w=", "properties": {"@spider": "usps_collection_boxes", "addr:city": "DENVER", "addr:country": "US", "addr:full": "4200 W CONEJOS PL", "addr:postcode": "80204", "addr:state": "CO", "brand": "USPS", "collection_times": "Mo-Fr 11:00; Sa 15:10", "name": "USPS COLLECTION BOX - BLUE BOX", "note": "ON 12/24 AND 12/31, THIS BOX MAY BE COLLECTED AS EARLY AS 12 NOON.", "ref": "8020400017"}, "type": "Feature"}
{"geometry": {"coordinates": [-105.032393, 39.727824], "type": "Point"}, "id": "XVHKlTOrNRA2CrAJ3Q5Fb6hci2o=", "properties": {"@spider": "usps_collection_boxes", "addr:city": "DENVER", "addr:country": "US", "addr:full": "700 KNOX CT", "addr:postcode": "80204", "addr:state": "CO", "brand": "USPS", "collection_times": "Mo-Fr 11:00; Sa 14:45", "name": "USPS COLLECTION BOX - BLUE BOX", "note": "ON 12/24 AND 12/31, THIS BOX MAY BE COLLECTED AS EARLY AS 12 NOON.", "ref": "8020400026"}, "type": "Feature"}
{"geometry": {"coordinates": [-104.99939, 39.746358], "type": "Point"}, "id": "0yDa9Q-KH0u9vnjrLtDhEy38Avs=", "properties": {"@spider": "usps_collection_boxes", "addr:city": "DENVER", "addr:country": "US", "addr:full": "1380 LAWRENCE ST", "addr:postcode": "80204", "addr:state": "CO", "brand": "USPS", "collection_times": "Mo-Fr 14:00; Sa 13:25", "name": "USPS COLLECTION BOX - BLUE BOX", "note": "ON 12/24 AND 12/31, THIS BOX MAY BE COLLECTED AS EARLY AS 12 NOON.", "ref": "8020400028"}, "type": "Feature"}
{"geometry": {"coordinates": [-104.998107, 39.73767], "type": "Point"}, "id": "oc9UjSG_2kwiUfQ_rCZjhRYFAQY=", "properties": {"@spider": "usps_collection_boxes", "addr:city": "DENVER", "addr:country": "US", "addr:full": "1331 SPEER BLVD", "addr:postcode": "80204", "addr:state": "CO", "brand": "USPS", "collection_times": "Mo-Fr 11:30; Sa 13:15", "name": "USPS COLLECTION BOX - BLUE BOX", "note": "ON 12/24 AND 12/31, THIS BOX MAY BE COLLECTED AS EARLY AS 12 NOON.", "ref": "8020400038"}, "type": "Feature"}
{"geometry": {"coordinates": [-104.993529, 39.738419], "type": "Point"}, "id": "spoyO__fVN2ZxVr9yvQAM_cg1r0=", "properties": {"@spider": "usps_collection_boxes", "addr:city": "DENVER", "addr:country": "US", "addr:full": "450 W 14TH AVE", "addr:postcode": "80204", "addr:state": "CO", "brand": "USPS", "collection_times": "Mo-Fr 17:30; Sa 16:20", "name": "USPS COLLECTION BOX - BLUE BOX", "note": "ON 12/24 AND 12/31, THIS BOX MAY BE COLLECTED AS EARLY AS 12 NOON.", "ref": "8020400054"}, "type": "Feature"}
{"geometry": {"coordinates": [-104.993481, 39.741403], "type": "Point"}, "id": "SJfEnzS20UcPGaY0xCsqVNLaMKg=", "properties": {"@spider": "usps_collection_boxes", "addr:city": "DENVER", "addr:country": "US", "addr:full": "1325 GLENARM PL", "addr:postcode": "80204", "addr:state": "CO", "brand": "USPS", "collection_times": "Mo-Fr 14:00; Sa 14:35", "name": "USPS COLLECTION BOX - BLUE BOX", "note": "ON 12/24 AND 12/31, THIS BOX MAY BE COLLECTED AS EARLY AS 12 NOON.", "ref": "8020400060"}, "type": "Feature"}
{"geometry": {"coordinates": [-105.006286, 39.744934], "type": "Point"}, "id": "ZgaXnYXyx1Be1FVswTMtHpL-pZA=", "properties": {"@spider": "usps_collection_boxes", "addr:city": "DENVER", "addr:country": "US", "addr:full": "900 AURARIA PKWY", "addr:postcode": "80204", "addr:state": "CO", "brand": "USPS", "collection_times": "Mo-Fr 14:00; Sa 15:25", "name": "USPS COLLECTION BOX - BLUE BOX", "note": "ON 12/24 AND 12/31, THIS BOX MAY BE COLLECTED AS EARLY AS 12 NOON.", "ref": "8020400061"}, "type": "Feature"}
{"geometry": {"coordinates": [-104.993529, 39.738419], "type": "Point"}, "id": "zhCH6jDN922k8f21cwzLZsOKV9k=", "properties": {"@spider": "usps_collection_boxes", "addr:city": "DENVER", "addr:country": "US", "addr:full": "450 W 14TH AVE", "addr:postcode": "80204", "addr:state": "CO", "brand": "USPS", "collection_times": "Mo-Fr 17:30; Sa 16:20", "name": "USPS COLLECTION BOX - BLUE BOX", "note": "ON 12/24 AND 12/31, THIS BOX MAY BE COLLECTED AS EARLY AS 12 NOON.", "ref": "8020400071"}, "type": "Feature"}
{"geometry": {"coordinates": [-104.990134, 39.735175], "type": "Point"}, "id": "nyY16qoaj3MUGNMIDMqy40cZs-c=", "properties": {"@spider": "usps_collection_boxes", "addr:city": "DENVER", "addr:country": "US", "addr:full": "146 W 12TH AVE", "addr:postcode": "80204", "addr:state": "CO", "brand": "USPS", "collection_times": "Mo-Fr 12:00; Sa 13:05", "name": "USPS COLLECTION BOX - BLUE BOX", "note": "ON 12/24 AND 12/31, THIS BOX MAY BE COLLECTED AS EARLY AS 12 NOON.", "ref": "8020400083"}, "type": "Feature"}
{"geometry": {"coordinates": [-104.993529, 39.738419], "type": "Point"}, "id": "5WOVX2C_t60mTIfZr1iqzRm_2vQ=", "properties": {"@spider": "usps_collection_boxes", "addr:city": "DENVER", "addr:country": "US", "addr:full": "450 W 14TH AVE", "addr:postcode": "80204", "addr:state": "CO", "brand": "USPS", "collection_times": "Mo-Fr 17:30; Sa 16:20", "name": "USPS COLLECTION BOX - PO LOBBY", "note": "ON 12/24 AND 12/31, THIS BOX MAY BE COLLECTED AS EARLY AS 12 NOON.", "ref": "8020400085"}, "type": "Feature"}
{"geometry": {"coordinates": [-104.993529, 39.738419], "type": "Point"}, "id": "--ky36PpviZ9WeF8t3CiADmL_RI=", "properties": {"@spider": "usps_collection_boxes", "addr:city": "DENVER", "addr:country": "US", "addr:full": "450 W 14TH AVE", "addr:postcode": "80204", "addr:state": "CO", "brand": "USPS", "collection_times": "Mo-Fr 17:30; Sa 16:20", "name": "USPS COLLECTION BOX - PO LOBBY", "note": "ON 12/24 AND 12/31, THIS BOX MAY BE COLLECTED AS EARLY AS 12 NOON.", "ref": "8020400087"}, "type": "Feature"}
{"geometry": {"coordinates": [-105.020019, 39.740097], "type": "Point"}, "id": "gfrZFOk8tOGvt4vqvGy0K5w-gy4=", "properties": {"@spider": "usps_collection_boxes", "addr:city": "DENVER", "addr:country": "US", "addr:full": "1701 BRYANT ST", "addr:postcode": "80204", "addr:state": "CO", "brand": "USPS", "collection_times": "Mo-Fr 11:00; Sa 14:50", "name": "USPS COLLECTION BOX - BLUE BOX", "note": "ON 12/24 AND 12/31, THIS BOX MAY BE COLLECTED AS EARLY AS 12 NOON.", "ref": "8020400091"}, "type": "Feature"}
{"geometry": {"coordinates": [-105.015079, 39.73373], "type": "Point"}, "id": "VLS758Of26Ojc_Ynseasm9QNBko=", "properties": {"@spider": "usps_collection_boxes", "addr:city": "DENVER", "addr:country": "US", "addr:full": "1050 YUMA ST", "addr:postcode": "80204", "addr:state": "CO", "brand": "USPS", "collection_times": "Mo-Fr 12:00; Sa 15:15", "name": "USPS COLLECTION BOX - BLUE BOX", "note": "ON 12/24 AND 12/31, THIS BOX MAY BE COLLECTED AS EARLY AS 12 NOON.", "ref": "8020400095"}, "type": "Feature"}
{"geometry": {"coordinates": [-104.955033, 39.756879], "type": "Point"}, "id": "_V-Gq8lwjfQD55TnbysN-iWqxv4=", "properties": {"@spider": "usps_collection_boxes", "addr:city": "DENVER", "addr:country": "US", "addr:full": "2761 CLAYTON ST", "addr:postcode": "80205", "addr:state": "CO", "brand": "USPS", "collection_times": "Mo-Fr 14:00; Sa 11:00", "name": "USPS COLLECTION BOX - BLUE BOX", "note": "ON 12/24 AND 12/31, THIS BOX MAY BE COLLECTED AS EARLY AS 12 NOON.", "ref": "8020500009"}, "type": "Feature"}
{"geometry": {"coordinates": [-104.972801, 39.764427], "type": "Point"}, "id": "EcDgJiT6GkpCiGn0GNhRde9Ed1A=", "properties": {"@spider": "usps_collection_boxes", "addr:city": "DENVER", "addr:country": "US", "addr:full": "1210 E BRUCE RANDOLF BLVD", "addr:postcode": "80205", "addr:state": "CO", "brand": "USPS", "collection_times": "Mo-Fr 12:00; Sa 14:15", "name": "USPS COLLECTION BOX - BLUE BOX", "note": "ON 12/24 AND 12/31, THIS BOX MAY BE COLLECTED AS EARLY AS 12 NOON.", "ref": "8020500014"}, "type": "Feature"}
{"geometry": {"coordinates": [-104.968588, 39.747309], "type": "Point"}, "id": "2b5aeGfO1Y_gb2XUp9_cyPt-VmY=", "properties": {"@spider": "usps_collection_boxes", "addr:city": "DENVER", "addr:country": "US", "addr:full": "2045 FRANKLIN ST", "addr:postcode": "80205", "addr:state": "CO", "brand": "USPS", "collection_times": "Mo-Fr 14:00; Sa 10:30", "name": "USPS COLLECTION BOX - BLUE BOX", "note": "ON 12/24 AND 12/31, THIS BOX MAY BE COLLECTED AS EARLY AS 12 NOON.", "ref": "8020500016"}, "type": "Feature"}
{"geometry": {"coordinates": [-104.960913, 39.750831], "type": "Point"}, "id": "W4Z2jw2Nd3eEjIvTN66W1QPjzas=", "properties": {"@spider": "usps_collection_boxes", "addr:city": "DENVER", "addr:country": "US", "addr:full": "2304 GAYLORD ST", "addr:postcode": "80205", "addr:state": "CO", "brand": "USPS", "collection_times": "Mo-Fr 14:00; Sa 11:00", "name": "USPS COLLECTION BOX - BLUE BOX", "note": "ON 12/24 AND 12/31, THIS BOX MAY BE COLLECTED AS EARLY AS 12 NOON.", "ref": "8020500019"}, "type": "Feature"}
{"geometry": {"coordinates": [-104.950908, 39.764544], "type": "Point"}, "id": "KYrMp0VtqzSEbOUOwR4BbvbjNZw=", "properties": {"@spider": "usps_collection_boxes", "addr:city": "DENVER", "addr:country": "US", "addr:full": "3107 BRUCE RANDOLPH AVE", "addr:postcode": "80205", "addr:state": "CO", "brand": "USPS", "collection_times": "Mo-Fr 11:00; Sa 11:20", "name": "USPS COLLECTION BOX - BLUE BOX", "ref": "8020500035"}, "type": "Feature"}
{"geometry": {"coordinates": [-104.977812, 39.748661], "type": "Point"}, "id": "k64O03tDJGMSnR9PmY8RODsagu0=", "properties": {"@spider": "usps_collection_boxes", "addr:city": "DENVER", "addr:country": "US", "addr:full": "757 E 20TH AVE", "addr:postcode": "80205", "addr:state": "CO", "brand": "USPS", "collection_times": "Mo-Fr 14:30; Sa 10:00", "name": "USPS COLLECTION BOX - BLUE BOX", "note": "ON 12/24 AND 12/31, THIS BOX MAY BE COLLECTED AS EARLY AS 12 NOON.", "ref": "8020500048"}, "type": "Feature"}
{"geometry": {"coordinates": [-104.955579, 39.773031], "type": "Point"}, "id": "emQlIbfORnbf--nF7U0Ms8nzfqs=", "properties": {"@spider": "usps_collection_boxes", "addr:city": "DENVER", "addr:country": "US", "addr:full": "2551 E 40TH AVE", "addr:postcode": "80205", "addr:state": "CO", "brand": "USPS", "collection_times": "Mo-Fr 12:00; Sa 11:10", "name": "USPS COLLECTION BOX - BLUE BOX", "ref": "8020500050"}, "type": "Feature"}
{"geometry": {"coordinates": [-104.942829, 39.748226], "type": "Point"}, "id": "FJbS8ntIVcZdOR-m7KDYkIjd0z0=", "properties": {"@spider": "usps_collection_boxes", "addr:city": "DENVER", "addr:country": "US", "addr:full": "2001 COLORADO BLVD", "addr:postcode": "80205", "addr:state": "CO", "brand": "USPS", "collection_times": "Mo-Fr 14:00; Sa 11:00", "name": "USPS COLLECTION BOX - BLUE BOX", "note": "ON 12/24 AND 12/31, THIS BOX MAY BE COLLECTED AS EARLY AS 12 NOON.", "ref": "8020500052"}, "type": "Feature"}
{"geometry": {"coordinates": [-104.993373, 39.755183], "type": "Point"}, "id": "rRQeHu86v48htOYJ2t3ywUpEkrs=", "properties": {"@spider": "usps_collection_boxes", "addr:city": "DENVER", "addr:country": "US", "addr:full": "2001 BLAKE ST", "addr:postcode": "80205", "addr:state": "CO", "brand": "USPS", "collection_times": "Mo-Fr 12:00; Sa 10:15", "name": "USPS COLLECTION BOX - BLUE BOX", "ref": "8020500055"}, "type": "Feature"}
{"geometry": {"coordinates": [-104.993353, 39.75516], "type": "Point"}, "id": "FCQmPqn1gA7XNN3T60_KJbDln3Q=", "properties": {"@spider": "usps_collection_boxes", "addr:city": "DENVER", "addr:country": "US", "addr:full": "2001 BLAKE ST", "addr:postcode": "80205", "addr:state": "CO", "brand": "USPS", "collection_times": "Mo-Fr 12:00; Sa 10:15", "name": "USPS COLLECTION BOX - BLUE BOX", "ref": "8020500059"}, "type": "Feature"}
{"geometry": {"coordinates": [-104.978134, 39.754928], "type": "Point"}, "id": "Q407L-dE2L89zj9PaQnHMhjnLus=", "properties": {"@spider": "usps_collection_boxes", "addr:city": "DENVER", "addr:country": "US", "addr:full": "2701 WELTON ST", "addr:postcode": "80205", "addr:state": "CO", "brand": "USPS", "collection_times": "Mo-Fr 11:00; Sa 14:15", "name": "USPS COLLECTION BOX - BLUE BOX", "note": "ON 12/24 AND 12/31, THIS BOX MAY BE COLLECTED AS EARLY AS 12 NOON.", "ref": "8020500066"}, "type": "Feature"}
{"geometry": {"coordinates": [-104.966031, 39.760599], "type": "Point"}, "id": "O2KTSjQmlmRffANYnZOgA38h5cc=", "properties": {"@spider": "usps_collection_boxes", "addr:city": "DENVER", "addr:country": "US", "addr:full": "3100 WILLIAMS ST", "addr:postcode": "80205", "addr:state": "CO", "brand": "USPS", "collection_times": "Mo-Fr 11:00; Sa 14:30", "name": "USPS COLLECTION BOX - BLUE BOX", "note": "ON 12/24 AND 12/31, THIS BOX MAY BE COLLECTED AS EARLY AS 12 NOON.", "ref": "8020500070"}, "type": "Feature"}
{"geometry": {"coordinates": [-104.9626089935, 39.7398000163], "type": "Point"}, "id": "FYCrK6Ef0KW2Ngab_JT1K8kPLHE=", "properties": {"@spider": "usps_collection_boxes", "addr:city": "DENVER", "addr:country": "US", "addr:full": "2032 E COLFAX AVE", "addr:postcode": "80206", "addr:state": "CO", "brand": "USPS", "collection_times": "Mo-Fr 11:00; Sa 10:30", "name": "USPS COLLECTION BOX - BLUE BOX", "ref": "8020600009"}, "type": "Feature"}
{"geometry": {"coordinates": [-104.956993, 39.719967], "type": "Point"}, "id": "zc_bdADU3FTDMMwuKjnDMfVRHYk=", "properties": {"@spider": "usps_collection_boxes", "addr:city": "DENVER", "addr:country": "US", "addr:full": "201 COLUMBINE ST", "addr:postcode": "80206", "addr:state": "CO", "brand": "USPS", "collection_times": "Mo-Fr 17:15; Sa 13:45", "name": "USPS COLLECTION BOX - BLUE BOX", "note": "ON 12/24 AND 12/31, THIS BOX MAY BE COLLECTED AS EARLY AS 12 NOON.", "ref": "8020600013"}, "type": "Feature"}
{"geometry": {"coordinates": [-104.94950196, 39.7165450126], "type": "Point"}, "id": "q8JJrS7LiB8UUXdUFMhMIW9K60s=", "properties": {"@spider": "usps_collection_boxes", "addr:city": "DENVER", "addr:country": "US", "addr:full": "2 STEELE ST", "addr:postcode": "80206", "addr:state": "CO", "brand": "USPS", "collection_times": "Mo-Fr 13:30; Sa 09:00", "name": "USPS COLLECTION BOX - BLUE BOX", "note": "ON 12/24 AND 12/31, THIS BOX MAY BE COLLECTED AS EARLY AS 12 NOON.", "ref": "8020600021"}, "type": "Feature"}
{"geometry": {"coordinates": [-104.953625, 39.742476], "type": "Point"}, "id": "wrw-yZizwD1wXU_GS_guEh7rdUM=", "properties": {"@spider": "usps_collection_boxes", "addr:city": "DENVER", "addr:country": "US", "addr:full": "1633 FILLMORE ST", "addr:postcode": "80206", "addr:state": "CO", "brand": "USPS", "collection_times": "Mo-Fr 13:30; Sa 11:30", "name": "USPS COLLECTION BOX - BLUE BOX", "note": "ON 12/24 AND 12/31, THIS BOX MAY BE COLLECTED AS EARLY AS 12 NOON.", "ref": "8020600024"}, "type": "Feature"}
{"geometry": {"coordinates": [-104.943702, 39.717949], "type": "Point"}, "id": "Q4pDjdWIUVrP-l_CTOP2I6WKdFw=", "properties": {"@spider": "usps_collection_boxes", "addr:city": "DENVER", "addr:country": "US", "addr:full": "100 GARFIELD ST", "addr:postcode": "80206", "addr:state": "CO", "brand": "USPS", "collection_times": "Mo-Fr 12:30; Sa 14:50", "name": "USPS COLLECTION BOX - BLUE BOX", "note": "ON 12/24 AND 12/31, THIS BOX MAY BE COLLECTED AS EARLY AS 12 NOON.", "ref": "8020600026"}, "type": "Feature"}
{"geometry": {"coordinates": [-104.961184, 39.74317], "type": "Point"}, "id": "TRzurqc4WMJFJlAckaoTi1v31Ow=", "properties": {"@spider": "usps_collection_boxes", "addr:city": "DENVER", "addr:country": "US", "addr:full": "1695 GAYLORD ST", "addr:postcode": "80206", "addr:state": "CO", "brand": "USPS", "collection_times": "Mo-Fr 11:00; Sa 11:30", "name": "USPS COLLECTION BOX - BLUE BOX", "ref": "8020600030"}, "type": "Feature"}
{"geometry": {"coordinates": [-104.942949, 39.731994], "type": "Point"}, "id": "nUAs_hFSVhBgkKWusecZOJXl3XA=", "properties": {"@spider": "usps_collection_boxes", "addr:city": "DENVER", "addr:country": "US", "addr:full": "977 JACKSON ST", "addr:postcode": "80206", "addr:state": "CO", "brand": "USPS", "collection_times": "Mo-Fr 13:00; Sa 11:00", "name": "USPS COLLECTION BOX - BLUE BOX", "note": "ON 12/24 AND 12/31, THIS BOX MAY BE COLLECTED AS EARLY AS 12 NOON.", "ref": "8020600033"}, "type": "Feature"}
{"geometry": {"coordinates": [-104.942513, 39.738926], "type": "Point"}, "id": "mB-czyZpJRH1JBURKcnFBlvJtw4=", "properties": {"@spider": "usps_collection_boxes", "addr:city": "DENVER", "addr:country": "US", "addr:full": "1400 JACKSON ST", "addr:postcode": "80206", "addr:state": "CO", "brand": "USPS", "collection_times": "Mo-Fr 16:15; Sa 12:00", "name": "USPS COLLECTION BOX - BLUE BOX", "note": "ON 12/24 AND 12/31, THIS BOX MAY BE COLLECTED AS EARLY AS 12 NOON.", "ref": "8020600034"}, "type": "Feature"}
{"geometry": {"coordinates": [-104.946101, 39.735185], "type": "Point"}, "id": "l9VB-FNbeHrBhZVMb-4gVHPUIJM=", "properties": {"@spider": "usps_collection_boxes", "addr:city": "DENVER", "addr:country": "US", "addr:full": "1200 MADISON ST", "addr:postcode": "80206", "addr:state": "CO", "brand": "USPS", "collection_times": "Mo-Fr 16:15; Sa 14:00", "name": "USPS COLLECTION BOX - BLUE BOX", "note": "ON 12/24 AND 12/31, THIS BOX MAY BE COLLECTED AS EARLY AS 12 NOON.", "ref": "8020600040"}, "type": "Feature"}
{"geometry": {"coordinates": [-104.945134, 39.725524], "type": "Point"}, "id": "A3E7TAo9g-XVs-hGTdM9yS2ISYM=", "properties": {"@spider": "usps_collection_boxes", "addr:city": "DENVER", "addr:country": "US", "addr:full": "3530 E 6TH AVE", "addr:postcode": "80206", "addr:state": "CO", "brand": "USPS", "collection_times": "Mo-Fr 11:00; Sa 11:30", "name": "USPS COLLECTION BOX - BLUE BOX", "ref": "8020600046"}, "type": "Feature"}
{"geometry": {"coordinates": [-104.963575, 39.735001], "type": "Point"}, "id": "Zla6ITAocdwLLID13Q8CEEJXhu8=", "properties": {"@spider": "usps_collection_boxes", "addr:city": "DENVER", "addr:country": "US", "addr:full": "1177 RACE ST", "addr:postcode": "80206", "addr:state": "CO", "brand": "USPS", "collection_times": "Mo-Fr 13:00; Sa 13:20", "name": "USPS COLLECTION BOX - BLUE BOX", "note": "ON 12/24 AND 12/31, THIS BOX MAY BE COLLECTED AS EARLY AS 12 NOON.", "ref": "8020600048"}, "type": "Feature"}
{"geometry": {"coordinates": [-104.951165, 39.725535], "type": "Point"}, "id": "8rRd5h6nGm-hxfYeBf9iTa9AZGk=", "properties": {"@spider": "usps_collection_boxes", "addr:city": "DENVER", "addr:country": "US", "addr:full": "3042 E 6TH AVE", "addr:postcode": "80206", "addr:state": "CO", "brand": "USPS", "collection_times": "Mo-Fr 12:30; Sa 10:30", "name": "USPS COLLECTION BOX - BLUE BOX", "note": "ON 12/24 AND 12/31, THIS BOX MAY BE COLLECTED AS EARLY AS 12 NOON.", "ref": "8020600051"}, "type": "Feature"}
{"geometry": {"coordinates": [-104.962199, 39.736733], "type": "Point"}, "id": "ffiPHcYEiH34i9NBvtI09uxnvKo=", "properties": {"@spider": "usps_collection_boxes", "addr:city": "DENVER", "addr:country": "US", "addr:full": "1280 VINE ST", "addr:postcode": "80206", "addr:state": "CO", "brand": "USPS", "collection_times": "Mo-Fr 11:00; Sa 13:15", "name": "USPS COLLECTION BOX - BLUE BOX", "note": "ON 12/24 AND 12/31, THIS BOX MAY BE COLLECTED AS EARLY AS 12 NOON.", "ref": "8020600060"}, "type": "Feature"}
{"geometry": {"coordinates": [-104.95988, 39.734965], "type": "Point"}, "id": "EVNQ0acpibh5HKIR54h3FSZH_Pg=", "properties": {"@spider": "usps_collection_boxes", "addr:city": "DENVER", "addr:country": "US", "addr:full": "1177 YORK ST", "addr:postcode": "80206", "addr:state": "CO", "brand": "USPS", "collection_times": "Mo-Sa 11:00", "name": "USPS COLLECTION BOX - BLUE BOX", "ref": "8020600062"}, "type": "Feature"}
{"geometry": {"coordinates": [-104.955389, 39.735101], "type": "Point"}, "id": "UNV8KtkcDFWFBk9a8dq6e1rTJlw=", "properties": {"@spider": "usps_collection_boxes", "addr:city": "DENVER", "addr:country": "US", "addr:full": "2640 E 12TH AVE", "addr:postcode": "80206", "addr:state": "CO", "brand": "USPS", "collection_times": "Mo-Fr 13:15; Sa 11:10", "name": "USPS COLLECTION BOX - BLUE BOX", "note": "ON 12/24 AND 12/31, THIS BOX MAY BE COLLECTED AS EARLY AS 12 NOON.", "ref": "8020600066"}, "type": "Feature"}
{"geometry": {"coordinates": [-104.947286, 39.717198], "type": "Point"}, "id": "ElTyw5X_mrD5CBdCiVSbJCzWEzM=", "properties": {"@spider": "usps_collection_boxes", "addr:city": "DENVER", "addr:country": "US", "addr:full": "3410 E 1ST AVE", "addr:postcode": "80206", "addr:state": "CO", "brand": "USPS", "collection_times": "Mo-Fr 14:00; Sa 14:15", "name": "USPS COLLECTION BOX - BLUE BOX", "note": "ON 12/24 AND 12/31, THIS BOX MAY BE COLLECTED AS EARLY AS 12 NOON.", "ref": "8020600078"}, "type": "Feature"}
{"geometry": {"coordinates": [-104.94727, 39.717174], "type": "Point"}, "id": "K5HtPVrjQgLhhsGF_ViUDUlUVc0=", "properties": {"@spider": "usps_collection_boxes", "addr:city": "DENVER", "addr:country": "US", "addr:full": "3410 E 1ST AVE", "addr:postcode": "80206", "addr:state": "CO", "brand": "USPS", "collection_times": "Mo-Fr 14:00; Sa 14:15", "name": "USPS COLLECTION BOX - BLUE BOX", "note": "ON 12/24 AND 12/31, THIS BOX MAY BE COLLECTED AS EARLY AS 12 NOON.", "ref": "8020600079"}, "type": "Feature"}
{"geometry": {"coordinates": [-104.94950196, 39.7165450126], "type": "Point"}, "id": "UxTjnayOf-OdLRzTrljJD1Rvu0I=", "properties": {"@spider": "usps_collection_boxes", "addr:city": "DENVER", "addr:country": "US", "addr:full": "2 STEELE ST", "addr:postcode": "80206", "addr:state": "CO", "brand": "USPS", "collection_times": "Mo-Fr 13:30; Sa 09:00", "name": "USPS COLLECTION BOX - BLUE BOX", "note": "ON 12/24 AND 12/31, THIS BOX MAY BE COLLECTED AS EARLY AS 12 NOON.", "ref": "8020600081"}, "type": "Feature"}
{"geometry": {"coordinates": [-104.951198, 39.718652], "type": "Point"}, "id": "Qea0-XbyTc-joT_zndLK9ru9PEs=", "properties": {"@spider": "usps_collection_boxes", "addr:city": "DENVER", "addr:country": "US", "addr:full": "3030 E 2ND AVE", "addr:postcode": "80206", "addr:state": "CO", "brand": "USPS", "collection_times": "Mo-Fr 12:00; Sa 14:30", "name": "USPS COLLECTION BOX - BLUE BOX", "note": "ON 12/24 AND 12/31, THIS BOX MAY BE COLLECTED AS EARLY AS 12 NOON.", "ref": "8020600085"}, "type": "Feature"}
{"geometry": {"coordinates": [-104.951471, 39.71666], "type": "Point"}, "id": "yYBS_qJFEw6ys042D4oVnfBBV8I=", "properties": {"@spider": "usps_collection_boxes", "addr:city": "DENVER", "addr:country": "US", "addr:full": "3030 E 1ST AVE", "addr:postcode": "80206", "addr:state": "CO", "brand": "USPS", "collection_times": "Mo-Fr 11:30; Sa 12:45", "name": "USPS COLLECTION BOX - BLUE BOX", "note": "ON 12/24 AND 12/31, THIS BOX MAY BE COLLECTED AS EARLY AS 12 NOON.", "ref": "8020600086"}, "type": "Feature"}
{"geometry": {"coordinates": [-104.95349, 39.720868], "type": "Point"}, "id": "QsyGOgfOVDOJjhUtSwP13zztQcw=", "properties": {"@spider": "usps_collection_boxes", "addr:city": "DENVER", "addr:country": "US", "addr:full": "299 FILLMORE ST", "addr:postcode": "80206", "addr:state": "CO", "brand": "USPS", "collection_times": "Mo-Fr 12:00; Sa 13:00", "name": "USPS COLLECTION BOX - BLUE BOX", "note": "ON 12/24 AND 12/31, THIS BOX MAY BE COLLECTED AS EARLY AS 12 NOON.", "ref": "8020600106"}, "type": "Feature"}
{"geometry": {"coordinates": [-104.964651, 39.740123], "type": "Point"}, "id": "-FqWCurRFVixSb765EqW4nZTs8U=", "properties": {"@spider": "usps_collection_boxes", "addr:city": "DENVER", "addr:country": "US", "addr:full": "1901 E COLFAX AVE", "addr:postcode": "80206", "addr:state": "CO", "brand": "USPS", "collection_times": "Mo-Fr 14:00; Sa 11:45", "name": "USPS COLLECTION BOX - BLUE BOX", "note": "ON 12/24 AND 12/31, THIS BOX MAY BE COLLECTED AS EARLY AS 12 NOON.", "ref": "8020600108"}, "type": "Feature"}
{"geometry": {"coordinates": [-104.954613, 39.740289], "type": "Point"}, "id": "CY2Hx2QTjnl-oxXXVWSW9c-pA4E=", "properties": {"@spider": "usps_collection_boxes", "addr:city": "DENVER", "addr:country": "US", "addr:full": "2801 E COLFAX AVE", "addr:postcode": "80206", "addr:state": "CO", "brand": "USPS", "collection_times": "Mo-Fr 13:30; Sa 11:15", "name": "USPS COLLECTION BOX - BLUE BOX", "note": "ON 12/24 AND 12/31, THIS BOX MAY BE COLLECTED AS EARLY AS 12 NOON.", "ref": "8020600110"}, "type": "Feature"}
{"geometry": {"coordinates": [-104.960367, 39.74488], "type": "Point"}, "id": "3FQJMUFkEThmDKtzdiJJjVYct6g=", "properties": {"@spider": "usps_collection_boxes", "addr:city": "DENVER", "addr:country": "US", "addr:full": "2255 E 18TH AVE", "addr:postcode": "80206", "addr:state": "CO", "brand": "USPS", "collection_times": "Mo-Fr 13:30; Sa 11:30", "name": "USPS COLLECTION BOX - BLUE BOX", "note": "ON 12/24 AND 12/31, THIS BOX MAY BE COLLECTED AS EARLY AS 12 NOON.", "ref": "8020600113"}, "type": "Feature"}
{"geometry": {"coordinates": [-104.957304, 39.720022], "type": "Point"}, "id": "57RwoZeo60tnZHRHlk6XzX-Nkvo=", "properties": {"@spider": "usps_collection_boxes", "addr:city": "DENVER", "addr:country": "US", "addr:full": "201 COLUMBINE ST", "addr:postcode": "80206", "addr:state": "CO", "brand": "USPS", "collection_times": "Mo-Fr 17:15; Sa 13:45", "name": "USPS COLLECTION BOX - PO LOBBY", "note": "ON 12/24 AND 12/31, THIS BOX MAY BE COLLECTED AS EARLY AS 12 NOON.", "ref": "8020600120"}, "type": "Feature"}
{"geometry": {"coordinates": [-104.957304, 39.720022], "type": "Point"}, "id": "abMqD9NCHy2ooFnotKsIkXiOcOk=", "properties": {"@spider": "usps_collection_boxes", "addr:city": "DENVER", "addr:country": "US", "addr:full": "201 COLUMBINE ST", "addr:postcode": "80206", "addr:state": "CO", "brand": "USPS", "collection_times": "Mo-Fr 17:15; Sa 13:45", "name": "USPS COLLECTION BOX - PO LOBBY", "note": "ON 12/24 AND 12/31, THIS BOX MAY BE COLLECTED AS EARLY AS 12 NOON.", "ref": "8020600121"}, "type": "Feature"}
{"geometry": {"coordinates": [-104.947431, 39.718496], "type": "Point"}, "id": "dB3cFvQWUQNJ76HQ6mvTOj53ynY=", "properties": {"@spider": "usps_collection_boxes", "addr:city": "DENVER", "addr:country": "US", "addr:full": "155 COOK ST", "addr:postcode": "80206", "addr:state": "CO", "brand": "USPS", "collection_times": "Mo-Sa 14:30", "name": "USPS COLLECTION BOX - BLUE BOX", "note": "ON 12/24 AND 12/31, THIS BOX MAY BE COLLECTED AS EARLY AS 12 NOON.", "ref": "8020600123"}, "type": "Feature"}
{"geometry": {"coordinates": [-104.947432, 39.718504], "type": "Point"}, "id": "MM86Xdi8Qltetm-eO7P5VCiJ38A=", "properties": {"@spider": "usps_collection_boxes", "addr:city": "DENVER", "addr:country": "US", "addr:full": "155 COOK ST", "addr:postcode": "80206", "addr:state": "CO", "brand": "USPS", "collection_times": "Mo-Sa 14:30", "name": "USPS COLLECTION BOX - BLUE BOX", "note": "ON 12/24 AND 12/31, THIS BOX MAY BE COLLECTED AS EARLY AS 12 NOON.", "ref": "8020600128"}, "type": "Feature"}
{"geometry": {"coordinates": [-104.957304, 39.720022], "type": "Point"}, "id": "Wweg0RH19Q9BWXBZ_lOquTssrsA=", "properties": {"@spider": "usps_collection_boxes", "addr:city": "DENVER", "addr:country": "US", "addr:full": "201 COLUMBINE ST", "addr:postcode": "80206", "addr:state": "CO", "brand": "USPS", "collection_times": "Mo-Fr 17:15; Sa 13:45", "name": "USPS COLLECTION BOX - APC", "note": "ON 12/24 AND 12/31, THIS BOX MAY BE COLLECTED AS EARLY AS 12 NOON.", "ref": "8020600148"}, "type": "Feature"}
{"geometry": {"coordinates": [-104.932958, 39.750977], "type": "Point"}, "id": "yMTk3h5yg-nLpxFYTlrmg_d5VN4=", "properties": {"@spider": "usps_collection_boxes", "addr:city": "DENVER", "addr:country": "US", "addr:full": "4638 E 23RD AVE", "addr:postcode": "80207", "addr:state": "CO", "brand": "USPS", "collection_times": "Mo-Fr 16:00; Sa 14:00", "name": "USPS COLLECTION BOX - BLUE BOX", "note": "ON 12/24 AND 12/31, THIS BOX MAY BE COLLECTED AS EARLY AS 12 NOON.", "ref": "8020700003"}, "type": "Feature"}
{"geometry": {"coordinates": [-104.924724, 39.74756], "type": "Point"}, "id": "HH5y-dRA-XyDKw1xNbpmDAoltB8=", "properties": {"@spider": "usps_collection_boxes", "addr:city": "DENVER", "addr:country": "US", "addr:full": "5335 MONTVIEW BLVD", "addr:postcode": "80207", "addr:state": "CO", "brand": "USPS", "collection_times": "Mo-Fr 16:00; Sa 14:00", "name": "USPS COLLECTION BOX - BLUE BOX", "note": "ON 12/24 AND 12/31, THIS BOX MAY BE COLLECTED AS EARLY AS 12 NOON.", "ref": "8020700007"}, "type": "Feature"}
{"geometry": {"coordinates": [-104.924126, 39.764324], "type": "Point"}, "id": "fDr9IuvhUHgXANIFb4zgL5V-Rbo=", "properties": {"@spider": "usps_collection_boxes", "addr:city": "DENVER", "addr:country": "US", "addr:full": "3355 HUDSON ST", "addr:postcode": "80207", "addr:state": "CO", "brand": "USPS", "collection_times": "Mo-Fr 17:15; Sa 16:30", "name": "USPS COLLECTION BOX - BLUE BOX", "note": "ON 12/24 AND 12/31, THIS BOX MAY BE COLLECTED AS EARLY AS 12 NOON.", "ref": "8020700009"}, "type": "Feature"}
{"geometry": {"coordinates": [-104.915142, 39.769212], "type": "Point"}, "id": "0PTzW04HcsLm3mi68DuSM20wM38=", "properties": {"@spider": "usps_collection_boxes", "addr:city": "DENVER", "addr:country": "US", "addr:full": "3695 LEYDEN ST", "addr:postcode": "80207", "addr:state": "CO", "brand": "USPS", "collection_times": "Mo-Sa 12:00", "name": "USPS COLLECTION BOX - BLUE BOX", "ref": "8020700011"}, "type": "Feature"}
{"geometry": {"coordinates": [-104.900347, 39.76104], "type": "Point"}, "id": "40Y4VTzTbnYJe3nophp9k1tTvBI=", "properties": {"@spider": "usps_collection_boxes", "addr:city": "DENVER", "addr:country": "US", "addr:full": "7401 MARTIN LUTHER KING BLVD", "addr:postcode": "80207", "addr:state": "CO", "brand": "USPS", "collection_times": "Mo-Sa 11:00", "name": "USPS COLLECTION BOX - BLUE BOX", "ref": "8020700012"}, "type": "Feature"}
{"geometry": {"coordinates": [-104.904157037, 39.765119986], "type": "Point"}, "id": "Zl_72GrPaiPsmjaEeYZI85Du0yc=", "properties": {"@spider": "usps_collection_boxes", "addr:city": "DENVER", "addr:country": "US", "addr:full": "3401 QUEBEC ST", "addr:postcode": "80207", "addr:state": "CO", "brand": "USPS", "collection_times": "Mo-Fr 15:45; Sa 11:00", "name": "USPS COLLECTION BOX - BLUE BOX", "note": "ON 12/24 AND 12/31, THIS BOX MAY BE COLLECTED AS EARLY AS 12 NOON.", "ref": "8020700017"}, "type": "Feature"}
{"geometry": {"coordinates": [-104.894312, 39.772751], "type": "Point"}, "id": "3Hc5jVK4JXxSWHmyOmlSJYw61nM=", "properties": {"@spider": "usps_collection_boxes", "addr:city": "DENVER", "addr:country": "US", "addr:full": "3989 ULSTER ST", "addr:postcode": "80207", "addr:state": "CO", "brand": "USPS", "collection_times": "Mo-Fr 15:00; Sa 11:00", "name": "USPS COLLECTION BOX - BLUE BOX", "note": "ON 12/24 AND 12/31, THIS BOX MAY BE COLLECTED AS EARLY AS 12 NOON.", "ref": "8020700021"}, "type": "Feature"}
{"geometry": {"coordinates": [-104.924136, 39.764306], "type": "Point"}, "id": "pCPmmty8iDJMj2QIlbTVfE7463k=", "properties": {"@spider": "usps_collection_boxes", "addr:city": "DENVER", "addr:country": "US", "addr:full": "3355 HUDSON ST", "addr:postcode": "80207", "addr:state": "CO", "brand": "USPS", "collection_times": "Mo-Fr 17:15; Sa 16:30", "name": "USPS COLLECTION BOX - BLUE BOX", "note": "ON 12/24 AND 12/31, THIS BOX MAY BE COLLECTED AS EARLY AS 12 NOON.", "ref": "8020700035"}, "type": "Feature"}
{"geometry": {"coordinates": [-104.924135, 39.764307], "type": "Point"}, "id": "wWVq9i7nHaru6SSsbcor5Cd1zoM=", "properties": {"@spider": "usps_collection_boxes", "addr:city": "DENVER", "addr:country": "US", "addr:full": "3355 HUDSON ST", "addr:postcode": "80207", "addr:state": "CO", "brand": "USPS", "collection_times": "Mo-Fr 17:15; Sa 16:30", "name": "USPS COLLECTION BOX - BLUE BOX", "note": "ON 12/24 AND 12/31, THIS BOX MAY BE COLLECTED AS EARLY AS 12 NOON.", "ref": "8020700036"}, "type": "Feature"}
{"geometry": {"coordinates": [-104.92414, 39.764291], "type": "Point"}, "id": "72FSF8YTawt_YUMsNkBprvlnSn4=", "properties": {"@spider": "usps_collection_boxes", "addr:city": "DENVER", "addr:country": "US", "addr:full": "3355 HUDSON ST", "addr:postcode": "80207", "addr:state": "CO", "brand": "USPS", "collection_times": "Mo-Fr 15:45; Sa 12:55", "name": "USPS COLLECTION BOX - EXPRESS", "note": "ON 12/24 AND 12/31, THIS BOX MAY BE COLLECTED AS EARLY AS 12 NOON.", "ref": "8020700037"}, "type": "Feature"}
{"geometry": {"coordinates": [-104.924193, 39.764274], "type": "Point"}, "id": "zWKNXv837baHJ_cKFGgocQ9x34s=", "properties": {"@spider": "usps_collection_boxes", "addr:city": "DENVER", "addr:country": "US", "addr:full": "3355 HUDSON ST", "addr:postcode": "80207", "addr:state": "CO", "brand": "USPS", "collection_times": "Mo-Fr 17:15; Sa 16:30", "name": "USPS COLLECTION BOX - PO LOBBY", "note": "ON 12/24 AND 12/31, THIS BOX MAY BE COLLECTED AS EARLY AS 12 NOON.", "ref": "8020700050"}, "type": "Feature"}
{"geometry": {"coordinates": [-104.908374, 39.750132], "type": "Point"}, "id": "4Av-eC-aAVOvmPYaE6hfZH5iT5k=", "properties": {"@spider": "usps_collection_boxes", "addr:city": "DENVER", "addr:country": "US", "addr:full": "2201 ONEIDA ST", "addr:postcode": "80207", "addr:state": "CO", "brand": "USPS", "collection_times": "Mo-Fr 15:00; Sa 12:15", "name": "USPS COLLECTION BOX - BLUE BOX", "note": "ON 12/24 AND 12/31, THIS BOX MAY BE COLLECTED AS EARLY AS 12 NOON.", "ref": "8020700055"}, "type": "Feature"}
{"geometry": {"coordinates": [-104.90012, 39.772441], "type": "Point"}, "id": "pmwMxmXDjuVzUNCjg3pCoR2jwh4=", "properties": {"@spider": "usps_collection_boxes", "addr:city": "DENVER", "addr:country": "US", "addr:full": "3980 QUEBEC ST", "addr:postcode": "80207", "addr:state": "CO", "brand": "USPS", "collection_times": "Mo-Sa 11:00", "name": "USPS COLLECTION BOX - BLUE BOX", "ref": "8020700056"}, "type": "Feature"}
{"geometry": {"coordinates": [-104.955843, 39.710326], "type": "Point"}, "id": "g9l55X6MFgZou6CBZxpbNmnz8Do=", "properties": {"@spider": "usps_collection_boxes", "addr:city": "DENVER", "addr:country": "US", "addr:full": "2552 E ALAMEDA AVE", "addr:postcode": "80209", "addr:state": "CO", "brand": "USPS", "collection_times": "Mo-Fr 13:00; Sa 10:00", "name": "USPS COLLECTION BOX - BLUE BOX", "note": "ON 12/24 AND 12/31, THIS BOX MAY BE COLLECTED AS EARLY AS 12 NOON.", "ref": "8020900001"}, "type": "Feature"}
{"geometry": {"coordinates": [-104.95372, 39.698929], "type": "Point"}, "id": "K3kFqkVaRt0DQSg9G4z32upzGUI=", "properties": {"@spider": "usps_collection_boxes", "addr:city": "DENVER", "addr:country": "US", "addr:full": "1000 BONNIE BRAE BLVD", "addr:postcode": "80209", "addr:state": "CO", "brand": "USPS", "collection_times": "Mo-Fr 13:00; Sa 10:15", "name": "USPS COLLECTION BOX - BLUE BOX", "note": "ON 12/24 AND 12/31, THIS BOX MAY BE COLLECTED AS EARLY AS 12 NOON.", "ref": "8020900002"}, "type": "Feature"}
{"geometry": {"coordinates": [-104.98793, 39.712415], "type": "Point"}, "id": "Q2x0QP9v23Fv5sj806P-fofQ6VQ=", "properties": {"@spider": "usps_collection_boxes", "addr:city": "DENVER", "addr:country": "US", "addr:full": "225 S BROADWAY", "addr:postcode": "80209", "addr:state": "CO", "brand": "USPS", "collection_times": "Mo-Fr 17:30; Sa 16:30", "name": "USPS COLLECTION BOX - BLUE BOX", "note": "ON 12/24 AND 12/31, THIS BOX MAY BE COLLECTED AS EARLY AS 12 NOON.", "ref": "8020900004"}, "type": "Feature"}
{"geometry": {"coordinates": [-104.99004, 39.705674], "type": "Point"}, "id": "pJMQkyE_Z5YAv4kzvmMxfyXc6Mw=", "properties": {"@spider": "usps_collection_boxes", "addr:city": "DENVER", "addr:country": "US", "addr:full": "595 S BROADWAY", "addr:postcode": "80209", "addr:state": "CO", "brand": "USPS", "collection_times": "Mo-Fr 11:30; Sa 12:45", "name": "USPS COLLECTION BOX - BLUE BOX", "note": "ON 12/24 AND 12/31, THIS BOX MAY BE COLLECTED AS EARLY AS 12 NOON.", "ref": "8020900006"}, "type": "Feature"}
{"geometry": {"coordinates": [-104.943891, 39.709401], "type": "Point"}, "id": "kNbcJhqNfjnO10SFZx8xb0d4g7U=", "properties": {"@spider": "usps_collection_boxes", "addr:city": "DENVER", "addr:country": "US", "addr:full": "3665 E DAKOTA AVE", "addr:postcode": "80209", "addr:state": "CO", "brand": "USPS", "collection_times": "Mo-Fr 14:00; Sa 13:45", "name": "USPS COLLECTION BOX - BLUE BOX", "note": "ON 12/24 AND 12/31, THIS BOX MAY BE COLLECTED AS EARLY AS 12 NOON.", "ref": "8020900016"}, "type": "Feature"}
{"geometry": {"coordinates": [-104.941635, 39.704746], "type": "Point"}, "id": "ou8TIrzGSkpyuY39xz5eLAslKu8=", "properties": {"@spider": "usps_collection_boxes", "addr:city": "DENVER", "addr:country": "US", "addr:full": "3955 E EXPOSITION AVE", "addr:postcode": "80209", "addr:state": "CO", "brand": "USPS", "collection_times": "Mo-Fr 14:00; Sa 09:00", "name": "USPS COLLECTION BOX - BLUE BOX", "note": "ON 12/24 AND 12/31, THIS BOX MAY BE COLLECTED AS EARLY AS 12 NOON.", "ref": "8020900020"}, "type": "Feature"}
{"geometry": {"coordinates": [-104.968314, 39.703786], "type": "Point"}, "id": "6cOsY-QYv1KGG8N5ZtAPKBIWn54=", "properties": {"@spider": "usps_collection_boxes", "addr:city": "DENVER", "addr:country": "US", "addr:full": "1650 E EXPOSITION AVE", "addr:postcode": "80209", "addr:state": "CO", "brand": "USPS", "collection_times": "Mo-Fr 12:30; Sa 10:30", "name": "USPS COLLECTION BOX - BLUE BOX", "note": "ON 12/24 AND 12/31, THIS BOX MAY BE COLLECTED AS EARLY AS 12 NOON.", "ref": "8020900021"}, "type": "Feature"}
{"geometry": {"coordinates": [-104.96863, 39.7074], "type": "Point"}, "id": "o_LWbIQzg-n4DIcKCCStJKQaQ04=", "properties": {"@spider": "usps_collection_boxes", "addr:city": "DENVER", "addr:country": "US", "addr:full": "500 S FRANKLIN ST", "addr:postcode": "80209", "addr:state": "CO", "brand": "USPS", "collection_times": "Mo-Fr 12:30; Sa 10:45", "name": "USPS COLLECTION BOX - BLUE BOX", "note": "ON 12/24 AND 12/31, THIS BOX MAY BE COLLECTED AS EARLY AS 12 NOON.", "ref": "8020900022"}, "type": "Feature"}
{"geometry": {"coordinates": [-104.961823, 39.697348], "type": "Point"}, "id": "CHaBC7N_AEqWpALr4K02jSz_mPw=", "properties": {"@spider": "usps_collection_boxes", "addr:city": "DENVER", "addr:country": "US", "addr:full": "1059 S GAYLORD ST", "addr:postcode": "80209", "addr:state": "CO", "brand": "USPS", "collection_times": "Mo-Fr 13:00; Sa 10:30", "name": "USPS COLLECTION BOX - BLUE BOX", "note": "ON 12/24 AND 12/31, THIS BOX MAY BE COLLECTED AS EARLY AS 12 NOON.", "ref": "8020900023"}, "type": "Feature"}
{"geometry": {"coordinates": [-104.967386, 39.705728], "type": "Point"}, "id": "u7YMyXCJMKFDqozpa1iytCWo6LA=", "properties": {"@spider": "usps_collection_boxes", "addr:city": "DENVER", "addr:country": "US", "addr:full": "598 S GILPIN ST", "addr:postcode": "80209", "addr:state": "CO", "brand": "USPS", "collection_times": "Mo-Fr 13:00; Sa 10:45", "name": "USPS COLLECTION BOX - BLUE BOX", "note": "ON 12/24 AND 12/31, THIS BOX MAY BE COLLECTED AS EARLY AS 12 NOON.", "ref": "8020900024"}, "type": "Feature"}
{"geometry": {"coordinates": [-104.9834350054, 39.7105770138], "type": "Point"}, "id": "XwOl_SvMdlqMa-3b1opFByOv8Jk=", "properties": {"@spider": "usps_collection_boxes", "addr:city": "DENVER", "addr:country": "US", "addr:full": "300 E ALAMEDA AVE", "addr:postcode": "80209", "addr:state": "CO", "brand": "USPS", "collection_times": "Mo-Sa 10:00", "name": "USPS COLLECTION BOX - BLUE BOX", "ref": "8020900025"}, "type": "Feature"}
{"geometry": {"coordinates": [-104.942541, 39.710967], "type": "Point"}, "id": "8XtDv9wrOjZt7SWiNh-jpmQpAQU=", "properties": {"@spider": "usps_collection_boxes", "addr:city": "DENVER", "addr:country": "US", "addr:full": "300 S JACKSON ST", "addr:postcode": "80209", "addr:state": "CO", "brand": "USPS", "collection_times": "Mo-Fr 15:00; Sa 13:30", "name": "USPS COLLECTION BOX - BLUE BOX", "note": "ON 12/24 AND 12/31, THIS BOX MAY BE COLLECTED AS EARLY AS 12 NOON.", "ref": "8020900027"}, "type": "Feature"}
{"geometry": {"coordinates": [-104.98275776, 39.703824], "type": "Point"}, "id": "oLECOWXdh2eZEIsrGOVCfFacRLM=", "properties": {"@spider": "usps_collection_boxes", "addr:city": "DENVER", "addr:country": "US", "addr:full": "700 S LOGAN ST", "addr:postcode": "80209", "addr:state": "CO", "brand": "USPS", "collection_times": "Mo-Fr 13:00; Sa 10:45", "name": "USPS COLLECTION BOX - BLUE BOX", "note": "ON 12/24 AND 12/31, THIS BOX MAY BE COLLECTED AS EARLY AS 12 NOON.", "ref": "8020900030"}, "type": "Feature"}
{"geometry": {"coordinates": [-104.982688, 39.698439], "type": "Point"}, "id": "ewbCi4WwJVPKyx9yqsppClK1K1g=", "properties": {"@spider": "usps_collection_boxes", "addr:city": "DENVER", "addr:country": "US", "addr:full": "990 S LOGAN ST", "addr:postcode": "80209", "addr:state": "CO", "brand": "USPS", "collection_times": "Mo-Fr 12:30; Sa 11:00", "name": "USPS COLLECTION BOX - BLUE BOX", "note": "ON 12/24 AND 12/31, THIS BOX MAY BE COLLECTED AS EARLY AS 12 NOON.", "ref": "8020900031"}, "type": "Feature"}
{"geometry": {"coordinates": [-104.946117, 39.714462], "type": "Point"}, "id": "LcQg8cQHDVv-drXVWORXEs3UDZI=", "properties": {"@spider": "usps_collection_boxes", "addr:city": "DENVER", "addr:country": "US", "addr:full": "100 S MADISON ST", "addr:postcode": "80209", "addr:state": "CO", "brand": "USPS", "collection_times": "Mo-Fr 15:00; Sa 14:00", "name": "USPS COLLECTION BOX - BLUE BOX", "note": "ON 12/24 AND 12/31, THIS BOX MAY BE COLLECTED AS EARLY AS 12 NOON.", "ref": "8020900032"}, "type": "Feature"}
{"geometry": {"coordinates": [-104.975717, 39.714765], "type": "Point"}, "id": "AXWCwAhYXcOZp6FoavLPUprE3mM=", "properties": {"@spider": "usps_collection_boxes", "addr:city": "DENVER", "addr:country": "US", "addr:full": "1001 E BAYAUD AVE", "addr:postcode": "80209", "addr:state": "CO", "brand": "USPS", "collection_times": "Mo-Fr 14:00; Sa 13:00", "name": "USPS COLLECTION BOX - BLUE BOX", "note": "ON 12/24 AND 12/31, THIS BOX MAY BE COLLECTED AS EARLY AS 12 NOON.", "ref": "8020900034"}, "type": "Feature"}
{"geometry": {"coordinates": [-104.980275, 39.711206], "type": "Point"}, "id": "PMx5TyQi9AOqViKUxE-y_FCePZI=", "properties": {"@spider": "usps_collection_boxes", "addr:city": "DENVER", "addr:country": "US", "addr:full": "607 E ALAMEDA AVE", "addr:postcode": "80209", "addr:state": "CO", "brand": "USPS", "collection_times": "Mo-Fr 14:00; Sa 12:45", "name": "USPS COLLECTION BOX - BLUE BOX", "note": "ON 12/24 AND 12/31, THIS BOX MAY BE COLLECTED AS EARLY AS 12 NOON.", "ref": "8020900037"}, "type": "Feature"}
{"geometry": {"coordinates": [-104.964161, 39.70029], "type": "Point"}, "id": "GTxPbyW2zLmA7JBdzqdLZqPN8Lw=", "properties": {"@spider": "usps_collection_boxes", "addr:city": "DENVER", "addr:country": "US", "addr:full": "1939 E KENTUCKY AVE", "addr:postcode": "80209", "addr:state": "CO", "brand": "USPS", "collection_times": "Mo-Fr 14:30; Sa 10:30", "name": "USPS COLLECTION BOX - BLUE BOX", "note": "ON 12/24 AND 12/31, THIS BOX MAY BE COLLECTED AS EARLY AS 12 NOON.", "ref": "8020900041"}, "type": "Feature"}
{"geometry": {"coordinates": [-104.962774, 39.70762], "type": "Point"}, "id": "F9tsmwuEvnvbOojPYgZcbMuwFqQ=", "properties": {"@spider": "usps_collection_boxes", "addr:city": "DENVER", "addr:country": "US", "addr:full": "2101 E VIRGINIA AVE", "addr:postcode": "80209", "addr:state": "CO", "brand": "USPS", "collection_times": "Mo-Fr 14:30; Sa 15:00", "name": "USPS COLLECTION BOX - BLUE BOX", "note": "ON 12/24 AND 12/31, THIS BOX MAY BE COLLECTED AS EARLY AS 12 NOON.", "ref": "8020900045"}, "type": "Feature"}
{"geometry": {"coordinates": [-104.987908, 39.712415], "type": "Point"}, "id": "40qz2ChTRyGg2F3lGG8HBA5snNA=", "properties": {"@spider": "usps_collection_boxes", "addr:city": "DENVER", "addr:country": "US", "addr:full": "225 S BROADWAY", "addr:postcode": "80209", "addr:state": "CO", "brand": "USPS", "collection_times": "Mo-Fr 17:30; Sa 16:30", "name": "USPS COLLECTION BOX - BLUE BOX", "note": "ON 12/24 AND 12/31, THIS BOX MAY BE COLLECTED AS EARLY AS 12 NOON.", "ref": "8020900050"}, "type": "Feature"}
{"geometry": {"coordinates": [-104.987911, 39.712407], "type": "Point"}, "id": "NjELq3keE2i1SHpgO0WHLaaKm5s=", "properties": {"@spider": "usps_collection_boxes", "addr:city": "DENVER", "addr:country": "US", "addr:full": "225 S BROADWAY", "addr:postcode": "80209", "addr:state": "CO", "brand": "USPS", "collection_times": "Mo-Fr 17:30; Sa 16:30", "name": "USPS COLLECTION BOX - BLUE BOX", "note": "ON 12/24 AND 12/31, THIS BOX MAY BE COLLECTED AS EARLY AS 12 NOON.", "ref": "8020900051"}, "type": "Feature"}
{"geometry": {"coordinates": [-104.987903, 39.712416], "type": "Point"}, "id": "kh0tvOzaUXy6A4ScI0bpH2p7SyQ=", "properties": {"@spider": "usps_collection_boxes", "addr:city": "DENVER", "addr:country": "US", "addr:full": "225 S BROADWAY", "addr:postcode": "80209", "addr:state": "CO", "brand": "USPS", "collection_times": "Mo-Fr 17:30; Sa 16:30", "name": "USPS COLLECTION BOX - BLUE BOX", "note": "ON 12/24 AND 12/31, THIS BOX MAY BE COLLECTED AS EARLY AS 12 NOON.", "ref": "8020900052"}, "type": "Feature"}
{"geometry": {"coordinates": [-104.9879, 39.712408], "type": "Point"}, "id": "etY7qtTGUWYtWVHDGq73qIgstWE=", "properties": {"@spider": "usps_collection_boxes", "addr:city": "DENVER", "addr:country": "US", "addr:full": "225 S BROADWAY", "addr:postcode": "80209", "addr:state": "CO", "brand": "USPS", "collection_times": "Mo-Fr 17:30; Sa 16:30", "name": "USPS COLLECTION BOX - BLUE BOX", "note": "ON 12/24 AND 12/31, THIS BOX MAY BE COLLECTED AS EARLY AS 12 NOON.", "ref": "8020900053"}, "type": "Feature"}
{"geometry": {"coordinates": [-104.990036, 39.705656], "type": "Point"}, "id": "xz_wsXWwMHZN4mEg1nJSNFDebCE=", "properties": {"@spider": "usps_collection_boxes", "addr:city": "DENVER", "addr:country": "US", "addr:full": "595 S BROADWAY", "addr:postcode": "80209", "addr:state": "CO", "brand": "USPS", "collection_times": "Mo-Fr 11:30; Sa 12:45", "name": "USPS COLLECTION BOX - BLUE BOX", "note": "ON 12/24 AND 12/31, THIS BOX MAY BE COLLECTED AS EARLY AS 12 NOON.", "ref": "8020900057"}, "type": "Feature"}
{"geometry": {"coordinates": [-104.987944, 39.712418], "type": "Point"}, "id": "hYMnHyffWiOq0dPbr2rl5Hliccs=", "properties": {"@spider": "usps_collection_boxes", "addr:city": "DENVER", "addr:country": "US", "addr:full": "225 S BROADWAY", "addr:postcode": "80209", "addr:state": "CO", "brand": "USPS", "collection_times": "Mo-Fr 15:30; Sa 12:55", "name": "USPS COLLECTION BOX - EXPRESS", "note": "ON 12/24 AND 12/31, THIS BOX MAY BE COLLECTED AS EARLY AS 12 NOON.", "ref": "8020900082"}, "type": "Feature"}
{"geometry": {"coordinates": [-104.9851809242, 39.6966975377], "type": "Point"}, "id": "lq9NFY8fYy_ZIomCQ6Ylm-iZ80I=", "properties": {"@spider": "usps_collection_boxes", "addr:city": "DENVER", "addr:country": "US", "addr:full": "197 E MISSISSIPPI AVE", "addr:postcode": "80210", "addr:state": "CO", "brand": "USPS", "collection_times": "Mo-Fr 10:00; Sa 11:00", "name": "USPS COLLECTION BOX - BLUE BOX", "ref": "8021000003"}, "type": "Feature"}
{"geometry": {"coordinates": [-104.943645, 39.680028], "type": "Point"}, "id": "QpVqO44bEV1656oXzqZFlcJJVtk=", "properties": {"@spider": "usps_collection_boxes", "addr:city": "DENVER", "addr:country": "US", "addr:full": "3800 BUCHTEL BLVD", "addr:postcode": "80210", "addr:state": "CO", "brand": "USPS", "collection_times": "Mo-Fr 16:00; Sa 12:45", "name": "USPS COLLECTION BOX - EXPRESS", "note": "ON 12/24 AND 12/31, THIS BOX MAY BE COLLECTED AS EARLY AS 12 NOON.", "ref": "8021000010"}, "type": "Feature"}
{"geometry": {"coordinates": [-104.954614, 39.692984], "type": "Point"}, "id": "jWaWVl7iwaReNp29i0NUsTvi0uI=", "properties": {"@spider": "usps_collection_boxes", "addr:city": "DENVER", "addr:country": "US", "addr:full": "2703 E LOUISIANA AVE", "addr:postcode": "80210", "addr:state": "CO", "brand": "USPS", "collection_times": "Mo-Fr 14:00; Sa 12:50", "name": "USPS COLLECTION BOX - BLUE BOX", "note": "ON 12/24 AND 12/31, THIS BOX MAY BE COLLECTED AS EARLY AS 12 NOON.", "ref": "8021000012"}, "type": "Feature"}
{"geometry": {"coordinates": [-104.953774, 39.674752], "type": "Point"}, "id": "nG4lGC8mlKPxaP-CthYWLV7UA2g=", "properties": {"@spider": "usps_collection_boxes", "addr:city": "DENVER", "addr:country": "US", "addr:full": "2305 S FILLMORE ST", "addr:postcode": "80210", "addr:state": "CO", "brand": "USPS", "collection_times": "Mo-Fr 11:30; Sa 13:35", "name": "USPS COLLECTION BOX - BLUE BOX", "note": "ON 12/24 AND 12/31, THIS BOX MAY BE COLLECTED AS EARLY AS 12 NOON.", "ref": "8021000023"}, "type": "Feature"}
{"geometry": {"coordinates": [-104.968831, 39.682067], "type": "Point"}, "id": "8JvDsaMX9R8pAbNX8dSbHdFakOA=", "properties": {"@spider": "usps_collection_boxes", "addr:city": "DENVER", "addr:country": "US", "addr:full": "1903 S FRANKLIN ST", "addr:postcode": "80210", "addr:state": "CO", "brand": "USPS", "collection_times": "Mo-Fr 12:00; Sa 11:40", "name": "USPS COLLECTION BOX - BLUE BOX", "ref": "8021000025"}, "type": "Feature"}
{"geometry": {"coordinates": [-104.961778, 39.68904], "type": "Point"}, "id": "ex9EPzYL6-KROsn3BeqVlp1U0hM=", "properties": {"@spider": "usps_collection_boxes", "addr:city": "DENVER", "addr:country": "US", "addr:full": "1501 S GAYLORD ST", "addr:postcode": "80210", "addr:state": "CO", "brand": "USPS", "collection_times": "Mo-Fr 12:00; Sa 09:00", "name": "USPS COLLECTION BOX - BLUE BOX", "ref": "8021000026"}, "type": "Feature"}
{"geometry": {"coordinates": [-104.9678200227, 39.6768170128], "type": "Point"}, "id": "U7mzkCkpJOcKTlHRLE7N8TT0NFA=", "properties": {"@spider": "usps_collection_boxes", "addr:city": "DENVER", "addr:country": "US", "addr:full": "2189 S GILPIN ST", "addr:postcode": "80210", "addr:state": "CO", "brand": "USPS", "collection_times": "Mo-Fr 11:30; Sa 09:00", "name": "USPS COLLECTION BOX - BLUE BOX", "ref": "8021000027"}, "type": "Feature"}
{"geometry": {"coordinates": [-104.976481, 39.670871], "type": "Point"}, "id": "ROpvacGWAwQM-dKHi64sDrgfZUo=", "properties": {"@spider": "usps_collection_boxes", "addr:city": "DENVER", "addr:country": "US", "addr:full": "950 E HARVARD AVE", "addr:postcode": "80210", "addr:state": "CO", "brand": "USPS", "collection_times": "Mo-Fr 11:00; Sa 13:15", "name": "USPS COLLECTION BOX - BLUE BOX", "note": "ON 12/24 AND 12/31, THIS BOX MAY BE COLLECTED AS EARLY AS 12 NOON.", "ref": "8021000032"}, "type": "Feature"}
{"geometry": {"coordinates": [-104.969854, 39.67314], "type": "Point"}, "id": "G0KZ7oYFLn4EW6eRcGamq3vYByA=", "properties": {"@spider": "usps_collection_boxes", "addr:city": "DENVER", "addr:country": "US", "addr:full": "2388 S HUMBOLDT ST", "addr:postcode": "80210", "addr:state": "CO", "brand": "USPS", "collection_times": "Mo-Fr 10:30; Sa 11:55", "name": "USPS COLLECTION BOX - BLUE BOX", "ref": "8021000033"}, "type": "Feature"}
{"geometry": {"coordinates": [-104.963865, 39.674918], "type": "Point"}, "id": "Nrw7kP2-1Bzt9zi7aU739bP2l3U=", "properties": {"@spider": "usps_collection_boxes", "addr:city": "DENVER", "addr:country": "US", "addr:full": "1901 E ILIFF AVE", "addr:postcode": "80210", "addr:state": "CO", "brand": "USPS", "collection_times": "Mo-Fr 11:30; Sa 11:50", "name": "USPS COLLECTION BOX - BLUE BOX", "ref": "8021000034"}, "type": "Feature"}
{"geometry": {"coordinates": [-104.970998, 39.692901], "type": "Point"}, "id": "-Bz1q_Ei4DG6qkNNvRuQ4U60sKU=", "properties": {"@spider": "usps_collection_boxes", "addr:city": "DENVER", "addr:country": "US", "addr:full": "1300 S LAFAYETTE ST", "addr:postcode": "80210", "addr:state": "CO", "brand": "USPS", "collection_times": "Mo-Fr 12:00; Sa 11:05", "name": "USPS COLLECTION BOX - BLUE BOX", "ref": "8021000037"}, "type": "Feature"}
{"geometry": {"coordinates": [-104.9828300998, 39.6884734679], "type": "Point"}, "id": "miL-Akz888PT5sWtGbbJrjhlfdA=", "properties": {"@spider": "usps_collection_boxes", "addr:city": "DENVER", "addr:country": "US", "addr:full": "1501 S LOGAN ST", "addr:postcode": "80210", "addr:state": "CO", "brand": "USPS", "collection_times": "Mo-Fr 10:00; Sa 11:15", "name": "USPS COLLECTION BOX - BLUE BOX", "ref": "8021000039"}, "type": "Feature"}
{"geometry": {"coordinates": [-104.945453, 39.696655], "type": "Point"}, "id": "x-U7pl7Fo-aAldbIXq9IrMfhfz0=", "properties": {"@spider": "usps_collection_boxes", "addr:city": "DENVER", "addr:country": "US", "addr:full": "3535 E MISSISSIPPI AVE", "addr:postcode": "80210", "addr:state": "CO", "brand": "USPS", "collection_times": "Mo-Fr 14:00; Sa 09:00", "name": "USPS COLLECTION BOX - BLUE BOX", "note": "ON 12/24 AND 12/31, THIS BOX MAY BE COLLECTED AS EARLY AS 12 NOON.", "ref": "8021000044"}, "type": "Feature"}
{"geometry": {"coordinates": [-104.975845, 39.67872], "type": "Point"}, "id": "242Kkh9gKBwPiaYS5dJX8ctlqsE=", "properties": {"@spider": "usps_collection_boxes", "addr:city": "DENVER", "addr:country": "US", "addr:full": "999 E EVANS AVE", "addr:postcode": "80210", "addr:state": "CO", "brand": "USPS", "collection_times": "Mo-Fr 10:30; Sa 12:55", "name": "USPS COLLECTION BOX - BLUE BOX", "note": "ON 12/24 AND 12/31, THIS BOX MAY BE COLLECTED AS EARLY AS 12 NOON.", "ref": "8021000045"}, "type": "Feature"}
{"geometry": {"coordinates": [-104.980377, 39.687474], "type": "Point"}, "id": "BeIBkCdehTv5XeRqhO_uIkqTnfE=", "properties": {"@spider": "usps_collection_boxes", "addr:city": "DENVER", "addr:country": "US", "addr:full": "1600 S PEARL ST", "addr:postcode": "80210", "addr:state": "CO", "brand": "USPS", "collection_times": "Mo-Fr 10:00; Sa 11:30", "name": "USPS COLLECTION BOX - BLUE BOX", "ref": "8021000046"}, "type": "Feature"}
{"geometry": {"coordinates": [-104.980349, 39.682219], "type": "Point"}, "id": "hCzyssYdSSFqw005mR3ZwA9tfss=", "properties": {"@spider": "usps_collection_boxes", "addr:city": "DENVER", "addr:country": "US", "addr:full": "1890 S PEARL ST", "addr:postcode": "80210", "addr:state": "CO", "brand": "USPS", "collection_times": "Mo-Fr 10:30; Sa 11:25", "name": "USPS COLLECTION BOX - BLUE BOX", "ref": "8021000047"}, "type": "Feature"}
{"geometry": {"coordinates": [-104.959702, 39.66296], "type": "Point"}, "id": "4DrwrdaLIEYCJ5LHTDuzi6vIH3s=", "properties": {"@spider": "usps_collection_boxes", "addr:city": "DENVER", "addr:country": "US", "addr:full": "3021 S UNIVERSITY BLVD", "addr:postcode": "80210", "addr:state": "CO", "brand": "USPS", "collection_times": "Mo-Fr 11:30; Sa 13:45", "name": "USPS COLLECTION BOX - BLUE BOX", "note": "ON 12/24 AND 12/31, THIS BOX MAY BE COLLECTED AS EARLY AS 12 NOON.", "ref": "8021000053"}, "type": "Feature"}
{"geometry": {"coordinates": [-104.972585, 39.677584], "type": "Point"}, "id": "WqZk6GuwjpUsp5fRM_EGOvZPlUs=", "properties": {"@spider": "usps_collection_boxes", "addr:city": "DENVER", "addr:country": "US", "addr:full": "2150 S DOWNING ST", "addr:postcode": "80210", "addr:state": "CO", "brand": "USPS", "collection_times": "Mo-Fr 10:30; Sa 13:20", "name": "USPS COLLECTION BOX - BLUE BOX", "note": "ON 12/24 AND 12/31, THIS BOX MAY BE COLLECTED AS EARLY AS 12 NOON.", "ref": "8021000061"}, "type": "Feature"}
{"geometry": {"coordinates": [-104.977719, 39.670682], "type": "Point"}, "id": "0uTsd9LQ9lFJo4UGkgu3QhyNAvk=", "properties": {"@spider": "usps_collection_boxes", "addr:city": "DENVER", "addr:country": "US", "addr:full": "850 E HARVARD AVE", "addr:postcode": "80210", "addr:state": "CO", "brand": "USPS", "collection_times": "Mo-Fr 11:00; Sa 13:10", "name": "USPS COLLECTION BOX - BLUE BOX", "note": "ON 12/24 AND 12/31, THIS BOX MAY BE COLLECTED AS EARLY AS 12 NOON.", "ref": "8021000074"}, "type": "Feature"}
{"geometry": {"coordinates": [-104.976473, 39.670897], "type": "Point"}, "id": "LiJjhtOB0hF8cWrNmUlLpnS4sIU=", "properties": {"@spider": "usps_collection_boxes", "addr:city": "DENVER", "addr:country": "US", "addr:full": "950 E HARVARD AVE", "addr:postcode": "80210", "addr:state": "CO", "brand": "USPS", "collection_times": "Mo-Fr 11:00; Sa 13:15", "name": "USPS COLLECTION BOX - BLUE BOX", "note": "ON 12/24 AND 12/31, THIS BOX MAY BE COLLECTED AS EARLY AS 12 NOON.", "ref": "8021000075"}, "type": "Feature"}
{"geometry": {"coordinates": [-104.942475, 39.680183], "type": "Point"}, "id": "ZIwIpuivox68h2JEG_V0VirBxxA=", "properties": {"@spider": "usps_collection_boxes", "addr:city": "DENVER", "addr:country": "US", "addr:full": "3800 BUCHTEL BLVD", "addr:postcode": "80210", "addr:state": "CO", "brand": "USPS", "collection_times": "Mo-Fr 17:30; Sa 17:00", "name": "USPS COLLECTION BOX - PO LOBBY", "note": "ON 12/24 AND 12/31, THIS BOX MAY BE COLLECTED AS EARLY AS 12 NOON.", "ref": "8021000091"}, "type": "Feature"}
{"geometry": {"coordinates": [-104.942475, 39.680183], "type": "Point"}, "id": "XXG977YU-TvZONGmFc3FIE4bxpY=", "properties": {"@spider": "usps_collection_boxes", "addr:city": "DENVER", "addr:country": "US", "addr:full": "3800 BUCHTEL BLVD", "addr:postcode": "80210", "addr:state": "CO", "brand": "USPS", "collection_times": "Mo-Fr 17:30; Sa 17:00", "name": "USPS COLLECTION BOX - PO LOBBY", "note": "ON 12/24 AND 12/31, THIS BOX MAY BE COLLECTED AS EARLY AS 12 NOON.", "ref": "8021000092"}, "type": "Feature"}
{"geometry": {"coordinates": [-104.942475, 39.680183], "type": "Point"},