{"geometry": {"coordinates": [-105.225391, 40.028523], "type": "Point"}, "id": "hY9VP3TMRjhkkOYu82-at5vRNGA=", "properties": {"@spider": "usps_collection_boxes", "addr:city": "BOULDER", "addr:country": "US", "addr:full": "2995 55TH ST", "addr:postcode": "80301", "addr:state": "CO", "brand": "USPS", "collection_times": "Mo-Fr 18:15; Sa 17:30", "name": "USPS COLLECTION BOX - BLUE BOX", "note": "ON 12/24 AND 12/31, THIS BOX MAY BE COLLECTED AS EARLY AS 12 NOON.", "ref": "8030100004"}, "type": "Feature"}
{"geometry": {"coordinates": [-105.225391, 40.028523], "type": "Point"}, "id": "U1JfJOivfLrPcz3SRO2sV8W4mRk=", "properties": {"@spider": "usps_collection_boxes", "addr:city": "BOULDER", "addr:country": "US", "addr:full": "2995 55TH ST", "addr:postcode": "80301", "addr:state": "CO", "brand": "USPS", "collection_times": "Mo-Fr 17:40; Sa 14:15", "name": "USPS COLLECTION BOX - EXPRESS", "note": "ON 12/24 AND 12/31, THIS BOX MAY BE COLLECTED AS EARLY AS 12 NOON.", "ref": "8030100005"}, "type": "Feature"}
{"geometry": {"coordinates": [-105.225391, 40.028523], "type": "Point"}, "id": "MrjgPSc2uCpERzBaktiy2cHp5Bk=", "properties": {"@spider": "usps_collection_boxes", "addr:city": "BOULDER", "addr:country": "US", "addr:full": "2995 55TH ST", "addr:postcode": "80301", "addr:state": "CO", "brand": "USPS", "collection_times": "Mo-Fr 18:30; Sa 17:30", "name": "USPS COLLECTION BOX - PO LOBBY", "note": "ON 12/24 AND 12/31, THIS BOX MAY BE COLLECTED AS EARLY AS 12 NOON.", "ref": "8030100006"}, "type": "Feature"}
{"geometry": {"coordinates": [-105.225391, 40.028523], "type": "Point"}, "id": "uKH368iJwnP5uYbVpC1vAyT3mBA=", "properties": {"@spider": "usps_collection_boxes", "addr:city": "BOULDER", "addr:country": "US", "addr:full": "2995 55TH ST", "addr:postcode": "80301", "addr:state": "CO", "brand": "USPS", "collection_times": "Mo-Fr 18:30; Sa 17:30", "name": "USPS COLLECTION BOX - PO LOBBY", "note": "ON 12/24 AND 12/31, THIS BOX MAY BE COLLECTED AS EARLY AS 12 NOON.", "ref": "8030100007"}, "type": "Feature"}
{"geometry": {"coordinates": [-105.225391, 40.028523], "type": "Point"}, "id": "3XDAAjnQtxACo4ExBNGf0I0sxng=", "properties": {"@spider": "usps_collection_boxes", "addr:city": "BOULDER", "addr:country": "US", "addr:full": "2995 55TH ST", "addr:postcode": "80301", "addr:state": "CO", "brand": "USPS", "collection_times": "Mo-Fr 18:30; Sa 17:30", "name": "USPS COLLECTION BOX - PO LOBBY", "note": "ON 12/24 AND 12/31, THIS BOX MAY BE COLLECTED AS EARLY AS 12 NOON.", "ref": "8030100008"}, "type": "Feature"}
{"geometry": {"coordinates": [-105.225391, 40.028523], "type": "Point"}, "id": "tckBMjdwM4O8flsahXHhpz_mo30=", "properties": {"@spider": "usps_collection_boxes", "addr:city": "BOULDER", "addr:country": "US", "addr:full": "2995 55TH ST", "addr:postcode": "80301", "addr:state": "CO", "brand": "USPS", "collection_times": "Mo-Fr 18:30; Sa 17:30", "name": "USPS COLLECTION BOX - PO LOBBY", "note": "ON 12/24 AND 12/31, THIS BOX MAY BE COLLECTED AS EARLY AS 12 NOON.", "ref": "8030100009"}, "type": "Feature"}
{"geometry": {"coordinates": [-105.225391, 40.028523], "type": "Point"}, "id": "TDkKuAQhm9WoNBK504122jUmUbA=", "properties": {"@spider": "usps_collection_boxes", "addr:city": "BOULDER", "addr:country": "US", "addr:full": "2995 55TH ST", "addr:postcode": "80301", "addr:state": "CO", "brand": "USPS", "collection_times": "Mo-Fr 18:30; Sa 17:30", "name": "USPS COLLECTION BOX - PO LOBBY", "note": "ON 12/24 AND 12/31, THIS BOX MAY BE COLLECTED AS EARLY AS 12 NOON.", "ref": "8030100010"}, "type": "Feature"}
{"geometry": {"coordinates": [-105.225391, 40.028523], "type": "Point"}, "id": "iObfpHHbyWzMh5W7h_Y05NBDK1U=", "properties": {"@spider": "usps_collection_boxes", "addr:city": "BOULDER", "addr:country": "US", "addr:full": "2995 55TH ST", "addr:postcode": "80301", "addr:state": "CO", "brand": "USPS", "collection_times": "Mo-Fr 18:30; Sa 17:30", "name": "USPS COLLECTION BOX - PO LOBBY", "note": "ON 12/24 AND 12/31, THIS BOX MAY BE COLLECTED AS EARLY AS 12 NOON.", "ref": "8030100011"}, "type": "Feature"}
{"geometry": {"coordinates": [-105.251986, 40.019242], "type": "Point"}, "id": "JRAPyGHkorV1d5_36FYI2w7Hvu0=", "properties": {"@spider": "usps_collection_boxes", "addr:city": "BOULDER", "addr:country": "US", "addr:full": "1880 30TH ST", "addr:postcode": "80301", "addr:state": "CO", "brand": "USPS", "collection_times": "Mo-Sa 11:00", "name": "USPS COLLECTION BOX - BLUE BOX", "ref": "8030100014"}, "type": "Feature"}
{"geometry": {"coordinates": [-105.252221, 40.016116], "type": "Point"}, "id": "KcCNDf1nKZISe5N1f7Y8H8mDrrE=", "properties": {"@spider": "usps_collection_boxes", "addr:city": "BOULDER", "addr:country": "US", "addr:full": "1650 30TH ST", "addr:postcode": "80301", "addr:state": "CO", "brand": "USPS", "collection_times": "Mo-Sa 11:00", "name": "USPS COLLECTION BOX - BLUE BOX", "ref": "8030100016"}, "type": "Feature"}
{"geometry": {"coordinates": [-105.256279, 40.035638], "type": "Point"}, "id": "SkpnOTRJ4bVR123hXp7l8tPD3GM=", "properties": {"@spider": "usps_collection_boxes", "addr:city": "BOULDER", "addr:country": "US", "addr:full": "2900 IRIS AVE", "addr:postcode": "80301", "addr:state": "CO", "brand": "USPS", "collection_times": "Mo-Sa 10:00", "name": "USPS COLLECTION BOX - BLUE BOX", "ref": "8030100019"}, "type": "Feature"}
{"geometry": {"coordinates": [-105.252228, 40.016115], "type": "Point"}, "id": "lvDpszYVD41Z7dGGf7qtBrKsR_0=", "properties": {"@spider": "usps_collection_boxes", "addr:city": "BOULDER", "addr:country": "US", "addr:full": "1650 30TH ST", "addr:postcode": "80301", "addr:state": "CO", "brand": "USPS", "collection_times": "Mo-Sa 11:00", "name": "USPS COLLECTION BOX - BLUE BOX", "ref": "8030100020"}, "type": "Feature"}
{"geometry": {"coordinates": [-105.2231616932, 40.0196544766], "type": "Point"}, "id": "mv7gjovq_Fm5pnV1vwiPTjxd9os=", "properties": {"@spider": "usps_collection_boxes", "addr:city": "BOULDER", "addr:country": "US", "addr:full": "5541 CENTRAL AVE", "addr:postcode": "80301", "addr:state": "CO", "brand": "USPS", "collection_times": "Mo-Sa 12:00", "name": "USPS COLLECTION BOX - BLUE BOX", "ref": "8030100021"}, "type": "Feature"}
{"geometry": {"coordinates": [-105.1982071432, 40.0713968238], "type": "Point"}, "id": "kyPKCsE9JFCPfDGR37f92wGIo5U=", "properties": {"@spider": "usps_collection_boxes", "addr:city": "BOULDER", "addr:country": "US", "addr:full": "6680 GUNPARK DR", "addr:postcode": "80301", "addr:state": "CO", "brand": "USPS", "collection_times": "Mo-Sa 12:45", "name": "USPS COLLECTION BOX - BLUE BOX", "note": "ON 12/24 AND 12/31, THIS BOX MAY BE COLLECTED AS EARLY AS 12 NOON.", "ref": "8030100024"}, "type": "Feature"}
{"geometry": {"coordinates": [-105.236323, 40.016005], "type": "Point"}, "id": "HYaRtz_T7IT2jBgkn-2GmCgEZPo=", "properties": {"@spider": "usps_collection_boxes", "addr:city": "BOULDER", "addr:country": "US", "addr:full": "4747 ARAPAHOE AVE", "addr:postcode": "80301", "addr:state": "CO", "brand": "USPS", "collection_times": "Mo-Sa 12:00", "name": "USPS COLLECTION BOX - BLUE BOX", "ref": "8030100025"}, "type": "Feature"}
{"geometry": {"coordinates": [-105.244355, 40.015962], "type": "Point"}, "id": "TGq-BF9V39_AJlWRj6wEx8WLtu8=", "properties": {"@spider": "usps_collection_boxes", "addr:city": "BOULDER", "addr:country": "US", "addr:full": "1680 38TH ST", "addr:postcode": "80301", "addr:state": "CO", "brand": "USPS", "collection_times": "Mo-Fr 14:30; Sa 14:15", "name": "USPS COLLECTION BOX - BLUE BOX", "note": "ON 12/24 AND 12/31, THIS BOX MAY BE COLLECTED AS EARLY AS 12 NOON.", "ref": "8030100028"}, "type": "Feature"}
{"geometry": {"coordinates": [-105.243534, 40.035424], "type": "Point"}, "id": "J6tfA2LfLIwEWRo9Lq2E3yzZG1g=", "properties": {"@spider": "usps_collection_boxes", "addr:city": "BOULDER", "addr:country": "US", "addr:full": "3300 MITCHELL LN", "addr:postcode": "80301", "addr:state": "CO", "brand": "USPS", "collection_times": "Mo-Sa 12:00", "name": "USPS COLLECTION BOX - BLUE BOX", "ref": "8030100032"}, "type": "Feature"}
{"geometry": {"coordinates": [-105.243528, 40.035443], "type": "Point"}, "id": "yFdcExLIXMve7RNsGtQfAGmIfUs=", "properties": {"@spider": "usps_collection_boxes", "addr:city": "BOULDER", "addr:country": "US", "addr:full": "3300 MITCHELL LN", "addr:postcode": "80301", "addr:state": "CO", "brand": "USPS", "collection_times": "Mo-Sa 12:00", "name": "USPS COLLECTION BOX - EXPRESS", "ref": "8030100033"}, "type": "Feature"}
{"geometry": {"coordinates": [-105.179689, 40.065312], "type": "Point"}, "id": "t5lCzCmpbqKbw23Ira0n9l8zghI=", "properties": {"@spider": "usps_collection_boxes", "addr:city": "BOULDER", "addr:country": "US", "addr:full": "7490 CLUBHOUSE RD", "addr:postcode": "80301", "addr:state": "CO", "brand": "USPS", "collection_times": "Mo-Sa 12:00", "name": "USPS COLLECTION BOX - BLUE BOX", "ref": "8030100035"}, "type": "Feature"}
{"geometry": {"coordinates": [-105.257605, 40.038612], "type": "Point"}, "id": "4emdI9x7JfQMLAiEtI3Z51y4FhE=", "properties": {"@spider": "usps_collection_boxes", "addr:city": "BOULDER", "addr:country": "US", "addr:full": "2800 KALMIA AVE", "addr:postcode": "80301", "addr:state": "CO", "brand": "USPS", "collection_times": "Mo-Sa 11:00", "name": "USPS COLLECTION BOX - BLUE BOX", "ref": "8030100036"}, "type": "Feature"}
{"geometry": {"coordinates": [-105.205005, 40.056734], "type": "Point"}, "id": "f0eoMDBTfelqSJP2xVoJoEUm7cA=", "properties": {"@spider": "usps_collection_boxes", "addr:city": "BOULDER", "addr:country": "US", "addr:full": "6392 TWIN LAKES RD", "addr:postcode": "80301", "addr:state": "CO", "brand": "USPS", "collection_times": "Mo-Sa 12:45", "name": "USPS COLLECTION BOX - BLUE BOX", "note": "ON 12/24 AND 12/31, THIS BOX MAY BE COLLECTED AS EARLY AS 12 NOON.", "ref": "8030100037"}, "type": "Feature"}
{"geometry": {"coordinates": [-105.241053777, 40.0273335338], "type": "Point"}, "id": "-FUQWOnuwDTkta-np4X-5MBeYPs=", "properties": {"@spider": "usps_collection_boxes", "addr:city": "BOULDER", "addr:country": "US", "addr:full": "4865 STERLING DR", "addr:postcode": "80301", "addr:state": "CO", "brand": "USPS", "collection_times": "Mo-Sa 13:15", "name": "USPS COLLECTION BOX - BLUE BOX", "note": "ON 12/24 AND 12/31, THIS BOX MAY BE COLLECTED AS EARLY AS 12 NOON.", "ref": "8030100038"}, "type": "Feature"}
{"geometry": {"coordinates": [-105.2488766219, 40.0365481079], "type": "Point"}, "id": "jh_I6DsVMUhaPBMyv4VEaqWyqCg=", "properties": {"@spider": "usps_collection_boxes", "addr:city": "BOULDER", "addr:country": "US", "addr:full": "3402 34TH ST", "addr:postcode": "80301", "addr:state": "CO", "brand": "USPS", "collection_times": "Mo-Sa 12:00", "name": "USPS COLLECTION BOX - BLUE BOX", "ref": "8030100040"}, "type": "Feature"}
{"geometry": {"coordinates": [-105.20118, 40.07199], "type": "Point"}, "id": "c_G0R10NK-7U3bVAlkSwGYhuQ4s=", "properties": {"@spider": "usps_collection_boxes", "addr:city": "BOULDER", "addr:country": "US", "addr:full": "6550 LOOKOUT RD", "addr:postcode": "80301", "addr:state": "CO", "brand": "USPS", "collection_times": "Mo-Sa 12:45", "name": "USPS COLLECTION BOX - BLUE BOX", "note": "ON 12/24 AND 12/31, THIS BOX MAY BE COLLECTED AS EARLY AS 12 NOON.", "ref": "8030100041"}, "type": "Feature"}
{"geometry": {"coordinates": [-105.201181, 40.071982], "type": "Point"}, "id": "ykfIrORvF7qVM9vK6KT8CQ7uLEQ=", "properties": {"@spider": "usps_collection_boxes", "addr:city": "BOULDER", "addr:country": "US", "addr:full": "6550 LOOKOUT RD", "addr:postcode": "80301", "addr:state": "CO", "brand": "USPS", "collection_times": "Mo-Sa 12:45", "name": "USPS COLLECTION BOX - EXPRESS", "note": "ON 12/24 AND 12/31, THIS BOX MAY BE COLLECTED AS EARLY AS 12 NOON.", "ref": "8030100042"}, "type": "Feature"}
{"geometry": {"coordinates": [-105.1996694083, 40.0667475917], "type": "Point"}, "id": "MCUBaypGG3zzzQ0tPlhIZCt2ktc=", "properties": {"@spider": "usps_collection_boxes", "addr:city": "BOULDER", "addr:country": "US", "addr:full": "5125 WILLIAMS FORK TRL", "addr:postcode": "80301", "addr:state": "CO", "brand": "USPS", "collection_times": "Mo-Fr 14:15; Sa 12:45", "name": "USPS COLLECTION BOX - BLUE BOX", "note": "ON 12/24 AND 12/31, THIS BOX MAY BE COLLECTED AS EARLY AS 12 NOON.", "ref": "8030100046"}, "type": "Feature"}
{"geometry": {"coordinates": [-105.244013, 40.025933], "type": "Point"}, "id": "KBSPWATZZRu7XiWCbwXYyk6NdjA=", "properties": {"@spider": "usps_collection_boxes", "addr:city": "BOULDER", "addr:country": "US", "addr:full": "2500 47TH ST", "addr:postcode": "80301", "addr:state": "CO", "brand": "USPS", "collection_times": "Mo-Sa 13:15", "name": "USPS COLLECTION BOX - BLUE BOX", "note": "ON 12/24 AND 12/31, THIS BOX MAY BE COLLECTED AS EARLY AS 12 NOON.", "ref": "8030100050"}, "type": "Feature"}
{"geometry": {"coordinates": [-105.2210854719, 40.0228542225], "type": "Point"}, "id": "75WL0PWsUXDJND3-ax9_RmoxoQ8=", "properties": {"@spider": "usps_collection_boxes", "addr:city": "BOULDER", "addr:country": "US", "addr:full": "5700 FLATIRON PKWY", "addr:postcode": "80301", "addr:state": "CO", "brand": "USPS", "collection_times": "Mo-Sa 14:30", "name": "USPS COLLECTION BOX - BLUE BOX", "note": "ON 12/24 AND 12/31, THIS BOX MAY BE COLLECTED AS EARLY AS 12 NOON.", "ref": "8030100052"}, "type": "Feature"}
{"geometry": {"coordinates": [-105.247739, 40.028232], "type": "Point"}, "id": "0U_SG3U3gNN9B2E3Ru2_AXbtLM0=", "properties": {"@spider": "usps_collection_boxes", "addr:city": "BOULDER", "addr:country": "US", "addr:full": "2995 WILDERNESS PL", "addr:postcode": "80301", "addr:state": "CO", "brand": "USPS", "collection_times": "Mo-Fr 13:00; Sa 11:00", "name": "USPS COLLECTION BOX - BLUE BOX", "note": "ON 12/24 AND 12/31, THIS BOX MAY BE COLLECTED AS EARLY AS 12 NOON.", "ref": "8030100053"}, "type": "Feature"}
{"geometry": {"coordinates": [-105.247731, 40.02824], "type": "Point"}, "id": "KKQS7J7Yso4pXkBAQqiQ8Nk46Vw=", "properties": {"@spider": "usps_collection_boxes", "addr:city": "BOULDER", "addr:country": "US", "addr:full": "2995 WILDERNESS PL", "addr:postcode": "80301", "addr:state": "CO", "brand": "USPS", "collection_times": "Mo-Fr 13:00; Sa 11:00", "name": "USPS COLLECTION BOX - BLUE BOX", "note": "ON 12/24 AND 12/31, THIS BOX MAY BE COLLECTED AS EARLY AS 12 NOON.", "ref": "8030100054"}, "type": "Feature"}
{"geometry": {"coordinates": [-105.256812, 40.043495], "type": "Point"}, "id": "-akBPsHwzLvN5F6FkpMgucARjKg=", "properties": {"@spider": "usps_collection_boxes", "addr:city": "BOULDER", "addr:country": "US", "addr:full": "3799 PASEO DEL PRADO ST", "addr:postcode": "80301", "addr:state": "CO", "brand": "USPS", "collection_times": "Mo-Sa 13:45", "name": "USPS COLLECTION BOX - BLUE BOX", "note": "ON 12/24 AND 12/31, THIS BOX MAY BE COLLECTED AS EARLY AS 12 NOON.", "ref": "8030100057"}, "type": "Feature"}
{"geometry": {"coordinates": [-105.2021864196, 40.0717729489], "type": "Point"}, "id": "bn95HWbUrix9UpcFo-HrboIZfOQ=", "properties": {"@spider": "usps_collection_boxes", "addr:city": "BOULDER", "addr:country": "US", "addr:full": "5365 SPINE RD", "addr:postcode": "80301", "addr:state": "CO", "brand": "USPS", "collection_times": "Mo-Fr 14:00; Sa 12:00", "name": "USPS COLLECTION BOX - BLUE BOX", "note": "ON 12/24 AND 12/31, THIS BOX MAY BE COLLECTED AS EARLY AS 12 NOON.", "ref": "8030100069"}, "type": "Feature"}
{"geometry": {"coordinates": [-105.249925, 40.017325], "type": "Point"}, "id": "nMU3vENH-lPlz0XbipgK1HpRXdg=", "properties": {"@spider": "usps_collection_boxes", "addr:city": "BOULDER", "addr:country": "US", "addr:full": "1750 33RD ST", "addr:postcode": "80301", "addr:state": "CO", "brand": "USPS", "collection_times": "Mo-Sa 14:15", "name": "USPS COLLECTION BOX - BLUE BOX", "note": "ON 12/24 AND 12/31, THIS BOX MAY BE COLLECTED AS EARLY AS 12 NOON.", "ref": "8030100074"}, "type": "Feature"}
{"geometry": {"coordinates": [-105.245814, 40.047497], "type": "Point"}, "id": "wxvLwwdF_m8kDeWFgfvZ9YniEes=", "properties": {"@spider": "usps_collection_boxes", "addr:city": "BOULDER", "addr:country": "US", "addr:full": "4400 SAINT JOHNS AVE", "addr:postcode": "80301", "addr:state": "CO", "brand": "USPS", "collection_times": "Mo-Sa 12:00", "name": "USPS COLLECTION BOX - BLUE BOX", "ref": "8030100075"}, "type": "Feature"}
{"geometry": {"coordinates": [-105.259762, 40.035391], "type": "Point"}, "id": "dmM6sCm-lgMblfWJ9q6_wjnrTJ8=", "properties": {"@spider": "usps_collection_boxes", "addr:city": "BOULDER", "addr:country": "US", "addr:full": "3325 28TH ST", "addr:postcode": "80301", "addr:state": "CO", "brand": "USPS", "collection_times": "Mo-Sa 11:30", "name": "USPS COLLECTION BOX - BLUE BOX", "ref": "8030100076"}, "type": "Feature"}
{"geometry": {"coordinates": [-105.259765, 40.035387], "type": "Point"}, "id": "izErp6hFPOY2IBVrTDRxYLHYhw0=", "properties": {"@spider": "usps_collection_boxes", "addr:city": "BOULDER", "addr:country": "US", "addr:full": "3325 28TH ST", "addr:postcode": "80301", "addr:state": "CO", "brand": "USPS", "collection_times": "Mo-Sa 11:30", "name": "USPS COLLECTION BOX - BLUE BOX", "ref": "8030100077"}, "type": "Feature"}
{"geometry": {"coordinates": [-105.236329, 40.01602], "type": "Point"}, "id": "mwOm3NjRKFvCk2BA5qmlVZk2OfM=", "properties": {"@spider": "usps_collection_boxes", "addr:city": "BOULDER", "addr:country": "US", "addr:full": "4747 ARAPAHOE AVE", "addr:postcode": "80301", "addr:state": "CO", "brand": "USPS", "collection_times": "Mo-Sa 12:00", "name": "USPS COLLECTION BOX - BLUE BOX", "ref": "8030100084"}, "type": "Feature"}
{"geometry": {"coordinates": [-105.225391, 40.028523], "type": "Point"}, "id": "yeJtlLZaNm_FWI-ZTxzeWPvGpn0=", "properties": {"@spider": "usps_collection_boxes", "addr:city": "BOULDER", "addr:country": "US", "addr:full": "2995 55TH ST", "addr:postcode": "80301", "addr:state": "CO", "brand": "USPS", "collection_times": "Mo-Fr 18:30; Sa 17:30", "name": "USPS COLLECTION BOX - APC", "note": "ON 12/24 AND 12/31, THIS BOX MAY BE COLLECTED AS EARLY AS 12 NOON.", "ref": "8030100085"}, "type": "Feature"}
{"geometry": {"coordinates": [-105.257067, 40.018198], "type": "Point"}, "id": "UEMbjFwPbHMJW1vj9S1fSDG5V4E=", "properties": {"@spider": "usps_collection_boxes", "addr:city": "BOULDER", "addr:country": "US", "addr:full": "1805 29TH ST", "addr:postcode": "80301", "addr:state": "CO", "brand": "USPS", "collection_times": "Mo-Sa 11:00", "name": "USPS COLLECTION BOX - BLUE BOX", "ref": "8030100086"}, "type": "Feature"}
{"geometry": {"coordinates": [-105.280436397, 40.018987709], "type": "Point"}, "id": "cFuDKhETbng43IxCFmwESoAOSXA=", "properties": {"@spider": "usps_collection_boxes", "addr:city": "BOULDER", "addr:country": "US", "addr:full": "1199 SPRUCE ST", "addr:postcode": "80302", "addr:state": "CO", "brand": "USPS", "collection_times": "Mo-Fr 11:30; Sa 11:10", "name": "USPS COLLECTION BOX - BLUE BOX", "ref": "8030200001"}, "type": "Feature"}
{"geometry": {"coordinates": [-105.277896, 40.0195], "type": "Point"}, "id": "RXc5krRnFkq6juorBR2wxLsm9gc=", "properties": {"@spider": "usps_collection_boxes", "addr:city": "BOULDER", "addr:country": "US", "addr:full": "1345 SPRUCE ST", "addr:postcode": "80302", "addr:state": "CO", "brand": "USPS", "collection_times": "Mo-Fr 16:30; Sa 11:05", "name": "USPS COLLECTION BOX - BLUE BOX", "note": "ON 12/24 AND 12/31, THIS BOX MAY BE COLLECTED AS EARLY AS 12 NOON.", "ref": "8030200002"}, "type": "Feature"}
{"geometry": {"coordinates": [-105.27916504, 40.019513501], "type": "Point"}, "id": "G7oKRAb4w2eZiHLXlmWwy9emcrY=", "properties": {"@spider": "usps_collection_boxes", "addr:city": "BOULDER", "addr:country": "US", "addr:full": "2115 13TH ST", "addr:postcode": "80302", "addr:state": "CO", "brand": "USPS", "collection_times": "Mo-Fr 12:30; Sa 11:08", "name": "USPS COLLECTION BOX - BLUE BOX", "note": "ON 12/24 AND 12/31, THIS BOX MAY BE COLLECTED AS EARLY AS 12 NOON.", "ref": "8030200003"}, "type": "Feature"}
{"geometry": {"coordinates": [-105.279626499, 40.016664294], "type": "Point"}, "id": "Nk7yjb_j-nxs12MqDHYxt8u9ASM=", "properties": {"@spider": "usps_collection_boxes", "addr:city": "BOULDER", "addr:country": "US", "addr:full": "1877 BROADWAY ST", "addr:postcode": "80302", "addr:state": "CO", "brand": "USPS", "collection_times": "Mo-Fr 13:00", "name": "USPS COLLECTION BOX - BLUE BOX", "note": "ON 12/24 AND 12/31, THIS BOX MAY BE COLLECTED AS EARLY AS 12 NOON.", "ref": "8030200004"}, "type": "Feature"}
{"geometry": {"coordinates": [-105.2783415, 40.017816], "type": "Point"}, "id": "odTiQQgmATRLzPLqDfM_4Qjb9lQ=", "properties": {"@spider": "usps_collection_boxes", "addr:city": "BOULDER", "addr:country": "US", "addr:full": "1962 13TH ST", "addr:postcode": "80302", "addr:state": "CO", "brand": "USPS", "collection_times": "Mo-Fr 14:00; Sa 11:00", "name": "USPS COLLECTION BOX - BLUE BOX", "note": "ON 12/24 AND 12/31, THIS BOX MAY BE COLLECTED AS EARLY AS 12 NOON.", "ref": "8030200006"}, "type": "Feature"}
{"geometry": {"coordinates": [-105.275085, 40.003811], "type": "Point"}, "id": "pQcagpwwOyPvwZpJMfwwLBEGU5I=", "properties": {"@spider": "usps_collection_boxes", "addr:city": "BOULDER", "addr:country": "US", "addr:full": "909 14TH ST", "addr:postcode": "80302", "addr:state": "CO", "brand": "USPS", "collection_times": "Mo-Fr 14:15; Sa 11:15", "name": "USPS COLLECTION BOX - BLUE BOX", "note": "ON 12/24 AND 12/31, THIS BOX MAY BE COLLECTED AS EARLY AS 12 NOON.", "ref": "8030200009"}, "type": "Feature"}
{"geometry": {"coordinates": [-105.276084, 40.005535], "type": "Point"}, "id": "zXaIuIyBqdEStXmrYOBycGafoz0=", "properties": {"@spider": "usps_collection_boxes", "addr:city": "BOULDER", "addr:country": "US", "addr:full": "1305 EUCLID AVE", "addr:postcode": "80302", "addr:state": "CO", "brand": "USPS", "collection_times": "Mo-Fr 14:15; Sa 11:15", "name": "USPS COLLECTION BOX - BLUE BOX", "note": "ON 12/24 AND 12/31, THIS BOX MAY BE COLLECTED AS EARLY AS 12 NOON.", "ref": "8030200010"}, "type": "Feature"}
{"geometry": {"coordinates": [-105.277539, 40.003823], "type": "Point"}, "id": "5dC8bxpADwyBU55z1w_rAa2jbLU=", "properties": {"@spider": "usps_collection_boxes", "addr:city": "BOULDER", "addr:country": "US", "addr:full": "907 12TH ST", "addr:postcode": "80302", "addr:state": "CO", "brand": "USPS", "collection_times": "Mo-Fr 14:00; Sa 11:05", "name": "USPS COLLECTION BOX - BLUE BOX", "note": "ON 12/24 AND 12/31, THIS BOX MAY BE COLLECTED AS EARLY AS 12 NOON.", "ref": "8030200012"}, "type": "Feature"}
{"geometry": {"coordinates": [-105.280317, 40.013343], "type": "Point"}, "id": "HF4Ji2o2dHFw9d2wRTfuXeLsCvw=", "properties": {"@spider": "usps_collection_boxes", "addr:city": "BOULDER", "addr:country": "US", "addr:full": "1050 ARAPAHOE AVE", "addr:postcode": "80302", "addr:state": "CO", "brand": "USPS", "collection_times": "Mo-Fr 16:00; Sa 10:50", "name": "USPS COLLECTION BOX - BLUE BOX", "note": "ON 12/24 AND 12/31, THIS BOX MAY BE COLLECTED AS EARLY AS 12 NOON.", "ref": "8030200013"}, "type": "Feature"}
{"geometry": {"coordinates": [-105.269711, 40.018843], "type": "Point"}, "id": "o0Hq-ERr2pox3j_sv4_Vp296NmA=", "properties": {"@spider": "usps_collection_boxes", "addr:city": "BOULDER", "addr:country": "US", "addr:full": "1940 WALNUT ST", "addr:postcode": "80302", "addr:state": "CO", "brand": "USPS", "collection_times": "Mo-Fr 15:30; Sa 12:15", "name": "USPS COLLECTION BOX - BLUE BOX", "note": "ON 12/24 AND 12/31, THIS BOX MAY BE COLLECTED AS EARLY AS 12 NOON.", "ref": "8030200014"}, "type": "Feature"}
{"geometry": {"coordinates": [-105.265734, 40.021079], "type": "Point"}, "id": "4DvwP7S2My8k6s7-FptEBCWI-4U=", "properties": {"@spider": "usps_collection_boxes", "addr:city": "BOULDER", "addr:country": "US", "addr:full": "2299 PEARL ST", "addr:postcode": "80302", "addr:state": "CO", "brand": "USPS", "collection_times": "Mo-Fr 15:30; Sa 12:20", "name": "USPS COLLECTION BOX - BLUE BOX", "note": "ON 12/24 AND 12/31, THIS BOX MAY BE COLLECTED AS EARLY AS 12 NOON.", "ref": "8030200015"}, "type": "Feature"}
{"geometry": {"coordinates": [-105.268955, 40.013305], "type": "Point"}, "id": "IJzxSid_LP6m9EwdM8SLR0Nh4I4=", "properties": {"@spider": "usps_collection_boxes", "addr:city": "BOULDER", "addr:country": "US", "addr:full": "1950 ATHENS ST", "addr:postcode": "80302", "addr:state": "CO", "brand": "USPS", "collection_times": "Mo-Sa 12:00", "name": "USPS COLLECTION BOX - BLUE BOX", "ref": "8030200016"}, "type": "Feature"}
{"geometry": {"coordinates": [-105.26617, 40.014715], "type": "Point"}, "id": "mW3M8M1GgX9nu6iu1KIbDjmvjxo=", "properties": {"@spider": "usps_collection_boxes", "addr:city": "BOULDER", "addr:country": "US", "addr:full": "2205 ARAPAHOE AVE", "addr:postcode": "80302", "addr:state": "CO", "brand": "USPS", "collection_times": "Mo-Fr 14:30; Sa 11:40", "name": "USPS COLLECTION BOX - BLUE BOX", "note": "ON 12/24 AND 12/31, THIS BOX MAY BE COLLECTED AS EARLY AS 12 NOON.", "ref": "8030200017"}, "type": "Feature"}
{"geometry": {"coordinates": [-105.264252, 40.013897], "type": "Point"}, "id": "hAXl8Lx_xm2qcTk2tALdKh5k840=", "properties": {"@spider": "usps_collection_boxes", "addr:city": "BOULDER", "addr:country": "US", "addr:full": "2300 ARAPAHOE AVE", "addr:postcode": "80302", "addr:state": "CO", "brand": "USPS", "collection_times": "Mo-Fr 14:30; Sa 11:45", "name": "USPS COLLECTION BOX - BLUE BOX", "note": "ON 12/24 AND 12/31, THIS BOX MAY BE COLLECTED AS EARLY AS 12 NOON.", "ref": "8030200018"}, "type": "Feature"}
{"geometry": {"coordinates": [-105.259415, 40.013552], "type": "Point"}, "id": "t51KNzE4COkgxFId0pImgdssIio=", "properties": {"@spider": "usps_collection_boxes", "addr:city": "BOULDER", "addr:country": "US", "addr:full": "2798 ARAPAHOE AVE", "addr:postcode": "80302", "addr:state": "CO", "brand": "USPS", "collection_times": "Mo-Fr 15:00; Sa 12:05", "name": "USPS COLLECTION BOX - BLUE BOX", "note": "ON 12/24 AND 12/31, THIS BOX MAY BE COLLECTED AS EARLY AS 12 NOON.", "ref": "8030200019"}, "type": "Feature"}
{"geometry": {"coordinates": [-105.281252, 39.997686], "type": "Point"}, "id": "UoL_s_5fkwbUQrshwHnAf6nDSZU=", "properties": {"@spider": "usps_collection_boxes", "addr:city": "BOULDER", "addr:country": "US", "addr:full": "400 MORNING GLORY DR", "addr:postcode": "80302", "addr:state": "CO", "brand": "USPS", "collection_times": "Mo-Sa 11:10", "name": "USPS COLLECTION BOX - BLUE BOX", "ref": "8030200021"}, "type": "Feature"}
{"geometry": {"coordinates": [-105.273922, 40.016858], "type": "Point"}, "id": "L3U3by-7ZMHShbQE1vMWom_d3zw=", "properties": {"@spider": "usps_collection_boxes", "addr:city": "BOULDER", "addr:country": "US", "addr:full": "1600 CANYON BLVD", "addr:postcode": "80302", "addr:state": "CO", "brand": "USPS", "collection_times": "Mo-Fr 14:30; Sa 12:10", "name": "USPS COLLECTION BOX - BLUE BOX", "note": "ON 12/24 AND 12/31, THIS BOX MAY BE COLLECTED AS EARLY AS 12 NOON.", "ref": "8030200022"}, "type": "Feature"}
{"geometry": {"coordinates": [-105.273595, 40.019279], "type": "Point"}, "id": "2fdaT42UFspb2uGuHmSMYn10yOY=", "properties": {"@spider": "usps_collection_boxes", "addr:city": "BOULDER", "addr:country": "US", "addr:full": "1647 PEARL ST", "addr:postcode": "80302", "addr:state": "CO", "brand": "USPS", "collection_times": "Mo-Fr 13:15; Sa 10:32", "name": "USPS COLLECTION BOX - BLUE BOX", "note": "ON 12/24 AND 12/31, THIS BOX MAY BE COLLECTED AS EARLY AS 12 NOON.", "ref": "8030200023"}, "type": "Feature"}
{"geometry": {"coordinates": [-105.289058, 40.016119], "type": "Point"}, "id": "A2ZkV-IJOS70T3fsMWThWYld2sA=", "properties": {"@spider": "usps_collection_boxes", "addr:city": "BOULDER", "addr:country": "US", "addr:full": "2000 5TH ST", "addr:postcode": "80302", "addr:state": "CO", "brand": "USPS", "collection_times": "Mo-Fr 15:45; Sa 10:38", "name": "USPS COLLECTION BOX - BLUE BOX", "note": "ON 12/24 AND 12/31, THIS BOX MAY BE COLLECTED AS EARLY AS 12 NOON.", "ref": "8030200024"}, "type": "Feature"}
{"geometry": {"coordinates": [-105.282144, 40.016302], "type": "Point"}, "id": "4nb6NvxzwCWTwCPDoCFgut9bVmY=", "properties": {"@spider": "usps_collection_boxes", "addr:city": "BOULDER", "addr:country": "US", "addr:full": "990 WALNUT ST", "addr:postcode": "80302", "addr:state": "CO", "brand": "USPS", "collection_times": "Mo-Fr 16:35; Sa 10:42", "name": "USPS COLLECTION BOX - BLUE BOX", "note": "ON 12/24 AND 12/31, THIS BOX MAY BE COLLECTED AS EARLY AS 12 NOON.", "ref": "8030200025"}, "type": "Feature"}
{"geometry": {"coordinates": [-105.281371294, 40.016493662], "type": "Point"}, "id": "wQ1BA6cSaO8yfBOv9rHxisFbMMw=", "properties": {"@spider": "usps_collection_boxes", "addr:city": "BOULDER", "addr:country": "US", "addr:full": "1050 WALNUT ST", "addr:postcode": "80302", "addr:state": "CO", "brand": "USPS", "collection_times": "Mo-Fr 16:00; Sa 10:45", "name": "USPS COLLECTION BOX - BLUE BOX", "note": "ON 12/24 AND 12/31, THIS BOX MAY BE COLLECTED AS EARLY AS 12 NOON.", "ref": "8030200026"}, "type": "Feature"}
{"geometry": {"coordinates": [-105.261257, 40.018146], "type": "Point"}, "id": "ar_eN4yKy9clF8e0EiRXjCwt1eE=", "properties": {"@spider": "usps_collection_boxes", "addr:city": "BOULDER", "addr:country": "US", "addr:full": "2425 CANYON BLVD", "addr:postcode": "80302", "addr:state": "CO", "brand": "USPS", "collection_times": "Mo-Fr 14:45; Sa 12:00", "name": "USPS COLLECTION BOX - BLUE BOX", "note": "ON 12/24 AND 12/31, THIS BOX MAY BE COLLECTED AS EARLY AS 12 NOON.", "ref": "8030200027"}, "type": "Feature"}
{"geometry": {"coordinates": [-105.271583, 40.014515], "type": "Point"}, "id": "BjYZKDFD7myYBJL-1mNI0BX5_mM=", "properties": {"@spider": "usps_collection_boxes", "addr:city": "BOULDER", "addr:country": "US", "addr:full": "1800 ARAPAHOE AVE", "addr:postcode": "80302", "addr:state": "CO", "brand": "USPS", "collection_times": "Mo-Sa 11:00", "name": "USPS COLLECTION BOX - BLUE BOX", "ref": "8030200028"}, "type": "Feature"}
{"geometry": {"coordinates": [-105.263955, 40.023455], "type": "Point"}, "id": "KCy8O9QDDKSgJhObDvHRlclQbI8=", "properties": {"@spider": "usps_collection_boxes", "addr:city": "BOULDER", "addr:country": "US", "addr:full": "2449 PINE ST", "addr:postcode": "80302", "addr:state": "CO", "brand": "USPS", "collection_times": "Mo-Fr 14:15; Sa 11:00", "name": "USPS COLLECTION BOX - BLUE BOX", "note": "ON 12/24 AND 12/31, THIS BOX MAY BE COLLECTED AS EARLY AS 12 NOON.", "ref": "8030200030"}, "type": "Feature"}
{"geometry": {"coordinates": [-105.277527, 40.00939], "type": "Point"}, "id": "TGw7fd-en-GZisPZVzxR1hW7qcY=", "properties": {"@spider": "usps_collection_boxes", "addr:city": "BOULDER", "addr:country": "US", "addr:full": "1146 PLEASANT ST", "addr:postcode": "80302", "addr:state": "CO", "brand": "USPS", "collection_times": "Mo-Fr 12:30; Sa 11:05", "name": "USPS COLLECTION BOX - BLUE BOX", "note": "ON 12/24 AND 12/31, THIS BOX MAY BE COLLECTED AS EARLY AS 12 NOON.", "ref": "8030200031"}, "type": "Feature"}
{"geometry": {"coordinates": [-105.282911, 40.010611], "type": "Point"}, "id": "4SpvdZZ6JVUZXvOtFyMWhcNEtRQ=", "properties": {"@spider": "usps_collection_boxes", "addr:city": "BOULDER", "addr:country": "US", "addr:full": "1505 9TH ST", "addr:postcode": "80302", "addr:state": "CO", "brand": "USPS", "collection_times": "Mo-Sa 11:00", "name": "USPS COLLECTION BOX - BLUE BOX", "ref": "8030200032"}, "type": "Feature"}
{"geometry": {"coordinates": [-105.283666, 40.017073], "type": "Point"}, "id": "eVVParNTSOZDkE2fMPxKSCGdVn0=", "properties": {"@spider": "usps_collection_boxes", "addr:city": "BOULDER", "addr:country": "US", "addr:full": "915 PEARL ST", "addr:postcode": "80302", "addr:state": "CO", "brand": "USPS", "collection_times": "Mo-Fr 15:45; Sa 10:36", "name": "USPS COLLECTION BOX - BLUE BOX", "note": "ON 12/24 AND 12/31, THIS BOX MAY BE COLLECTED AS EARLY AS 12 NOON.", "ref": "8030200033"}, "type": "Feature"}
{"geometry": {"coordinates": [-105.262204, 40.02042], "type": "Point"}, "id": "ri34weZkOlFzzRRTjQhJN3AzS9k=", "properties": {"@spider": "usps_collection_boxes", "addr:city": "BOULDER", "addr:country": "US", "addr:full": "1900 FOLSOM ST", "addr:postcode": "80302", "addr:state": "CO", "brand": "USPS", "collection_times": "Mo-Fr 14:45; Sa 11:45", "name": "USPS COLLECTION BOX - BLUE BOX", "note": "ON 12/24 AND 12/31, THIS BOX MAY BE COLLECTED AS EARLY AS 12 NOON.", "ref": "8030200036"}, "type": "Feature"}
{"geometry": {"coordinates": [-105.263869, 40.01262], "type": "Point"}, "id": "qQy4X9Y3cg5SW4HMY2YgIEHuehA=", "properties": {"@spider": "usps_collection_boxes", "addr:city": "BOULDER", "addr:country": "US", "addr:full": "1475 FOLSOM ST", "addr:postcode": "80302", "addr:state": "CO", "brand": "USPS", "collection_times": "Mo-Fr 14:45; Sa 12:05", "name": "USPS COLLECTION BOX - BLUE BOX", "note": "ON 12/24 AND 12/31, THIS BOX MAY BE COLLECTED AS EARLY AS 12 NOON.", "ref": "8030200038"}, "type": "Feature"}
{"geometry": {"coordinates": [-105.287215, 40.014718], "type": "Point"}, "id": "67bjUoTI93FYP1os3qAoPt4WiG4=", "properties": {"@spider": "usps_collection_boxes", "addr:city": "BOULDER", "addr:country": "US", "addr:full": "1777 6TH ST", "addr:postcode": "80302", "addr:state": "CO", "brand": "USPS", "collection_times": "Mo-Fr 16:30", "name": "USPS COLLECTION BOX - EXPRESS", "note": "ON 12/24 AND 12/31, THIS BOX MAY BE COLLECTED AS EARLY AS 12 NOON.", "ref": "8030200039"}, "type": "Feature"}
{"geometry": {"coordinates": [-105.287206, 40.014717], "type": "Point"}, "id": "kAg0SqZvgMH5KyWhpSdpB6gHZb4=", "properties": {"@spider": "usps_collection_boxes", "addr:city": "BOULDER", "addr:country": "US", "addr:full": "1777 6TH ST", "addr:postcode": "80302", "addr:state": "CO", "brand": "USPS", "collection_times": "Mo-Fr 16:30", "name": "USPS COLLECTION BOX - BLUE BOX", "note": "ON 12/24 AND 12/31, THIS BOX MAY BE COLLECTED AS EARLY AS 12 NOON.", "ref": "8030200040"}, "type": "Feature"}
{"geometry": {"coordinates": [-105.287203, 40.01472], "type": "Point"}, "id": "tI_WYG5UPC-8UICxNcFlhSSv1d8=", "properties": {"@spider": "usps_collection_boxes", "addr:city": "BOULDER", "addr:country": "US", "addr:full": "1777 6TH ST", "addr:postcode": "80302", "addr:state": "CO", "brand": "USPS", "collection_times": "Mo-Fr 16:30", "name": "USPS COLLECTION BOX - BLUE BOX", "note": "ON 12/24 AND 12/31, THIS BOX MAY BE COLLECTED AS EARLY AS 12 NOON.", "ref": "8030200041"}, "type": "Feature"}
{"geometry": {"coordinates": [-105.284533, 40.015825], "type": "Point"}, "id": "TLnNV54FBLm6HJr8VZm0mz0JxEI=", "properties": {"@spider": "usps_collection_boxes", "addr:city": "BOULDER", "addr:country": "US", "addr:full": "1881 9TH ST", "addr:postcode": "80302", "addr:state": "CO", "brand": "USPS", "collection_times": "Mo-Fr 15:45; Sa 10:40", "name": "USPS COLLECTION BOX - BLUE BOX", "note": "ON 12/24 AND 12/31, THIS BOX MAY BE COLLECTED AS EARLY AS 12 NOON.", "ref": "8030200042"}, "type": "Feature"}
{"geometry": {"coordinates": [-105.279286716, 40.015695577], "type": "Point"}, "id": "nRGyYZ4IDE9RyIXgMxW4_zWyUSE=", "properties": {"@spider": "usps_collection_boxes", "addr:city": "BOULDER", "addr:country": "US", "addr:full": "1777 BROADWAY ST", "addr:postcode": "80302", "addr:state": "CO", "brand": "USPS", "collection_times": "Mo-Fr 16:00", "name": "USPS COLLECTION BOX - BLUE BOX", "note": "ON 12/24 AND 12/31, THIS BOX MAY BE COLLECTED AS EARLY AS 12 NOON.", "ref": "8030200043"}, "type": "Feature"}
{"geometry": {"coordinates": [-105.276042, 40.010397], "type": "Point"}, "id": "99lYQuG3dQ_8_nZrYwRBu2hqAJE=", "properties": {"@spider": "usps_collection_boxes", "addr:city": "BOULDER", "addr:country": "US", "addr:full": "1202 UNIVERSITY AVE", "addr:postcode": "80302", "addr:state": "CO", "brand": "USPS", "collection_times": "Mo-Fr 14:30", "name": "USPS COLLECTION BOX - BLUE BOX", "note": "ON 12/24 AND 12/31, THIS BOX MAY BE COLLECTED AS EARLY AS 12 NOON.", "ref": "8030200044"}, "type": "Feature"}
{"geometry": {"coordinates": [-105.26631, 40.004482], "type": "Point"}, "id": "ZIAKcyqpTubdaJCUzvGVuS9hOGc=", "properties": {"@spider": "usps_collection_boxes", "addr:city": "BOULDER", "addr:country": "US", "addr:full": "125 REGENT DR", "addr:postcode": "80302", "addr:state": "CO", "brand": "USPS", "collection_times": "Mo-Fr 15:00", "name": "USPS COLLECTION BOX - BLUE BOX", "note": "ON 12/24 AND 12/31, THIS BOX MAY BE COLLECTED AS EARLY AS 12 NOON.", "ref": "8030200045"}, "type": "Feature"}
{"geometry": {"coordinates": [-105.3801805827, 40.0392596099], "type": "Point"}, "id": "4wO55oJE5zl2gZtoaN2zW2oHHkk=", "properties": {"@spider": "usps_collection_boxes", "addr:city": "BOULDER", "addr:country": "US", "addr:full": "125 REGENT DR", "addr:postcode": "80302", "addr:state": "CO", "brand": "USPS", "collection_times": "Mo-Fr 15:00", "name": "USPS COLLECTION BOX - BLUE BOX", "note": "ON 12/24 AND 12/31, THIS BOX MAY BE COLLECTED AS EARLY AS 12 NOON.", "ref": "8030200046"}, "type": "Feature"}
{"geometry": {"coordinates": [-105.266997, 40.008151], "type": "Point"}, "id": "9CAhng-L2MssxMzK6G5dU4FX57A=", "properties": {"@spider": "usps_collection_boxes", "addr:city": "BOULDER", "addr:country": "US", "addr:full": "2300 COLORADO AVE", "addr:postcode": "80302", "addr:state": "CO", "brand": "USPS", "collection_times": "Mo-Fr 15:00", "name": "USPS COLLECTION BOX - BLUE BOX", "note": "ON 12/24 AND 12/31, THIS BOX MAY BE COLLECTED AS EARLY AS 12 NOON.", "ref": "8030200050"}, "type": "Feature"}
{"geometry": {"coordinates": [-105.266997, 40.008159], "type": "Point"}, "id": "cY9Gc09MtldrorRmK5dgJpPL9og=", "properties": {"@spider": "usps_collection_boxes", "addr:city": "BOULDER", "addr:country": "US", "addr:full": "2300 COLORADO AVE", "addr:postcode": "80302", "addr:state": "CO", "brand": "USPS", "collection_times": "Mo-Fr 15:00", "name": "USPS COLLECTION BOX - BLUE BOX", "note": "ON 12/24 AND 12/31, THIS BOX MAY BE COLLECTED AS EARLY AS 12 NOON.", "ref": "8030200051"}, "type": "Feature"}
{"geometry": {"coordinates": [-105.275579, 40.007381], "type": "Point"}, "id": "9_djPn2FuNwLpzl7SpfGbALtEmI=", "properties": {"@spider": "usps_collection_boxes", "addr:city": "BOULDER", "addr:country": "US", "addr:full": "1111 BROADWAY ST", "addr:postcode": "80302", "addr:state": "CO", "brand": "USPS", "collection_times": "Mo-Fr 14:15; Sa 11:30", "name": "USPS COLLECTION BOX - BLUE BOX", "note": "ON 12/24 AND 12/31, THIS BOX MAY BE COLLECTED AS EARLY AS 12 NOON.", "ref": "8030200053"}, "type": "Feature"}
{"geometry": {"coordinates": [-105.276418, 40.018056], "type": "Point"}, "id": "70bnfpyrdrfLcBDRyyHESeHyzxA=", "properties": {"@spider": "usps_collection_boxes", "addr:city": "BOULDER", "addr:country": "US", "addr:full": "1905 15TH ST", "addr:postcode": "80302", "addr:state": "CO", "brand": "USPS", "collection_times": "Mo-Fr 17:05; Sa 11:30", "name": "USPS COLLECTION BOX - EXPRESS", "note": "ON 12/24 AND 12/31, THIS BOX MAY BE COLLECTED AS EARLY AS 12 NOON.", "ref": "8030200055"}, "type": "Feature"}
{"geometry": {"coordinates": [-105.276418, 40.018056], "type": "Point"}, "id": "2n2Huvwu108GoYEwn4mYsvfAHhM=", "properties": {"@spider": "usps_collection_boxes", "addr:city": "BOULDER", "addr:country": "US", "addr:full": "1905 15TH ST", "addr:postcode": "80302", "addr:state": "CO", "brand": "USPS", "collection_times": "Mo-Fr 17:15; Sa 16:30", "name": "USPS COLLECTION BOX - BLUE BOX", "note": "ON 12/24 AND 12/31, THIS BOX MAY BE COLLECTED AS EARLY AS 12 NOON.", "ref": "8030200056"}, "type": "Feature"}
{"geometry": {"coordinates": [-105.276418, 40.018056], "type": "Point"}, "id": "NgC7JHo27xOlVZcffzznfe_keHo=", "properties": {"@spider": "usps_collection_boxes", "addr:city": "BOULDER", "addr:country": "US", "addr:full": "1905 15TH ST", "addr:postcode": "80302", "addr:state": "CO", "brand": "USPS", "collection_times": "Mo-Fr 17:15; Sa 16:30", "name": "USPS COLLECTION BOX - BLUE BOX", "note": "ON 12/24 AND 12/31, THIS BOX MAY BE COLLECTED AS EARLY AS 12 NOON.", "ref": "8030200057"}, "type": "Feature"}
{"geometry": {"coordinates": [-105.276418, 40.018056], "type": "Point"}, "id": "l-TM2MX72nmlAIVXeU2yTusmbRU=", "properties": {"@spider": "usps_collection_boxes", "addr:city": "BOULDER", "addr:country": "US", "addr:full": "1905 15TH ST", "addr:postcode": "80302", "addr:state": "CO", "brand": "USPS", "collection_times": "Mo-Fr 17:15; Sa 16:30", "name": "USPS COLLECTION BOX - BLUE BOX", "note": "ON 12/24 AND 12/31, THIS BOX MAY BE COLLECTED AS EARLY AS 12 NOON.", "ref": "8030200058"}, "type": "Feature"}
{"geometry": {"coordinates": [-105.276418, 40.018056], "type": "Point"}, "id": "HECuoiBQH2dZ22OrWD3YEDFT45g=", "properties": {"@spider": "usps_collection_boxes", "addr:city": "BOULDER", "addr:country": "US", "addr:full": "1905 15TH ST", "addr:postcode": "80302", "addr:state": "CO", "brand": "USPS", "collection_times": "Mo-Fr 17:15; Sa 16:30", "name": "USPS COLLECTION BOX - PO LOBBY", "note": "ON 12/24 AND 12/31, THIS BOX MAY BE COLLECTED AS EARLY AS 12 NOON.", "ref": "8030200060"}, "type": "Feature"}
{"geometry": {"coordinates": [-105.276418, 40.018056], "type": "Point"}, "id": "x_d0KkXpCobF2ell1RFmUQ_x-Y8=", "properties": {"@spider": "usps_collection_boxes", "addr:city": "BOULDER", "addr:country": "US", "addr:full": "1905 15TH ST", "addr:postcode": "80302", "addr:state": "CO", "brand": "USPS", "collection_times": "Mo-Fr 17:15; Sa 16:30", "name": "USPS COLLECTION BOX - PO LOBBY", "note": "ON 12/24 AND 12/31, THIS BOX MAY BE COLLECTED AS EARLY AS 12 NOON.", "ref": "8030200061"}, "type": "Feature"}
{"geometry": {"coordinates": [-105.276418, 40.018056], "type": "Point"}, "id": "-54OHCjhgiT-KBAGNkvw8A_vHv4=", "properties": {"@spider": "usps_collection_boxes", "addr:city": "BOULDER", "addr:country": "US", "addr:full": "1905 15TH ST", "addr:postcode": "80302", "addr:state": "CO", "brand": "USPS", "collection_times": "Mo-Fr 17:15; Sa 16:30", "name": "USPS COLLECTION BOX - BLUE BOX", "note": "ON 12/24 AND 12/31, THIS BOX MAY BE COLLECTED AS EARLY AS 12 NOON.", "ref": "8030200064"}, "type": "Feature"}
{"geometry": {"coordinates": [-105.276418, 40.018056], "type": "Point"}, "id": "FaKfbXqeM_8QoEwGFfHRz12ZRA8=", "properties": {"@spider": "usps_collection_boxes", "addr:city": "BOULDER", "addr:country": "US", "addr:full": "1905 15TH ST", "addr:postcode": "80302", "addr:state": "CO", "brand": "USPS", "collection_times": "Mo-Fr 17:15; Sa 16:30", "name": "USPS COLLECTION BOX - BLUE BOX", "note": "ON 12/24 AND 12/31, THIS BOX MAY BE COLLECTED AS EARLY AS 12 NOON.", "ref": "8030200065"}, "type": "Feature"}
{"geometry": {"coordinates": [-105.276418, 40.018056], "type": "Point"}, "id": "Pq6V1s4DjrcfBW4BH1o1W_RLaQg=", "properties": {"@spider": "usps_collection_boxes", "addr:city": "BOULDER", "addr:country": "US", "addr:full": "1905 15TH ST", "addr:postcode": "80302", "addr:state": "CO", "brand": "USPS", "collection_times": "Mo-Fr 17:15; Sa 16:30", "name": "USPS COLLECTION BOX - BLUE BOX", "note": "ON 12/24 AND 12/31, THIS BOX MAY BE COLLECTED AS EARLY AS 12 NOON.", "ref": "8030200066"}, "type": "Feature"}
{"geometry": {"coordinates": [-105.276296, 40.000148], "type": "Point"}, "id": "PeuK4rMaU9xROxg2QEEZdEjAxyU=", "properties": {"@spider": "usps_collection_boxes", "addr:city": "BOULDER", "addr:country": "US", "addr:full": "720 13TH ST", "addr:postcode": "80302", "addr:state": "CO", "brand": "USPS", "collection_times": "Mo-Sa 11:00", "name": "USPS COLLECTION BOX - BLUE BOX", "ref": "8030200067"}, "type": "Feature"}
{"geometry": {"coordinates": [-105.261246, 40.018149], "type": "Point"}, "id": "lJ3iOgEcmr8MkZeCrgmvXPmt4rA=", "properties": {"@spider": "usps_collection_boxes", "addr:city": "BOULDER", "addr:country": "US", "addr:full": "2425 CANYON BLVD", "addr:postcode": "80302", "addr:state": "CO", "brand": "USPS", "collection_times": "Mo-Fr 14:45; Sa 12:00", "name": "USPS COLLECTION BOX - BLUE BOX", "note": "ON 12/24 AND 12/31, THIS BOX MAY BE COLLECTED AS EARLY AS 12 NOON.", "ref": "8030200068"}, "type": "Feature"}
{"geometry": {"coordinates": [-105.276087, 40.008577], "type": "Point"}, "id": "C-Sjw-TzxhqWlLboHRNEL6YvqL0=", "properties": {"@spider": "usps_collection_boxes", "addr:city": "BOULDER", "addr:country": "US", "addr:full": "1198 13TH ST", "addr:postcode": "80302", "addr:state": "CO", "brand": "USPS", "collection_times": "Mo-Fr 14:30; Sa 11:35", "name": "USPS COLLECTION BOX - BLUE BOX", "note": "ON 12/24 AND 12/31, THIS BOX MAY BE COLLECTED AS EARLY AS 12 NOON.", "ref": "8030200069"}, "type": "Feature"}
{"geometry": {"coordinates": [-105.269205, 40.020048], "type": "Point"}, "id": "Xch9fxrU4i7B02L8WyX7JfPBa1s=", "properties": {"@spider": "usps_collection_boxes", "addr:city": "BOULDER", "addr:country": "US", "addr:full": "2014 PEARL ST", "addr:postcode": "80302", "addr:state": "CO", "brand": "USPS", "collection_times": "Mo-Fr 11:00; Sa 10:30", "name": "USPS COLLECTION BOX - BLUE BOX", "ref": "8030200070"}, "type": "Feature"}
{"geometry": {"coordinates": [-105.275578, 40.007372], "type": "Point"}, "id": "LBYok97FDrR6wondRf_YTjvUkrA=", "properties": {"@spider": "usps_collection_boxes", "addr:city": "BOULDER", "addr:country": "US", "addr:full": "1111 BROADWAY ST", "addr:postcode": "80302", "addr:state": "CO", "brand": "USPS", "collection_times": "Mo-Fr 14:15; Sa 11:30", "name": "USPS COLLECTION BOX - BLUE BOX", "note": "ON 12/24 AND 12/31, THIS BOX MAY BE COLLECTED AS EARLY AS 12 NOON.", "ref": "8030200071"}, "type": "Feature"}
{"geometry": {"coordinates": [-105.276418, 40.018056], "type": "Point"}, "id": "AvpYXz1tB43fbSeoalBs6vEAyHk=", "properties": {"@spider": "usps_collection_boxes", "addr:city": "BOULDER", "addr:country": "US", "addr:full": "1905 15TH ST", "addr:postcode": "80302", "addr:state": "CO", "brand": "USPS", "collection_times": "Mo-Fr 17:15; Sa 16:30", "name": "USPS COLLECTION BOX - PO LOBBY", "note": "ON 12/24 AND 12/31, THIS BOX MAY BE COLLECTED AS EARLY AS 12 NOON.", "ref": "8030200072"}, "type": "Feature"}
{"geometry": {"coordinates": [-105.276418, 40.018056], "type": "Point"}, "id": "ldIPQHS42wrtMd4M4cL4Mix6iAk=", "properties": {"@spider": "usps_collection_boxes", "addr:city": "BOULDER", "addr:country": "US", "addr:full": "1905 15TH ST", "addr:postcode": "80302", "addr:state": "CO", "brand": "USPS", "collection_times": "Mo-Fr 17:15; Sa 16:30", "name": "USPS COLLECTION BOX - PO LOBBY", "note": "ON 12/24 AND 12/31, THIS BOX MAY BE COLLECTED AS EARLY AS 12 NOON.", "ref": "8030200073"}, "type": "Feature"}
{"geometry": {"coordinates": [-105.276418, 40.018056], "type": "Point"}, "id": "clzuADVuYMaP0wWsqzmOIEc9FWA=", "properties": {"@spider": "usps_collection_boxes", "addr:city": "BOULDER", "addr:country": "US", "addr:full": "1905 15TH ST", "addr:postcode": "80302", "addr:state": "CO", "brand": "USPS", "collection_times": "Mo-Fr 17:15; Sa 16:30", "name": "USPS COLLECTION BOX - PO LOBBY", "note": "ON 12/24 AND 12/31, THIS BOX MAY BE COLLECTED AS EARLY AS 12 NOON.", "ref": "8030200074"}, "type": "Feature"}
{"geometry": {"coordinates": [-105.276418, 40.018056], "type": "Point"}, "id": "qeBxcp2u5InkkunbiXEp931faSA=", "properties": {"@spider": "usps_collection_boxes", "addr:city": "BOULDER", "addr:country": "US", "addr:full": "1905 15TH ST", "addr:postcode": "80302", "addr:state": "CO", "brand": "USPS", "collection_times": "Mo-Fr 17:15; Sa 16:30", "name": "USPS COLLECTION BOX - APC", "note": "ON 12/24 AND 12/31, THIS BOX MAY BE COLLECTED AS EARLY AS 12 NOON.", "ref": "8030200075"}, "type": "Feature"}
{"geometry": {"coordinates": [-105.293674, 40.015046], "type": "Point"}, "id": "iialSGpXGlCAe4Fl8icqfACRUaM=", "properties": {"@spider": "usps_collection_boxes", "addr:city": "BOULDER", "addr:country": "US", "addr:full": "208 PEARL ST", "addr:postcode": "80302", "addr:state": "CO", "brand": "USPS", "collection_times": "Mo-Fr 15:45", "name": "USPS COLLECTION BOX - BLUE BOX", "note": "ON 12/24 AND 12/31, THIS BOX MAY BE COLLECTED AS EARLY AS 12 NOON.", "ref": "8030200076"}, "type": "Feature"}
{"geometry": {"coordinates": [-105.277568213, 40.016145344], "type": "Point"}, "id": "NDBjLGUHEJ4fdCbvcs9mREvGT1w=", "properties": {"@spider": "usps_collection_boxes", "addr:city": "BOULDER", "addr:country": "US", "addr:full": "1300 CANYON BLVD", "addr:postcode": "80302", "addr:state": "CO", "brand": "USPS", "collection_times": "Mo-Fr 16:40", "name": "USPS COLLECTION BOX - BLUE BOX", "note": "ON 12/24 AND 12/31, THIS BOX MAY BE COLLECTED AS EARLY AS 12 NOON.", "ref": "8030200077"}, "type": "Feature"}
{"geometry": {"coordinates": [-105.258198, 40.008785], "type": "Point"}, "id": "ZKyHyaNxi1vW2LailawWIej4Gc0=", "properties": {"@spider": "usps_collection_boxes", "addr:city": "BOULDER", "addr:country": "US", "addr:full": "2801 PENNSYLVANIA AVE", "addr:postcode": "80303", "addr:state": "CO", "brand": "USPS", "collection_times": "Mo-Sa 10:00", "name": "USPS COLLECTION BOX - BLUE BOX", "ref": "8030300000"}, "type": "Feature"}
{"geometry": {"coordinates": [-105.253199, 39.99895], "type": "Point"}, "id": "s6W55aOs65DidbfBqXDSJSRJybA=", "properties": {"@spider": "usps_collection_boxes", "addr:city": "BOULDER", "addr:country": "US", "addr:full": "645 30TH ST", "addr:postcode": "80303", "addr:state": "CO", "brand": "USPS", "collection_times": "Mo-Fr 12:00; Sa 10:20", "name": "USPS COLLECTION BOX - BLUE BOX", "ref": "8030300001"}, "type": "Feature"}
{"geometry": {"coordinates": [-105.251643, 40.00751], "type": "Point"}, "id": "2mjhHd05kLDIdY3JC9uidQuSPOg=", "properties": {"@spider": "usps_collection_boxes", "addr:city": "BOULDER", "addr:country": "US", "addr:full": "1300 30TH ST", "addr:postcode": "80303", "addr:state": "CO", "brand": "USPS", "collection_times": "Mo-Fr 12:00; Sa 10:25", "name": "USPS COLLECTION BOX - BLUE BOX", "ref": "8030300002"}, "type": "Feature"}
{"geometry": {"coordinates": [-105.252585, 40.012968], "type": "Point"}, "id": "tTgrZRLnSLj4FQmG7605jkO7Z6c=", "properties": {"@spider": "usps_collection_boxes", "addr:city": "BOULDER", "addr:country": "US", "addr:full": "1560 30TH ST", "addr:postcode": "80303", "addr:state": "CO", "brand": "USPS", "collection_times": "Mo-Fr 12:45; Sa 10:25", "name": "USPS COLLECTION BOX - BLUE BOX", "note": "ON 12/24 AND 12/31, THIS BOX MAY BE COLLECTED AS EARLY AS 12 NOON.", "ref": "8030300003"}, "type": "Feature"}
{"geometry": {"coordinates": [-105.220325, 40.016004], "type": "Point"}, "id": "w71PY1rCtHxn0hAyGj2_yIdx5K4=", "properties": {"@spider": "usps_collection_boxes", "addr:city": "BOULDER", "addr:country": "US", "addr:full": "5721 ARAPAHOE AVE", "addr:postcode": "80303", "addr:state": "CO", "brand": "USPS", "collection_times": "Mo-Fr 13:00; Sa 11:30", "name": "USPS COLLECTION BOX - BLUE BOX", "note": "ON 12/24 AND 12/31, THIS BOX MAY BE COLLECTED AS EARLY AS 12 NOON.", "ref": "8030300005"}, "type": "Feature"}
{"geometry": {"coordinates": [-105.178671, 40.014156], "type": "Point"}, "id": "GhkQ998QSWjyoMvXVi17FCnPvKM=", "properties": {"@spider": "usps_collection_boxes", "addr:city": "BOULDER", "addr:country": "US", "addr:full": "7498 ARAPAHOE RD", "addr:postcode": "80303", "addr:state": "CO", "brand": "USPS", "collection_times": "Mo-Sa 11:00", "name": "USPS COLLECTION BOX - BLUE BOX", "ref": "8030300006"}, "type": "Feature"}
{"geometry": {"coordinates": [-105.233367, 39.99795], "type": "Point"}, "id": "RetSe_J9unYWkXmFVe5Oh0fTfI0=", "properties": {"@spider": "usps_collection_boxes", "addr:city": "BOULDER", "addr:country": "US", "addr:full": "4800 BASELINE RD", "addr:postcode": "80303", "addr:state": "CO", "brand": "USPS", "collection_times": "Mo-Fr 11:30; Sa 10:00", "name": "USPS COLLECTION BOX - BLUE BOX", "ref": "8030300007"}, "type": "Feature"}
{"geometry": {"coordinates": [-105.2327228747, 40.0125834659], "type": "Point"}, "id": "2fgrcjEq8KL70-vYW458_oXzMvY=", "properties": {"@spider": "usps_collection_boxes", "addr:city": "BOULDER", "addr:country": "US", "addr:full": "4947 EISENHOWER DR", "addr:postcode": "80303", "addr:state": "CO", "brand": "USPS", "collection_times": "Mo-Sa 12:00", "name": "USPS COLLECTION BOX - BLUE BOX", "ref": "8030300010"}, "type": "Feature"}
{"geometry": {"coordinates": [-105.228674, 39.985578], "type": "Point"}, "id": "UGNf6DDqvLeX69MrDwk87SrElUQ=", "properties": {"@spider": "usps_collection_boxes", "addr:city": "BOULDER", "addr:country": "US", "addr:full": "5200 MANHATTAN CIR", "addr:postcode": "80303", "addr:state": "CO", "brand": "USPS", "collection_times": "Mo-Fr 11:00; Sa 10:15", "name": "USPS COLLECTION BOX - BLUE BOX", "ref": "8030300011"}, "type": "Feature"}
{"geometry": {"coordinates": [-105.22944, 39.99869], "type": "Point"}, "id": "qrYHCdnw9f4tu7OX1zLTIzexqnA=", "properties": {"@spider": "usps_collection_boxes", "addr:city": "BOULDER", "addr:country": "US", "addr:full": "665 MANHATTAN DR", "addr:postcode": "80303", "addr:state": "CO", "brand": "USPS", "collection_times": "Mo-Sa 11:30", "name": "USPS COLLECTION BOX - BLUE BOX", "ref": "8030300012"}, "type": "Feature"}
{"geometry": {"coordinates": [-105.260063, 40.036926], "type": "Point"}, "id": "EH_42FqHCqfiMMh5T_-MdR_1J4M=", "properties": {"@spider": "usps_collection_boxes", "addr:city": "BOULDER", "addr:country": "US", "addr:full": "2709 IRIS AVE", "addr:postcode": "80304", "addr:state": "CO", "brand": "USPS", "collection_times": "Mo-Sa 10:00", "name": "USPS COLLECTION BOX - BLUE BOX", "ref": "8030400000"}, "type": "Feature"}
{"geometry": {"coordinates": [-105.281571, 40.047506], "type": "Point"}, "id": "YkWJXd7dnGHfAaIflq52z6-Zbgg=", "properties": {"@spider": "usps_collection_boxes", "addr:city": "BOULDER", "addr:country": "US", "addr:full": "3960 BROADWAY ST", "addr:postcode": "80304", "addr:state": "CO", "brand": "USPS", "collection_times": "Mo-Sa 11:00", "name": "USPS COLLECTION BOX - BLUE BOX", "ref": "8030400001"}, "type": "Feature"}
{"geometry": {"coordinates": [-105.262142, 40.050904], "type": "Point"}, "id": "ilvlclS6sELTQTVaLzx9PSdo_h8=", "properties": {"@spider": "usps_collection_boxes", "addr:city": "BOULDER", "addr:country": "US", "addr:full": "4192 AMBER PL", "addr:postcode": "80304", "addr:state": "CO", "brand": "USPS", "collection_times": "Mo-Fr 12:45; Sa 11:35", "name": "USPS COLLECTION BOX - BLUE BOX", "note": "ON 12/24 AND 12/31, THIS BOX MAY BE COLLECTED AS EARLY AS 12 NOON.", "ref": "8030400002"}, "type": "Feature"}
{"geometry": {"coordinates": [-105.285977, 40.025475], "type": "Point"}, "id": "fnYU8sxaLOBXlCDdxtzN744SZnQ=", "properties": {"@spider": "usps_collection_boxes", "addr:city": "BOULDER", "addr:country": "US", "addr:full": "880 ALPINE AVE", "addr:postcode": "80304", "addr:state": "CO", "brand": "USPS", "collection_times": "Mo-Fr 13:00; Sa 11:20", "name": "USPS COLLECTION BOX - BLUE BOX", "note": "ON 12/24 AND 12/31, THIS BOX MAY BE COLLECTED AS EARLY AS 12 NOON.", "ref": "8030400003"}, "type": "Feature"}
{"geometry": {"coordinates": [-105.281123, 40.036523], "type": "Point"}, "id": "kOdrz0WG3qJceFCMYX6yTTrtB34=", "properties": {"@spider": "usps_collection_boxes", "addr:city": "BOULDER", "addr:country": "US", "addr:full": "1333 IRIS AVE", "addr:postcode": "80304", "addr:state": "CO", "brand": "USPS", "collection_times": "Mo-Sa 10:00", "name": "USPS COLLECTION BOX - BLUE BOX", "ref": "8030400005"}, "type": "Feature"}
{"geometry": {"coordinates": [-105.261794, 40.027362], "type": "Point"}, "id": "9lR0-rr6dZ4X5enuIfffM1LKJXk=", "properties": {"@spider": "usps_collection_boxes", "addr:city": "BOULDER", "addr:country": "US", "addr:full": "2635 MAPLETON AVE", "addr:postcode": "80304", "addr:state": "CO", "brand": "USPS", "collection_times": "Mo-Sa 10:00", "name": "USPS COLLECTION BOX - BLUE BOX", "ref": "8030400006"}, "type": "Feature"}
{"geometry": {"coordinates": [-105.2705379879, 40.0560609997], "type": "Point"}, "id": "lJzqu79JLm7z760P5WIS6hZai-4=", "properties": {"@spider": "usps_collection_boxes", "addr:city": "BOULDER", "addr:country": "US", "addr:full": "4500 19TH ST", "addr:postcode": "80304", "addr:state": "CO", "brand": "USPS", "collection_times": "Mo-Sa 10:00", "name": "USPS COLLECTION BOX - BLUE BOX", "ref": "8030400007"}, "type": "Feature"}
{"geometry": {"coordinates": [-105.2835049598, 40.0648949808], "type": "Point"}, "id": "-s8-I9lKPEA-ocKbr-1MgFY0gyY=", "properties": {"@spider": "usps_collection_boxes", "addr:city": "BOULDER", "addr:country": "US", "addr:full": "4949 BROADWAY ST", "addr:postcode": "80304", "addr:state": "CO", "brand": "USPS", "collection_times": "Mo-Sa 11:35", "name": "USPS COLLECTION BOX - BLUE BOX", "ref": "8030400008"}, "type": "Feature"}
{"geometry": {"coordinates": [-105.282443, 40.064335], "type": "Point"}, "id": "jLrWEJArHDy00-Fj5KcCc4UrPuc=", "properties": {"@spider": "usps_collection_boxes", "addr:city": "BOULDER", "addr:country": "US", "addr:full": "4949 BROADWAY ST", "addr:postcode": "80304", "addr:state": "CO", "brand": "USPS", "collection_times": "Mo-Sa 11:35", "name": "USPS COLLECTION BOX - BLUE BOX", "ref": "8030400009"}, "type": "Feature"}
{"geometry": {"coordinates": [-105.291526868, 40.022028], "type": "Point"}, "id": "hlRhuCAIAmBIj2UIbHFV2JxSiIQ=", "properties": {"@spider": "usps_collection_boxes", "addr:city": "BOULDER", "addr:country": "US", "addr:full": "2505 4TH STREET", "addr:postcode": "80304", "addr:state": "CO", "brand": "USPS", "collection_times": "Mo-Fr 14:00; Sa 11:15", "name": "USPS COLLECTION BOX - BLUE BOX", "note": "ON 12/24 AND 12/31, THIS BOX MAY BE COLLECTED AS EARLY AS 12 NOON.", "ref": "8030400010"}, "type": "Feature"}
{"geometry": {"coordinates": [-105.2814399941, 40.0260079792], "type": "Point"}, "id": "jEq6tJk2kScv82Qr9_tY2s4CqkM=", "properties": {"@spider": "usps_collection_boxes", "addr:city": "BOULDER", "addr:country": "US", "addr:full": "2700 BROADWAY ST", "addr:postcode": "80304", "addr:state": "CO", "brand": "USPS", "collection_times": "Mo-Fr 17:00; Sa 13:45", "name": "USPS COLLECTION BOX - BLUE BOX", "note": "ON 12/24 AND 12/31, THIS BOX MAY BE COLLECTED AS EARLY AS 12 NOON.", "ref": "8030400011"}, "type": "Feature"}
{"geometry": {"coordinates": [-105.2811675, 40.02534], "type": "Point"}, "id": "IymrsTH2mt-JYhTkLsWrjH1M1xE=", "properties": {"@spider": "usps_collection_boxes", "addr:city": "BOULDER", "addr:country": "US", "addr:full": "2690 BROADWAY ST", "addr:postcode": "80304", "addr:state": "CO", "brand": "USPS", "collection_times": "Mo-Fr 13:45; Sa 11:25", "name": "USPS COLLECTION BOX - BLUE BOX", "note": "ON 12/24 AND 12/31, THIS BOX MAY BE COLLECTED AS EARLY AS 12 NOON.", "ref": "8030400013"}, "type": "Feature"}
{"geometry": {"coordinates": [-105.2815095, 40.025907], "type": "Point"}, "id": "wURQpWiILXFWIgJc-smSGWlwKYY=", "properties": {"@spider": "usps_collection_boxes", "addr:city": "BOULDER", "addr:country": "US", "addr:full": "2700 BROADWAY ST", "addr:postcode": "80304", "addr:state": "CO", "brand": "USPS", "collection_times": "Mo-Fr 17:00; Sa 13:45", "name": "USPS COLLECTION BOX - BLUE BOX", "note": "ON 12/24 AND 12/31, THIS BOX MAY BE COLLECTED AS EARLY AS 12 NOON.", "ref": "8030400015"}, "type": "Feature"}
{"geometry": {"coordinates": [-105.2815095, 40.025907], "type": "Point"}, "id": "cc7VreIgGZEqS-oatawrxu5S12I=", "properties": {"@spider": "usps_collection_boxes", "addr:city": "BOULDER", "addr:country": "US", "addr:full": "2700 BROADWAY ST", "addr:postcode": "80304", "addr:state": "CO", "brand": "USPS", "collection_times": "Mo-Fr 17:00; Sa 13:45", "name": "USPS COLLECTION BOX - BLUE BOX", "note": "ON 12/24 AND 12/31, THIS BOX MAY BE COLLECTED AS EARLY AS 12 NOON.", "ref": "8030400016"}, "type": "Feature"}
{"geometry": {"coordinates": [-105.24841, 39.98384], "type": "Point"}, "id": "MVC-49iWKV2I4Y0JGQv2AAGs0Ag=", "properties": {"@spider": "usps_collection_boxes", "addr:city": "BOULDER", "addr:country": "US", "addr:full": "657 S BROADWAY ST", "addr:postcode": "80305", "addr:state": "CO", "brand": "USPS", "collection_times": "Mo-Fr 15:45; Sa 13:05", "name": "USPS COLLECTION BOX - BLUE BOX", "note": "ON 12/24 AND 12/31, THIS BOX MAY BE COLLECTED AS EARLY AS 12 NOON.", "ref": "8030500006"}, "type": "Feature"}
{"geometry": {"coordinates": [-105.237646, 39.98659], "type": "Point"}, "id": "2FmpTDfIZaanXzQLI9mQ4YKGuAo=", "properties": {"@spider": "usps_collection_boxes", "addr:city": "BOULDER", "addr:country": "US", "addr:full": "4985 MOORHEAD AVE", "addr:postcode": "80305", "addr:state": "CO", "brand": "USPS", "collection_times": "Mo-Fr 16:50; Sa 12:45", "name": "USPS COLLECTION BOX - EXPRESS", "note": "ON 12/24 AND 12/31, THIS BOX MAY BE COLLECTED AS EARLY AS 12 NOON.", "ref": "8030500014"}, "type": "Feature"}
{"geometry": {"coordinates": [-105.237646, 39.98659], "type": "Point"}, "id": "6OXZAkZsBkJXKEaLnFDKLoRL9q0=", "properties": {"@spider": "usps_collection_boxes", "addr:city": "BOULDER", "addr:country": "US", "addr:full": "4985 MOORHEAD AVE", "addr:postcode": "80305", "addr:state": "CO", "brand": "USPS", "collection_times": "Mo-Fr 17:00; Sa 15:00", "name": "USPS COLLECTION BOX - BLUE BOX", "note": "ON 12/24 AND 12/31, THIS BOX MAY BE COLLECTED AS EARLY AS 12 NOON.", "ref": "8030500015"}, "type": "Feature"}
{"geometry": {"coordinates": [-105.237646, 39.98659], "type": "Point"}, "id": "3yjtHPVK8EU7QKTfS7KS2YJH0Sk=", "properties": {"@spider": "usps_collection_boxes", "addr:city": "BOULDER", "addr:country": "US", "addr:full": "4985 MOORHEAD AVE", "addr:postcode": "80305", "addr:state": "CO", "brand": "USPS", "collection_times": "Mo-Fr 17:00; Sa 15:00", "name": "USPS COLLECTION BOX - BLUE BOX", "note": "ON 12/24 AND 12/31, THIS BOX MAY BE COLLECTED AS EARLY AS 12 NOON.", "ref": "8030500016"}, "type": "Feature"}
{"geometry": {"coordinates": [-105.237646, 39.98659], "type": "Point"}, "id": "eRq6j8nCA-W0AIi9CI0didBhN7Y=", "properties": {"@spider": "usps_collection_boxes", "addr:city": "BOULDER", "addr:country": "US", "addr:full": "4985 MOORHEAD AVE", "addr:postcode": "80305", "addr:state": "CO", "brand": "USPS", "collection_times": "Mo-Fr 17:00; Sa 14:00", "name": "USPS COLLECTION BOX - PO LOBBY", "note": "ON 12/24 AND 12/31, THIS BOX MAY BE COLLECTED AS EARLY AS 12 NOON.", "ref": "8030500020"}, "type": "Feature"}
{"geometry": {"coordinates": [-105.237646, 39.98659], "type": "Point"}, "id": "QHV0Df2saQqZ7v2JnBjiFY4MQwc=", "properties": {"@spider": "usps_collection_boxes", "addr:city": "BOULDER", "addr:country": "US", "addr:full": "4985 MOORHEAD AVE", "addr:postcode": "80305", "addr:state": "CO", "brand": "USPS", "collection_times": "Mo-Fr 17:00; Sa 14:00", "name": "USPS COLLECTION BOX - PO LOBBY", "note": "ON 12/24 AND 12/31, THIS BOX MAY BE COLLECTED AS EARLY AS 12 NOON.", "ref": "8030500021"}, "type": "Feature"}
{"geometry": {"coordinates": [-105.261236, 39.999895], "type": "Point"}, "id": "9fb-N2AVGX7hYC1zizJZrAfaJBY=", "properties": {"@spider": "usps_collection_boxes", "addr:city": "BOULDER", "addr:country": "US", "addr:full": "2600 BASELINE RD", "addr:postcode": "80305", "addr:state": "CO", "brand": "USPS", "collection_times": "Mo-Fr 16:05; Sa 13:15", "name": "USPS COLLECTION BOX - BLUE BOX", "note": "ON 12/24 AND 12/31, THIS BOX MAY BE COLLECTED AS EARLY AS 12 NOON.", "ref": "8030500023"}, "type": "Feature"}
{"geometry": {"coordinates": [-105.249553, 39.983328], "type": "Point"}, "id": "VNxeEJT1uZPI4cV-CtDNfiZYBDY=", "properties": {"@spider": "usps_collection_boxes", "addr:city": "BOULDER", "addr:country": "US", "addr:full": "657 S BROADWAY ST", "addr:postcode": "80305", "addr:state": "CO", "brand": "USPS", "collection_times": "Mo-Fr 15:45; Sa 13:05", "name": "USPS COLLECTION BOX - BLUE BOX", "note": "ON 12/24 AND 12/31, THIS BOX MAY BE COLLECTED AS EARLY AS 12 NOON.", "ref": "8030500025"}, "type": "Feature"}
{"geometry": {"coordinates": [-105.261274, 39.999894], "type": "Point"}, "id": "zmlscTolAJqUrVBzupHVDGzLJvI=", "properties": {"@spider": "usps_collection_boxes", "addr:city": "BOULDER", "addr:country": "US", "addr:full": "2600 BASELINE RD", "addr:postcode": "80305", "addr:state": "CO", "brand": "USPS", "collection_times": "Mo-Fr 16:05; Sa 13:15", "name": "USPS COLLECTION BOX - BLUE BOX", "note": "ON 12/24 AND 12/31, THIS BOX MAY BE COLLECTED AS EARLY AS 12 NOON.", "ref": "8030500026"}, "type": "Feature"}
{"geometry": {"coordinates": [-105.238447, 39.985195], "type": "Point"}, "id": "WdU8HiHA6vJWHFu433edWQjNIBE=", "properties": {"@spider": "usps_collection_boxes", "addr:city": "BOULDER", "addr:country": "US", "addr:full": "4730 TABLE MESA DR", "addr:postcode": "80305", "addr:state": "CO", "brand": "USPS", "collection_times": "Mo-Sa 12:00", "name": "USPS COLLECTION BOX - BLUE BOX", "ref": "8030500027"}, "type": "Feature"}
{"geometry": {"coordinates": [-105.260485, 39.996626], "type": "Point"}, "id": "YzNMw_6Umh4WZVYIVj3sOTF7_D4=", "properties": {"@spider": "usps_collection_boxes", "addr:city": "BOULDER", "addr:country": "US", "addr:full": "350 BROADWAY ST", "addr:postcode": "80305", "addr:state": "CO", "brand": "USPS", "collection_times": "Mo-Fr 16:00; Sa 13:15", "name": "USPS COLLECTION BOX - BLUE BOX", "note": "ON 12/24 AND 12/31, THIS BOX MAY BE COLLECTED AS EARLY AS 12 NOON.", "ref": "8030500028"}, "type": "Feature"}
{"geometry": {"coordinates": [-105.260419, 39.993603], "type": "Point"}, "id": "FBnnGlqvHs-XbAxdNQfclfHv_wQ=", "properties": {"@spider": "usps_collection_boxes", "addr:city": "BOULDER", "addr:country": "US", "addr:full": "325 BROADWAY ST", "addr:postcode": "80305", "addr:state": "CO", "brand": "USPS", "collection_times": "Mo-Fr 15:45; Sa 13:00", "name": "USPS COLLECTION BOX - BLUE BOX", "note": "ON 12/24 AND 12/31, THIS BOX MAY BE COLLECTED AS EARLY AS 12 NOON.", "ref": "8030500029"}, "type": "Feature"}
