{"geometry": {"coordinates": [-117.614928, 34.133042], "type": "Point"}, "id": "etyWuQmJUEJHZ1tvoablACVJS_0=", "properties": {"@spider": "usps_collection_boxes", "addr:city": "RANCHO CUCAMONGA", "addr:country": "US", "addr:full": "8784 19TH ST", "addr:postcode": "91701", "addr:state": "CA", "brand": "USPS", "collection_times": "Mo-Sa 12:00", "name": "USPS COLLECTION BOX - BLUE BOX", "ref": "9170100001"}, "type": "Feature"}
{"geometry": {"coordinates": [-117.582331, 34.12303], "type": "Point"}, "id": "L5se-AqflHmHAdoN-sbIEx06nwM=", "properties": {"@spider": "usps_collection_boxes", "addr:city": "RANCHO CUCAMONGA", "addr:country": "US", "addr:full": "10210 BASELINE RD", "addr:postcode": "91701", "addr:state": "CA", "brand": "USPS", "collection_times": "Mo-Sa 10:00", "name": "USPS COLLECTION BOX - BLUE BOX", "ref": "9170100002"}, "type": "Feature"}
{"geometry": {"coordinates": [-117.574256, 34.121926], "type": "Point"}, "id": "drMVqSVAjVhDrd2AgiYafCMjR4k=", "properties": {"@spider": "usps_collection_boxes", "addr:city": "RANCHO CUCAMONGA", "addr:country": "US", "addr:full": "10590 BASELINE RD", "addr:postcode": "91701", "addr:state": "CA", "brand": "USPS", "collection_times": "Mo-Sa 10:00", "name": "USPS COLLECTION BOX - BLUE BOX", "ref": "9170100003"}, "type": "Feature"}
{"geometry": {"coordinates": [-117.598230281, 34.1333375867], "type": "Point"}, "id": "KBlkj3OM3nZjCJX0qjklVhNrIPE=", "properties": {"@spider": "usps_collection_boxes", "addr:city": "RANCHO CUCAMONGA", "addr:country": "US", "addr:full": "6649 AMETHYST AVE", "addr:postcode": "91701", "addr:state": "CA", "brand": "USPS", "collection_times": "Mo-Fr 17:00", "name": "USPS COLLECTION BOX - PO LOBBY", "note": "ON 12/24 AND 12/31, THIS BOX MAY BE COLLECTED AS EARLY AS 12 NOON.", "ref": "9170100249"}, "type": "Feature"}
{"geometry": {"coordinates": [-117.906429, 34.133422], "type": "Point"}, "id": "5BGJAYPyEJkfMgTBMbRMZTXRJz4=", "properties": {"@spider": "usps_collection_boxes", "addr:city": "AZUSA", "addr:country": "US", "addr:full": "152 E FOOTHILL BLVD", "addr:postcode": "91702", "addr:state": "CA", "brand": "USPS", "collection_times": "Mo-Sa 10:00", "name": "USPS COLLECTION BOX - BLUE BOX", "ref": "9170200001"}, "type": "Feature"}
{"geometry": {"coordinates": [-117.923888, 34.126197], "type": "Point"}, "id": "Ud_195iLF-dHJruqm6VUvO0sm7E=", "properties": {"@spider": "usps_collection_boxes", "addr:city": "AZUSA", "addr:country": "US", "addr:full": "1100 W HOLLYVALE ST", "addr:postcode": "91702", "addr:state": "CA", "brand": "USPS", "collection_times": "Mo-Sa 10:00", "name": "USPS COLLECTION BOX - BLUE BOX", "ref": "9170200011"}, "type": "Feature"}
{"geometry": {"coordinates": [-117.920346, 34.107387], "type": "Point"}, "id": "SvJTDAaKJv-UYqL8fmmh3GD_MYo=", "properties": {"@spider": "usps_collection_boxes", "addr:city": "AZUSA", "addr:country": "US", "addr:full": "5210 N CLYDEBANK AVE", "addr:postcode": "91702", "addr:state": "CA", "brand": "USPS", "collection_times": "Mo-Sa 10:00", "name": "USPS COLLECTION BOX - BLUE BOX", "ref": "9170200012"}, "type": "Feature"}
{"geometry": {"coordinates": [-117.898013, 34.10692], "type": "Point"}, "id": "-sTixI0VybTvU42vxWnu2DnBaHw=", "properties": {"@spider": "usps_collection_boxes", "addr:city": "AZUSA", "addr:country": "US", "addr:full": "605 E ARROW HWY", "addr:postcode": "91702", "addr:state": "CA", "brand": "USPS", "collection_times": "Mo-Sa 10:00", "name": "USPS COLLECTION BOX - BLUE BOX", "ref": "9170200013"}, "type": "Feature"}
{"geometry": {"coordinates": [-117.908702, 34.131844], "type": "Point"}, "id": "jmGyOQCWSJp_H40Z6L_XT48XNhI=", "properties": {"@spider": "usps_collection_boxes", "addr:city": "AZUSA", "addr:country": "US", "addr:full": "600 N SAN GABRIEL AVE", "addr:postcode": "91702", "addr:state": "CA", "brand": "USPS", "collection_times": "Mo-Sa 10:00", "name": "USPS COLLECTION BOX - BLUE BOX", "ref": "9170200018"}, "type": "Feature"}
{"geometry": {"coordinates": [-117.907546, 34.12997], "type": "Point"}, "id": "Z-PVZ9mKZhm4tg9n9OlWp56HQaM=", "properties": {"@spider": "usps_collection_boxes", "addr:city": "AZUSA", "addr:country": "US", "addr:full": "500 N AZUSA AVE", "addr:postcode": "91702", "addr:state": "CA", "brand": "USPS", "collection_times": "Mo-Sa 17:00", "name": "USPS COLLECTION BOX - BLUE BOX", "note": "ON 12/24 AND 12/31, THIS BOX MAY BE COLLECTED AS EARLY AS 12 NOON.", "ref": "9170200020"}, "type": "Feature"}
{"geometry": {"coordinates": [-117.882556, 34.129506], "type": "Point"}, "id": "ESrbjMNwVtaQJdF334bliwIUPDs=", "properties": {"@spider": "usps_collection_boxes", "addr:city": "AZUSA", "addr:country": "US", "addr:full": "1145 E ALOSTA AVE", "addr:postcode": "91702", "addr:state": "CA", "brand": "USPS", "collection_times": "Mo-Sa 10:00", "name": "USPS COLLECTION BOX - BLUE BOX", "ref": "9170200022"}, "type": "Feature"}
{"geometry": {"coordinates": [-117.916122022, 34.1222309899], "type": "Point"}, "id": "JGJ8Dyvi1K1dnt81GFu6YHV-2O8=", "properties": {"@spider": "usps_collection_boxes", "addr:city": "AZUSA", "addr:country": "US", "addr:full": "777 W 1ST ST", "addr:postcode": "91702", "addr:state": "CA", "brand": "USPS", "collection_times": "Mo-Sa 10:00", "name": "USPS COLLECTION BOX - BLUE BOX", "ref": "9170200027"}, "type": "Feature"}
{"geometry": {"coordinates": [-117.904286, 34.114745], "type": "Point"}, "id": "XJ0k41mAqqxfJykfc85KJDfeXZU=", "properties": {"@spider": "usps_collection_boxes", "addr:city": "AZUSA", "addr:country": "US", "addr:full": "327 E GLADSTONE ST", "addr:postcode": "91702", "addr:state": "CA", "brand": "USPS", "collection_times": "Mo-Sa 10:00", "name": "USPS COLLECTION BOX - BLUE BOX", "ref": "9170200030"}, "type": "Feature"}
{"geometry": {"coordinates": [-117.907546, 34.12997], "type": "Point"}, "id": "faLQm7pqBzdySbf6IM1oGGtUQDI=", "properties": {"@spider": "usps_collection_boxes", "addr:city": "AZUSA", "addr:country": "US", "addr:full": "500 N AZUSA AVE", "addr:postcode": "91702", "addr:state": "CA", "brand": "USPS", "collection_times": "Mo-Sa 15:00", "name": "USPS COLLECTION BOX - EXPRESS", "note": "ON 12/24 AND 12/31, THIS BOX MAY BE COLLECTED AS EARLY AS 12 NOON.", "ref": "9170200033"}, "type": "Feature"}
{"geometry": {"coordinates": [-117.907546, 34.12997], "type": "Point"}, "id": "SM4ZQoHWT2iELCN05LL1U4E9ugo=", "properties": {"@spider": "usps_collection_boxes", "addr:city": "AZUSA", "addr:country": "US", "addr:full": "500 N AZUSA AVE", "addr:postcode": "91702", "addr:state": "CA", "brand": "USPS", "collection_times": "Mo-Sa 17:00", "name": "USPS COLLECTION BOX - BLUE BOX", "note": "ON 12/24 AND 12/31, THIS BOX MAY BE COLLECTED AS EARLY AS 12 NOON.", "ref": "9170200035"}, "type": "Feature"}
{"geometry": {"coordinates": [-117.907748, 34.131632], "type": "Point"}, "id": "gYHwMi8BjobJlhxwhp8Fv76T1JA=", "properties": {"@spider": "usps_collection_boxes", "addr:city": "AZUSA", "addr:country": "US", "addr:full": "110 W 6TH ST", "addr:postcode": "91702", "addr:state": "CA", "brand": "USPS", "collection_times": "Mo-Sa 17:00", "name": "USPS COLLECTION BOX - BLUE BOX", "note": "ON 12/24 AND 12/31, THIS BOX MAY BE COLLECTED AS EARLY AS 12 NOON.", "ref": "9170200036"}, "type": "Feature"}
{"geometry": {"coordinates": [-117.908703, 34.131857], "type": "Point"}, "id": "hNjXmYNG1ymdoMKyvzRgeSPNE9c=", "properties": {"@spider": "usps_collection_boxes", "addr:city": "AZUSA", "addr:country": "US", "addr:full": "600 N SAN GABRIEL AVE", "addr:postcode": "91702", "addr:state": "CA", "brand": "USPS", "collection_times": "Mo-Sa 10:00", "name": "USPS COLLECTION BOX - BLUE BOX", "ref": "9170200039"}, "type": "Feature"}
{"geometry": {"coordinates": [-117.933687, 34.12462], "type": "Point"}, "id": "_nGfGQGQBIvQXvg7uUGGWndKDos=", "properties": {"@spider": "usps_collection_boxes", "addr:city": "AZUSA", "addr:country": "US", "addr:full": "6020 N IRWINDALE AVE", "addr:postcode": "91702", "addr:state": "CA", "brand": "USPS", "collection_times": "Mo-Fr 10:00", "name": "USPS COLLECTION BOX - BLUE BOX", "ref": "9170200045"}, "type": "Feature"}
{"geometry": {"coordinates": [-117.933687, 34.12462], "type": "Point"}, "id": "kqiuT97mwMFKDhdTUWyEpxeXgaU=", "properties": {"@spider": "usps_collection_boxes", "addr:city": "AZUSA", "addr:country": "US", "addr:full": "6020 N IRWINDALE AVE", "addr:postcode": "91702", "addr:state": "CA", "brand": "USPS", "collection_times": "Mo-Fr 10:00", "name": "USPS COLLECTION BOX - BLUE BOX", "ref": "9170200046"}, "type": "Feature"}
{"geometry": {"coordinates": [-117.9079016647, 34.1316224662], "type": "Point"}, "id": "u5H-CBlI88whWMCMYeyy7tKn6ds=", "properties": {"@spider": "usps_collection_boxes", "addr:city": "AZUSA", "addr:country": "US", "addr:full": "110 W 6TH ST", "addr:postcode": "91702", "addr:state": "CA", "brand": "USPS", "collection_times": "Mo-Fr 17:00; Sa 13:00", "name": "USPS COLLECTION BOX - PO LOBBY", "note": "ON 12/24 AND 12/31, THIS BOX MAY BE COLLECTED AS EARLY AS 12 NOON.", "ref": "9170200051"}, "type": "Feature"}
{"geometry": {"coordinates": [-117.960339, 34.089545], "type": "Point"}, "id": "B4RTuZN9xgzslIPejaEuxtAPYkE=", "properties": {"@spider": "usps_collection_boxes", "addr:city": "BALDWIN PARK", "addr:country": "US", "addr:full": "4230 MAINE AVE", "addr:postcode": "91706", "addr:state": "CA", "brand": "USPS", "collection_times": "Mo-Sa 17:00", "name": "USPS COLLECTION BOX - BLUE BOX", "note": "ON 12/24 AND 12/31, THIS BOX MAY BE COLLECTED AS EARLY AS 12 NOON.", "ref": "9170600002"}, "type": "Feature"}
{"geometry": {"coordinates": [-117.96054469, 34.098947832], "type": "Point"}, "id": "JkpeRMuyh8mD02TRwpug7X9pgGs=", "properties": {"@spider": "usps_collection_boxes", "addr:city": "BALDWIN PARK", "addr:country": "US", "addr:full": "4741 MAINE AVE", "addr:postcode": "91706", "addr:state": "CA", "brand": "USPS", "collection_times": "Mo-Fr 10:00", "name": "USPS COLLECTION BOX - BLUE BOX", "ref": "9170600011"}, "type": "Feature"}
{"geometry": {"coordinates": [-117.966182, 34.106575], "type": "Point"}, "id": "hZTXYyn3gj0bOnNkNEyK_xIhCFY=", "properties": {"@spider": "usps_collection_boxes", "addr:city": "BALDWIN PARK", "addr:country": "US", "addr:full": "14140 LIVE OAK AVE", "addr:postcode": "91706", "addr:state": "CA", "brand": "USPS", "collection_times": "Mo-Fr 10:00", "name": "USPS COLLECTION BOX - BLUE BOX", "ref": "9170600013"}, "type": "Feature"}
{"geometry": {"coordinates": [-117.957316, 34.082495], "type": "Point"}, "id": "47JhIClPc1hPN-OOfZv6_wQeLZY=", "properties": {"@spider": "usps_collection_boxes", "addr:city": "BALDWIN PARK", "addr:country": "US", "addr:full": "14604 PACIFIC AVE", "addr:postcode": "91706", "addr:state": "CA", "brand": "USPS", "collection_times": "Mo-Fr 10:00", "name": "USPS COLLECTION BOX - BLUE BOX", "ref": "9170600021"}, "type": "Feature"}
{"geometry": {"coordinates": [-117.933499, 34.105457], "type": "Point"}, "id": "Js3-aqUa0YhzjDS5GEF1K75oKUY=", "properties": {"@spider": "usps_collection_boxes", "addr:city": "BALDWIN PARK", "addr:country": "US", "addr:full": "16025 CALLE DEL NORTE", "addr:postcode": "91706", "addr:state": "CA", "brand": "USPS", "collection_times": "Mo-Fr 17:00; Sa 15:00", "name": "USPS COLLECTION BOX - EXPRESS", "note": "ON 12/24 AND 12/31, THIS BOX MAY BE COLLECTED AS EARLY AS 12 NOON.", "ref": "9170600022"}, "type": "Feature"}
{"geometry": {"coordinates": [-117.961809, 34.084444], "type": "Point"}, "id": "9qw8ppCqV0Z3VASZ_8pb3VFNgsU=", "properties": {"@spider": "usps_collection_boxes", "addr:city": "BALDWIN PARK", "addr:country": "US", "addr:full": "3936 MAINE AVE", "addr:postcode": "91706", "addr:state": "CA", "brand": "USPS", "collection_times": "Mo-Fr 10:00", "name": "USPS COLLECTION BOX - BLUE BOX", "ref": "9170600027"}, "type": "Feature"}
{"geometry": {"coordinates": [-117.967176, 34.065189], "type": "Point"}, "id": "kyeyOp4m1byS_LQmCcP0ncLrE7M=", "properties": {"@spider": "usps_collection_boxes", "addr:city": "BALDWIN PARK", "addr:country": "US", "addr:full": "1640 PUENTE AVE", "addr:postcode": "91706", "addr:state": "CA", "brand": "USPS", "collection_times": "Mo-Fr 10:00", "name": "USPS COLLECTION BOX - BLUE BOX", "ref": "9170600032"}, "type": "Feature"}
{"geometry": {"coordinates": [-117.966873, 34.085756], "type": "Point"}, "id": "pD209NrCqvjbTNRJRg2mnzOMC88=", "properties": {"@spider": "usps_collection_boxes", "addr:city": "BALDWIN PARK", "addr:country": "US", "addr:full": "4019 LA RICA AVE", "addr:postcode": "91706", "addr:state": "CA", "brand": "USPS", "collection_times": "Mo-Fr 10:00", "name": "USPS COLLECTION BOX - BLUE BOX", "ref": "9170600040"}, "type": "Feature"}
{"geometry": {"coordinates": [-117.988461, 34.079243], "type": "Point"}, "id": "QcuID9OEZ9OkukK7n2gE2bw92Io=", "properties": {"@spider": "usps_collection_boxes", "addr:city": "BALDWIN PARK", "addr:country": "US", "addr:full": "13001 FRANCISQUITO AVE", "addr:postcode": "91706", "addr:state": "CA", "brand": "USPS", "collection_times": "Mo-Fr 10:00", "name": "USPS COLLECTION BOX - BLUE BOX", "ref": "9170600045"}, "type": "Feature"}
{"geometry": {"coordinates": [-117.973513, 34.091846], "type": "Point"}, "id": "8fJVp7dgZiAtRg9zynFHZ8b9RPM=", "properties": {"@spider": "usps_collection_boxes", "addr:city": "BALDWIN PARK", "addr:country": "US", "addr:full": "13810 LOS ANGELES ST", "addr:postcode": "91706", "addr:state": "CA", "brand": "USPS", "collection_times": "Mo-Fr 10:00", "name": "USPS COLLECTION BOX - BLUE BOX", "ref": "9170600049"}, "type": "Feature"}
{"geometry": {"coordinates": [-117.9824353465, 34.0975886647], "type": "Point"}, "id": "l6uA4qN2lz6a8ZdcBZaWLFiDyPs=", "properties": {"@spider": "usps_collection_boxes", "addr:city": "BALDWIN PARK", "addr:country": "US", "addr:full": "4800 LITTLEJOHN ST", "addr:postcode": "91706", "addr:state": "CA", "brand": "USPS", "collection_times": "Mo-Fr 10:00", "name": "USPS COLLECTION BOX - BLUE BOX", "ref": "9170600054"}, "type": "Feature"}
{"geometry": {"coordinates": [-117.982529, 34.098489], "type": "Point"}, "id": "IUAX_Wh4Of2IFT4idrrsmXvCTcg=", "properties": {"@spider": "usps_collection_boxes", "addr:city": "BALDWIN PARK", "addr:country": "US", "addr:full": "13311 BROOKS BRKS", "addr:postcode": "91706", "addr:state": "CA", "brand": "USPS", "collection_times": "Mo-Fr 10:00", "name": "USPS COLLECTION BOX - BLUE BOX", "ref": "9170600056"}, "type": "Feature"}
{"geometry": {"coordinates": [-117.960441, 34.089342], "type": "Point"}, "id": "YpwMEbCo5oTgyn5s-Ml9M1ZyHhs=", "properties": {"@spider": "usps_collection_boxes", "addr:city": "BALDWIN PARK", "addr:country": "US", "addr:full": "4230 MAINE AVE", "addr:postcode": "91706", "addr:state": "CA", "brand": "USPS", "collection_times": "Mo-Sa 17:00", "name": "USPS COLLECTION BOX - EXPRESS", "note": "ON 12/24 AND 12/31, THIS BOX MAY BE COLLECTED AS EARLY AS 12 NOON.", "ref": "9170600057"}, "type": "Feature"}
{"geometry": {"coordinates": [-117.960334, 34.089566], "type": "Point"}, "id": "cBvpWTBNEt5EndP2bEJsN8vQrAA=", "properties": {"@spider": "usps_collection_boxes", "addr:city": "BALDWIN PARK", "addr:country": "US", "addr:full": "4230 MAINE AVE", "addr:postcode": "91706", "addr:state": "CA", "brand": "USPS", "collection_times": "Mo-Sa 17:00", "name": "USPS COLLECTION BOX - BLUE BOX", "note": "ON 12/24 AND 12/31, THIS BOX MAY BE COLLECTED AS EARLY AS 12 NOON.", "ref": "9170600059"}, "type": "Feature"}
{"geometry": {"coordinates": [-117.933518, 34.105457], "type": "Point"}, "id": "mghwCN587eHFMUIZQuphCqkOzmo=", "properties": {"@spider": "usps_collection_boxes", "addr:city": "BALDWIN PARK", "addr:country": "US", "addr:full": "16025 CALLE DEL NORTE", "addr:postcode": "91706", "addr:state": "CA", "brand": "USPS", "collection_times": "Mo-Fr 17:00; Sa 15:00", "name": "USPS COLLECTION BOX - BLUE BOX", "note": "ON 12/24 AND 12/31, THIS BOX MAY BE COLLECTED AS EARLY AS 12 NOON.", "ref": "9170600061"}, "type": "Feature"}
{"geometry": {"coordinates": [-117.933513, 34.105457], "type": "Point"}, "id": "0530dWFeXiowiaL1oJ3zk56qfhk=", "properties": {"@spider": "usps_collection_boxes", "addr:city": "BALDWIN PARK", "addr:country": "US", "addr:full": "16025 CALLE DEL NORTE", "addr:postcode": "91706", "addr:state": "CA", "brand": "USPS", "collection_times": "Mo-Fr 17:00; Sa 15:00", "name": "USPS COLLECTION BOX - BLUE BOX", "note": "ON 12/24 AND 12/31, THIS BOX MAY BE COLLECTED AS EARLY AS 12 NOON.", "ref": "9170600062"}, "type": "Feature"}
{"geometry": {"coordinates": [-117.9852240177, 34.0640599144], "type": "Point"}, "id": "aqmXpyUDqkugOWn3sZzBXbK_9y4=", "properties": {"@spider": "usps_collection_boxes", "addr:city": "BALDWIN PARK", "addr:country": "US", "addr:full": "1011 BALDWIN PARK BLVD", "addr:postcode": "91706", "addr:state": "CA", "brand": "USPS", "collection_times": "Mo-Fr 10:00", "name": "USPS COLLECTION BOX - BLUE BOX", "ref": "9170600067"}, "type": "Feature"}
{"geometry": {"coordinates": [-117.962541, 34.085884], "type": "Point"}, "id": "vGxgrdn5MfxORiwfFbVQ3Tg363Y=", "properties": {"@spider": "usps_collection_boxes", "addr:city": "BALDWIN PARK", "addr:country": "US", "addr:full": "14330 RAMONA BLVD", "addr:postcode": "91706", "addr:state": "CA", "brand": "USPS", "collection_times": "Mo-Fr 10:00", "name": "USPS COLLECTION BOX - BLUE BOX", "ref": "9170600068"}, "type": "Feature"}
{"geometry": {"coordinates": [-117.9334414489, 34.1053824749], "type": "Point"}, "id": "aCqn0lEgOFtwk2Sp59_ULuWyBYU=", "properties": {"@spider": "usps_collection_boxes", "addr:city": "BALDWIN PARK", "addr:country": "US", "addr:full": "16025 CALLE DEL NORTE", "addr:postcode": "91706", "addr:state": "CA", "brand": "USPS", "collection_times": "Mo-Fr 16:00", "name": "USPS COLLECTION BOX - PO LOBBY", "note": "ON 12/24 AND 12/31, THIS BOX MAY BE COLLECTED AS EARLY AS 12 NOON.", "ref": "9170600079"}, "type": "Feature"}
{"geometry": {"coordinates": [-117.960410357, 34.089507], "type": "Point"}, "id": "aC8SrfHHVKI5gNFb4q7HMcE3_ws=", "properties": {"@spider": "usps_collection_boxes", "addr:city": "BALDWIN PARK", "addr:country": "US", "addr:full": "4230 MAINE AVE", "addr:postcode": "91706", "addr:state": "CA", "brand": "USPS", "collection_times": "Mo-Fr 17:00; Sa 13:00", "name": "USPS COLLECTION BOX - PO LOBBY", "note": "ON 12/24 AND 12/31, THIS BOX MAY BE COLLECTED AS EARLY AS 12 NOON.", "ref": "9170600080"}, "type": "Feature"}
{"geometry": {"coordinates": [-117.687762555, 34.026272534], "type": "Point"}, "id": "ussKWoNuF6Fd2_c0znjP6n7iyus=", "properties": {"@spider": "usps_collection_boxes", "addr:city": "CHINO", "addr:country": "US", "addr:full": "5375 WALNUT AVE", "addr:postcode": "91708", "addr:state": "CA", "brand": "USPS", "collection_times": "Mo-Fr 17:00; Sa 14:00", "name": "USPS COLLECTION BOX - PO LOBBY", "note": "ON 12/24 AND 12/31, THIS BOX MAY BE COLLECTED AS EARLY AS 12 NOON.", "ref": "9170800001"}, "type": "Feature"}
{"geometry": {"coordinates": [-117.71314904, 33.981943998], "type": "Point"}, "id": "f4EQFUpPBaHmhk_p4YP6diyvwWE=", "properties": {"@spider": "usps_collection_boxes", "addr:city": "CHINO HILLS", "addr:country": "US", "addr:full": "4195 CHINO HILLS PKWY", "addr:postcode": "91709", "addr:state": "CA", "brand": "USPS", "collection_times": "Mo-Sa 10:00", "name": "USPS COLLECTION BOX - BLUE BOX", "ref": "9170900001"}, "type": "Feature"}
{"geometry": {"coordinates": [-117.694654, 33.961717], "type": "Point"}, "id": "nNAFv9Fj-Q8k8IpnWIUVQYtzUg4=", "properties": {"@spider": "usps_collection_boxes", "addr:city": "CHINO HILLS", "addr:country": "US", "addr:full": "15960 LOS SERRANOS COUNTRY CLUB DR", "addr:postcode": "91709", "addr:state": "CA", "brand": "USPS", "collection_times": "Mo-Sa 10:00", "name": "USPS COLLECTION BOX - BLUE BOX", "ref": "9170900003"}, "type": "Feature"}
{"geometry": {"coordinates": [-117.747983, 33.983614], "type": "Point"}, "id": "hvP1duZ97XshT6TJ5iGr3ncFDLI=", "properties": {"@spider": "usps_collection_boxes", "addr:city": "CHINO HILLS", "addr:country": "US", "addr:full": "2575 CHINO HILLS PKWY", "addr:postcode": "91709", "addr:state": "CA", "brand": "USPS", "collection_times": "Mo-Sa 10:00", "name": "USPS COLLECTION BOX - BLUE BOX", "ref": "9170900005"}, "type": "Feature"}
{"geometry": {"coordinates": [-117.7325683492, 33.9974426968], "type": "Point"}, "id": "vFSzc5OeYRkBBtlGRqGmnpBtlvk=", "properties": {"@spider": "usps_collection_boxes", "addr:city": "CHINO HILLS", "addr:country": "US", "addr:full": "14071 PEYTON DR", "addr:postcode": "91709", "addr:state": "CA", "brand": "USPS", "collection_times": "Mo-Fr 17:00; Sa 16:00", "name": "USPS COLLECTION BOX - BLUE BOX", "note": "ON 12/24 AND 12/31, THIS BOX MAY BE COLLECTED AS EARLY AS 12 NOON.", "ref": "9170900009"}, "type": "Feature"}
{"geometry": {"coordinates": [-117.7325683492, 33.9974426968], "type": "Point"}, "id": "EUinKDYMvta9cbRLS_7QWVgSSh8=", "properties": {"@spider": "usps_collection_boxes", "addr:city": "CHINO HILLS", "addr:country": "US", "addr:full": "14071 PEYTON DR", "addr:postcode": "91709", "addr:state": "CA", "brand": "USPS", "collection_times": "Mo-Fr 17:00; Sa 16:00", "name": "USPS COLLECTION BOX - PO LOBBY", "note": "ON 12/24 AND 12/31, THIS BOX MAY BE COLLECTED AS EARLY AS 12 NOON.", "ref": "9170900010"}, "type": "Feature"}
{"geometry": {"coordinates": [-117.7325683492, 33.9974426968], "type": "Point"}, "id": "2shXCB49ECwgKRO-naMzN5sCbRI=", "properties": {"@spider": "usps_collection_boxes", "addr:city": "CHINO HILLS", "addr:country": "US", "addr:full": "14071 PEYTON DR", "addr:postcode": "91709", "addr:state": "CA", "brand": "USPS", "collection_times": "Mo-Fr 17:00; Sa 16:00", "name": "USPS COLLECTION BOX - PO LOBBY", "note": "ON 12/24 AND 12/31, THIS BOX MAY BE COLLECTED AS EARLY AS 12 NOON.", "ref": "9170900011"}, "type": "Feature"}
{"geometry": {"coordinates": [-117.7325683492, 33.9974426968], "type": "Point"}, "id": "vP7tj4KQI7w4EvR-GWno8iJ0-RY=", "properties": {"@spider": "usps_collection_boxes", "addr:city": "CHINO HILLS", "addr:country": "US", "addr:full": "14071 PEYTON DR", "addr:postcode": "91709", "addr:state": "CA", "brand": "USPS", "collection_times": "Mo-Fr 17:00; Sa 16:00", "name": "USPS COLLECTION BOX - APC", "note": "ON 12/24 AND 12/31, THIS BOX MAY BE COLLECTED AS EARLY AS 12 NOON.", "ref": "9170900012"}, "type": "Feature"}
{"geometry": {"coordinates": [-117.7325683492, 33.9974426968], "type": "Point"}, "id": "z3QWJZEMwHzsX_ayEevVbYV-coc=", "properties": {"@spider": "usps_collection_boxes", "addr:city": "CHINO HILLS", "addr:country": "US", "addr:full": "14071 PEYTON DR", "addr:postcode": "91709", "addr:state": "CA", "brand": "USPS", "collection_times": "Mo-Fr 17:00; Sa 15:00", "name": "USPS COLLECTION BOX - PO LOBBY", "note": "ON 12/24 AND 12/31, THIS BOX MAY BE COLLECTED AS EARLY AS 12 NOON.", "ref": "9170900022"}, "type": "Feature"}
{"geometry": {"coordinates": [-117.715855, 33.988776], "type": "Point"}, "id": "SM_LGRdklL46Wqu-umLb1_SiVrw=", "properties": {"@spider": "usps_collection_boxes", "addr:city": "CHINO", "addr:country": "US", "addr:full": "14516 PIPELINE AVE # D-2", "addr:postcode": "91710", "addr:state": "CA", "brand": "USPS", "collection_times": "Mo-Sa 10:00", "name": "USPS COLLECTION BOX - BLUE BOX", "ref": "9171000006"}, "type": "Feature"}
{"geometry": {"coordinates": [-117.689458, 34.014416], "type": "Point"}, "id": "_XWzb0nKKWxX3U0kUYRRW69gF1c=", "properties": {"@spider": "usps_collection_boxes", "addr:city": "CHINO", "addr:country": "US", "addr:full": "13170 CENTRAL AVE", "addr:postcode": "91710", "addr:state": "CA", "brand": "USPS", "collection_times": "Mo-Sa 10:00", "name": "USPS COLLECTION BOX - BLUE BOX", "ref": "9171000011"}, "type": "Feature"}
{"geometry": {"coordinates": [-117.69008, 34.038727], "type": "Point"}, "id": "aYIgd59vAIK4ASCS1w23fT7yI6I=", "properties": {"@spider": "usps_collection_boxes", "addr:city": "CHINO", "addr:country": "US", "addr:full": "11838 CENTRAL AVE", "addr:postcode": "91710", "addr:state": "CA", "brand": "USPS", "collection_times": "Mo-Sa 10:00", "name": "USPS COLLECTION BOX - BLUE BOX", "ref": "9171000019"}, "type": "Feature"}
{"geometry": {"coordinates": [-117.720155, 34.004227], "type": "Point"}, "id": "cJNVCYHGoeHT6RxBRdJ0w-g31nE=", "properties": {"@spider": "usps_collection_boxes", "addr:city": "CHINO", "addr:country": "US", "addr:full": "3873 SCHAEFER AVE", "addr:postcode": "91710", "addr:state": "CA", "brand": "USPS", "collection_times": "Mo-Sa 10:00", "name": "USPS COLLECTION BOX - BLUE BOX", "ref": "9171000020"}, "type": "Feature"}
{"geometry": {"coordinates": [-117.681604, 34.004707], "type": "Point"}, "id": "x6QvvoKPZjW2gtBBtL8g-bcuGLE=", "properties": {"@spider": "usps_collection_boxes", "addr:city": "CHINO", "addr:country": "US", "addr:full": "5670 SCHAEFER AVE", "addr:postcode": "91710", "addr:state": "CA", "brand": "USPS", "collection_times": "Mo-Sa 10:00", "name": "USPS COLLECTION BOX - BLUE BOX", "ref": "9171000021"}, "type": "Feature"}
{"geometry": {"coordinates": [-117.689179, 34.024687], "type": "Point"}, "id": "aVW1zShdLeM0sKtW7CvHtZmDqbk=", "properties": {"@spider": "usps_collection_boxes", "addr:city": "CHINO", "addr:country": "US", "addr:full": "5300 JEFFERSON AVE", "addr:postcode": "91710", "addr:state": "CA", "brand": "USPS", "collection_times": "Mo-Sa 17:00", "name": "USPS COLLECTION BOX - BLUE BOX", "note": "ON 12/24 AND 12/31, THIS BOX MAY BE COLLECTED AS EARLY AS 12 NOON.", "ref": "9171000026"}, "type": "Feature"}
{"geometry": {"coordinates": [-117.686203, 34.026022], "type": "Point"}, "id": "_l0quo_XuJo-nBC5fQXTKS77h_Q=", "properties": {"@spider": "usps_collection_boxes", "addr:city": "CHINO", "addr:country": "US", "addr:full": "5451 WALNUT AVE", "addr:postcode": "91710", "addr:state": "CA", "brand": "USPS", "collection_times": "Mo-Sa 10:00", "name": "USPS COLLECTION BOX - BLUE BOX", "ref": "9171000035"}, "type": "Feature"}
{"geometry": {"coordinates": [-117.687438, 34.0263], "type": "Point"}, "id": "-4PcfC0efhZikWX32p7VDZH7ymk=", "properties": {"@spider": "usps_collection_boxes", "addr:city": "CHINO", "addr:country": "US", "addr:full": "5375 WALNUT AVE", "addr:postcode": "91710", "addr:state": "CA", "brand": "USPS", "collection_times": "Mo-Sa 17:00", "name": "USPS COLLECTION BOX - APC", "note": "ON 12/24 AND 12/31, THIS BOX MAY BE COLLECTED AS EARLY AS 12 NOON.", "ref": "9171000039"}, "type": "Feature"}
{"geometry": {"coordinates": [-117.732531, 34.106461], "type": "Point"}, "id": "8V622VBcT3JSJtJYlo6IkH_RDiw=", "properties": {"@spider": "usps_collection_boxes", "addr:city": "CLAREMONT", "addr:country": "US", "addr:full": "938 W FOOTHILL BLVD", "addr:postcode": "91711", "addr:state": "CA", "brand": "USPS", "collection_times": "Mo-Sa 10:00", "name": "USPS COLLECTION BOX - BLUE BOX", "ref": "9171100010"}, "type": "Feature"}
{"geometry": {"coordinates": [-117.7021, 34.108381], "type": "Point"}, "id": "w88ZU0uXpoSL1eFoEtD9blqIkak=", "properties": {"@spider": "usps_collection_boxes", "addr:city": "CLAREMONT", "addr:country": "US", "addr:full": "1420 CLAREMONT BLVD", "addr:postcode": "91711", "addr:state": "CA", "brand": "USPS", "collection_times": "Mo-Sa 10:00", "name": "USPS COLLECTION BOX - BLUE BOX", "ref": "9171100015"}, "type": "Feature"}
{"geometry": {"coordinates": [-117.705675, 34.120851], "type": "Point"}, "id": "r2ZFn32pPn-pNMwxWBuAbn9-6qA=", "properties": {"@spider": "usps_collection_boxes", "addr:city": "CLAREMONT", "addr:country": "US", "addr:full": "554 E BASELINE RD", "addr:postcode": "91711", "addr:state": "CA", "brand": "USPS", "collection_times": "Mo-Sa 10:00", "name": "USPS COLLECTION BOX - BLUE BOX", "ref": "9171100016"}, "type": "Feature"}
{"geometry": {"coordinates": [-117.71803, 34.095708], "type": "Point"}, "id": "Xcg8lk1FKnK9J0u3CbU8VpTsGY0=", "properties": {"@spider": "usps_collection_boxes", "addr:city": "CLAREMONT", "addr:country": "US", "addr:full": "201 YALE", "addr:postcode": "91711", "addr:state": "CA", "brand": "USPS", "collection_times": "Mo-Sa 10:00", "name": "USPS COLLECTION BOX - BLUE BOX", "ref": "9171100017"}, "type": "Feature"}
{"geometry": {"coordinates": [-117.718023, 34.097557], "type": "Point"}, "id": "AzkuddrfOG45d57q1lJkp6dFoNs=", "properties": {"@spider": "usps_collection_boxes", "addr:city": "CLAREMONT", "addr:country": "US", "addr:full": "339 YALE", "addr:postcode": "91711", "addr:state": "CA", "brand": "USPS", "collection_times": "Mo-Sa 10:00", "name": "USPS COLLECTION BOX - BLUE BOX", "ref": "9171100021"}, "type": "Feature"}
{"geometry": {"coordinates": [-117.7200644566, 34.1069270698], "type": "Point"}, "id": "gHGRM4ytSUYKY9HxCz9p_yAEhQc=", "properties": {"@spider": "usps_collection_boxes", "addr:city": "CLAREMONT", "addr:country": "US", "addr:full": "390 W FOOTHILL BLVD", "addr:postcode": "91711", "addr:state": "CA", "brand": "USPS", "collection_times": "Mo-Sa 10:00", "name": "USPS COLLECTION BOX - BLUE BOX", "ref": "9171100022"}, "type": "Feature"}
{"geometry": {"coordinates": [-117.724116, 34.099678], "type": "Point"}, "id": "SKaypvwwE56Ud1HdeGorB0elMSE=", "properties": {"@spider": "usps_collection_boxes", "addr:city": "CLAREMONT", "addr:country": "US", "addr:full": "630 ALDEN RD", "addr:postcode": "91711", "addr:state": "CA", "brand": "USPS", "collection_times": "Mo-Sa 10:00", "name": "USPS COLLECTION BOX - BLUE BOX", "ref": "9171100023"}, "type": "Feature"}
{"geometry": {"coordinates": [-117.725035, 34.10789], "type": "Point"}, "id": "T65eZ8k_GtcJwy6ycXp5EmgWdLU=", "properties": {"@spider": "usps_collection_boxes", "addr:city": "CLAREMONT", "addr:country": "US", "addr:full": "675 W FOOTHILL BLVD", "addr:postcode": "91711", "addr:state": "CA", "brand": "USPS", "collection_times": "Mo-Sa 10:00", "name": "USPS COLLECTION BOX - BLUE BOX", "ref": "9171100025"}, "type": "Feature"}
{"geometry": {"coordinates": [-117.7163373442, 34.0950461381], "type": "Point"}, "id": "n_FIU8faZX85sCTaIrQ7FmbC7Wc=", "properties": {"@spider": "usps_collection_boxes", "addr:city": "CLAREMONT", "addr:country": "US", "addr:full": "140 HARVARD AVE", "addr:postcode": "91711", "addr:state": "CA", "brand": "USPS", "collection_times": "Mo-Fr 17:00; Sa 15:30", "name": "USPS COLLECTION BOX - BLUE BOX", "note": "ON 12/24 AND 12/31, THIS BOX MAY BE COLLECTED AS EARLY AS 12 NOON.", "ref": "9171100026"}, "type": "Feature"}
{"geometry": {"coordinates": [-117.7163373442, 34.0950461381], "type": "Point"}, "id": "dZjyLmCeSER_TOSTKmlT8goBIwM=", "properties": {"@spider": "usps_collection_boxes", "addr:city": "CLAREMONT", "addr:country": "US", "addr:full": "140 HARVARD AVE", "addr:postcode": "91711", "addr:state": "CA", "brand": "USPS", "collection_times": "Mo-Fr 17:00; Sa 15:30", "name": "USPS COLLECTION BOX - BLUE BOX", "note": "ON 12/24 AND 12/31, THIS BOX MAY BE COLLECTED AS EARLY AS 12 NOON.", "ref": "9171100027"}, "type": "Feature"}
{"geometry": {"coordinates": [-117.7163373442, 34.0950461381], "type": "Point"}, "id": "Hpw63hgxV7jGwFP5p6kAckYZbz0=", "properties": {"@spider": "usps_collection_boxes", "addr:city": "CLAREMONT", "addr:country": "US", "addr:full": "140 HARVARD AVE", "addr:postcode": "91711", "addr:state": "CA", "brand": "USPS", "collection_times": "Mo-Fr 17:00; Sa 15:30", "name": "USPS COLLECTION BOX - BLUE BOX", "note": "ON 12/24 AND 12/31, THIS BOX MAY BE COLLECTED AS EARLY AS 12 NOON.", "ref": "9171100028"}, "type": "Feature"}
{"geometry": {"coordinates": [-117.7163373442, 34.0950461381], "type": "Point"}, "id": "mnPZqNpU-UxGOTopzDOnS0ZZt7w=", "properties": {"@spider": "usps_collection_boxes", "addr:city": "CLAREMONT", "addr:country": "US", "addr:full": "140 HARVARD AVE", "addr:postcode": "91711", "addr:state": "CA", "brand": "USPS", "collection_times": "Mo-Fr 17:00; Sa 15:30", "name": "USPS COLLECTION BOX - BLUE BOX", "note": "ON 12/24 AND 12/31, THIS BOX MAY BE COLLECTED AS EARLY AS 12 NOON.", "ref": "9171100029"}, "type": "Feature"}
{"geometry": {"coordinates": [-117.716158, 34.095607], "type": "Point"}, "id": "c8IeoYNmz-YydEm3LFS9o91gv-s=", "properties": {"@spider": "usps_collection_boxes", "addr:city": "CLAREMONT", "addr:country": "US", "addr:full": "140 N HARVARD", "addr:postcode": "91711", "addr:state": "CA", "brand": "USPS", "collection_times": "Mo-Fr 17:00; Sa 15:30", "name": "USPS COLLECTION BOX - BLUE BOX", "note": "ON 12/24 AND 12/31, THIS BOX MAY BE COLLECTED AS EARLY AS 12 NOON.", "ref": "9171100031"}, "type": "Feature"}
{"geometry": {"coordinates": [-117.716168, 34.095595], "type": "Point"}, "id": "_NjVaf9ZcmUFzXa6ZdpWZtUvUnc=", "properties": {"@spider": "usps_collection_boxes", "addr:city": "CLAREMONT", "addr:country": "US", "addr:full": "140 N HARVARD", "addr:postcode": "91711", "addr:state": "CA", "brand": "USPS", "collection_times": "Mo-Fr 17:00; Sa 15:30", "name": "USPS COLLECTION BOX - BLUE BOX", "note": "ON 12/24 AND 12/31, THIS BOX MAY BE COLLECTED AS EARLY AS 12 NOON.", "ref": "9171100032"}, "type": "Feature"}
{"geometry": {"coordinates": [-117.72084, 34.10743], "type": "Point"}, "id": "TPfzneNhfH4Rk_1GENx57sXB2VY=", "properties": {"@spider": "usps_collection_boxes", "addr:city": "CLAREMONT", "addr:country": "US", "addr:full": "415 W FOOTHILL BLVD", "addr:postcode": "91711", "addr:state": "CA", "brand": "USPS", "collection_times": "Mo-Sa 10:00", "name": "USPS COLLECTION BOX - BLUE BOX", "ref": "9171100034"}, "type": "Feature"}
{"geometry": {"coordinates": [-117.716361, 34.095058], "type": "Point"}, "id": "f63F3MwF88cINjwfFaFbjXPgmqc=", "properties": {"@spider": "usps_collection_boxes", "addr:city": "CLAREMONT", "addr:country": "US", "addr:full": "140 N HARVARD", "addr:postcode": "91711", "addr:state": "CA", "brand": "USPS", "collection_times": "Mo-Fr 17:00; Sa 13:00", "name": "USPS COLLECTION BOX - PO LOBBY", "note": "ON 12/24 AND 12/31, THIS BOX MAY BE COLLECTED AS EARLY AS 12 NOON.", "ref": "9171100048"}, "type": "Feature"}
{"geometry": {"coordinates": [-117.716361, 34.095058], "type": "Point"}, "id": "VrtChtNMq5yK_UekOE9H_725UNA=", "properties": {"@spider": "usps_collection_boxes", "addr:city": "CLAREMONT", "addr:country": "US", "addr:full": "140 HARVARD", "addr:postcode": "91711", "addr:state": "CA", "brand": "USPS", "collection_times": "Mo-Fr 17:00; Sa 13:00", "name": "USPS COLLECTION BOX - APC", "note": "ON 12/24 AND 12/31, THIS BOX MAY BE COLLECTED AS EARLY AS 12 NOON.", "ref": "9171100049"}, "type": "Feature"}
{"geometry": {"coordinates": [-117.7163373442, 34.0950461381], "type": "Point"}, "id": "gZQR6H58Z9WZRBFDDM1UXshsmo0=", "properties": {"@spider": "usps_collection_boxes", "addr:city": "CLAREMONT", "addr:country": "US", "addr:full": "140 HARVARD AVE", "addr:postcode": "91711", "addr:state": "CA", "brand": "USPS", "collection_times": "Mo-Fr 17:00; Sa 13:00", "name": "USPS COLLECTION BOX - PO LOBBY", "note": "ON 12/24 AND 12/31, THIS BOX MAY BE COLLECTED AS EARLY AS 12 NOON.", "ref": "9171100052"}, "type": "Feature"}
{"geometry": {"coordinates": [-117.9712921187, 34.0134007513], "type": "Point"}, "id": "7SyLAszWatCnjsaoT27Hf9T-smM=", "properties": {"@spider": "usps_collection_boxes", "addr:city": "CITY INDUSTRY", "addr:country": "US", "addr:full": "15421 E GALE AVE", "addr:postcode": "91715", "addr:state": "CA", "brand": "USPS", "collection_times": "Mo-Fr 19:00; Sa 18:30", "name": "USPS COLLECTION BOX - BLUE BOX", "note": "ON 12/24 AND 12/31, THIS BOX MAY BE COLLECTED AS EARLY AS 12 NOON.", "ref": "9171500001"}, "type": "Feature"}
{"geometry": {"coordinates": [-117.9712921187, 34.0134007513], "type": "Point"}, "id": "ku5YGlX8QHDez1kCLnzrktQRr-M=", "properties": {"@spider": "usps_collection_boxes", "addr:city": "CITY INDUSTRY", "addr:country": "US", "addr:full": "15421 E GALE AVE", "addr:postcode": "91715", "addr:state": "CA", "brand": "USPS", "collection_times": "Mo-Fr 19:00; Sa 18:30", "name": "USPS COLLECTION BOX - BLUE BOX", "note": "ON 12/24 AND 12/31, THIS BOX MAY BE COLLECTED AS EARLY AS 12 NOON.", "ref": "9171500003"}, "type": "Feature"}
{"geometry": {"coordinates": [-117.9712921187, 34.0134007513], "type": "Point"}, "id": "jBlQseYQqHriAPn5IsnEa_5otEQ=", "properties": {"@spider": "usps_collection_boxes", "addr:city": "CITY INDUSTRY", "addr:country": "US", "addr:full": "15421 E GALE AVE", "addr:postcode": "91715", "addr:state": "CA", "brand": "USPS", "collection_times": "Mo-Sa 16:00", "name": "USPS COLLECTION BOX - EXPRESS", "note": "ON 12/24 AND 12/31, THIS BOX MAY BE COLLECTED AS EARLY AS 12 NOON.", "ref": "9171500006"}, "type": "Feature"}
{"geometry": {"coordinates": [-117.9712921187, 34.0134007513], "type": "Point"}, "id": "zDhMfzz7qt7-OWVZl1lYSDNoo9g=", "properties": {"@spider": "usps_collection_boxes", "addr:city": "CITY INDUSTRY", "addr:country": "US", "addr:full": "15421 E GALE AVE", "addr:postcode": "91715", "addr:state": "CA", "brand": "USPS", "collection_times": "Mo-Fr 19:00; Sa 17:00", "name": "USPS COLLECTION BOX - BLUE BOX", "note": "ON 12/24 AND 12/31, THIS BOX MAY BE COLLECTED AS EARLY AS 12 NOON.", "ref": "9171500008"}, "type": "Feature"}
{"geometry": {"coordinates": [-117.97038, 34.015806], "type": "Point"}, "id": "QWgGK6SBk3va8MusyY4gMM6xHQY=", "properties": {"@spider": "usps_collection_boxes", "addr:city": "CITY INDUSTRY", "addr:country": "US", "addr:full": "15421 E GALE AVE", "addr:postcode": "91715", "addr:state": "CA", "brand": "USPS", "collection_times": "Mo-Fr 19:00; Sa 17:00", "name": "USPS COLLECTION BOX - PO LOBBY", "note": "ON 12/24 AND 12/31, THIS BOX MAY BE COLLECTED AS EARLY AS 12 NOON.", "ref": "9171500009"}, "type": "Feature"}
{"geometry": {"coordinates": [-117.9712921187, 34.0134007513], "type": "Point"}, "id": "yd0hrfvPHEiQsmpvOZwLjgIW-pg=", "properties": {"@spider": "usps_collection_boxes", "addr:city": "CITY INDUSTRY", "addr:country": "US", "addr:full": "15421 E GALE AVE", "addr:postcode": "91715", "addr:state": "CA", "brand": "USPS", "collection_times": "Mo-Fr 18:00; Sa 17:00", "name": "USPS COLLECTION BOX - PO LOBBY", "note": "ON 12/24 AND 12/31, THIS BOX MAY BE COLLECTED AS EARLY AS 12 NOON.", "ref": "9171500017"}, "type": "Feature"}
{"geometry": {"coordinates": [-117.9115979736, 34.0897260113], "type": "Point"}, "id": "owYDa_ETdtNJLSzqCykifrmYZPs=", "properties": {"@spider": "usps_collection_boxes", "addr:city": "COVINA", "addr:country": "US", "addr:full": "545 N RIMSDALE AVE", "addr:postcode": "91722", "addr:state": "CA", "brand": "USPS", "collection_times": "Mo-Sa 17:00", "name": "USPS COLLECTION BOX - BLUE BOX", "note": "ON 12/24 AND 12/31, THIS BOX MAY BE COLLECTED AS EARLY AS 12 NOON.", "ref": "9172200001"}, "type": "Feature"}
{"geometry": {"coordinates": [-117.9115979736, 34.0897260113], "type": "Point"}, "id": "d7TP4wVmYrCssKvyTvREoLfMVBg=", "properties": {"@spider": "usps_collection_boxes", "addr:city": "COVINA", "addr:country": "US", "addr:full": "545 N RIMSDALE AVE", "addr:postcode": "91722", "addr:state": "CA", "brand": "USPS", "collection_times": "Mo-Sa 17:00", "name": "USPS COLLECTION BOX - BLUE BOX", "note": "ON 12/24 AND 12/31, THIS BOX MAY BE COLLECTED AS EARLY AS 12 NOON.", "ref": "9172200057"}, "type": "Feature"}
{"geometry": {"coordinates": [-117.9115979736, 34.0897260113], "type": "Point"}, "id": "CkksnWk5T2YvgkZt1k2w2MicnNQ=", "properties": {"@spider": "usps_collection_boxes", "addr:city": "COVINA", "addr:country": "US", "addr:full": "545 N RIMSDALE AVE", "addr:postcode": "91722", "addr:state": "CA", "brand": "USPS", "collection_times": "Mo-Sa 17:00", "name": "USPS COLLECTION BOX - APC", "note": "ON 12/24 AND 12/31, THIS BOX MAY BE COLLECTED AS EARLY AS 12 NOON.", "ref": "9172200064"}, "type": "Feature"}
{"geometry": {"coordinates": [-117.9115979736, 34.0897260113], "type": "Point"}, "id": "glg7r-MSiFwf9K9H5fiHdFhUE6M=", "properties": {"@spider": "usps_collection_boxes", "addr:city": "COVINA", "addr:country": "US", "addr:full": "545 N RIMSDALE AVE", "addr:postcode": "91722", "addr:state": "CA", "brand": "USPS", "collection_times": "Mo-Fr 17:00; Sa 13:00", "name": "USPS COLLECTION BOX - PO LOBBY", "note": "ON 12/24 AND 12/31, THIS BOX MAY BE COLLECTED AS EARLY AS 12 NOON.", "ref": "9172200071"}, "type": "Feature"}
{"geometry": {"coordinates": [-117.898686, 34.086472], "type": "Point"}, "id": "mB_dWH6xORQnnHVfenBj9jaf5Tw=", "properties": {"@spider": "usps_collection_boxes", "addr:city": "COVINA", "addr:country": "US", "addr:full": "475 W BADILLO ST", "addr:postcode": "91723", "addr:state": "CA", "brand": "USPS", "collection_times": "Mo-Sa 10:00", "name": "USPS COLLECTION BOX - BLUE BOX", "ref": "9172300000"}, "type": "Feature"}
{"geometry": {"coordinates": [-117.891465, 34.087545], "type": "Point"}, "id": "rRwm6Il2JKRlXDsVds2YDoxRSFg=", "properties": {"@spider": "usps_collection_boxes", "addr:city": "COVINA", "addr:country": "US", "addr:full": "147 W COLLEGE ST", "addr:postcode": "91723", "addr:state": "CA", "brand": "USPS", "collection_times": "Mo-Sa 10:00", "name": "USPS COLLECTION BOX - BLUE BOX", "ref": "9172300002"}, "type": "Feature"}
{"geometry": {"coordinates": [-117.886151, 34.075421], "type": "Point"}, "id": "gSi8cvsaznyiPIzU46oIBi7w0Fc=", "properties": {"@spider": "usps_collection_boxes", "addr:city": "COVINA", "addr:country": "US", "addr:full": "271 E WORKMAN ST", "addr:postcode": "91723", "addr:state": "CA", "brand": "USPS", "collection_times": "Mo-Sa 10:00", "name": "USPS COLLECTION BOX - BLUE BOX", "ref": "9172300015"}, "type": "Feature"}
{"geometry": {"coordinates": [-117.874771, 34.07902], "type": "Point"}, "id": "kZMlDIoyD4MUde2LF9AMrTyGVvA=", "properties": {"@spider": "usps_collection_boxes", "addr:city": "COVINA", "addr:country": "US", "addr:full": "785 E ROWLAND ST", "addr:postcode": "91723", "addr:state": "CA", "brand": "USPS", "collection_times": "Mo-Sa 10:00", "name": "USPS COLLECTION BOX - BLUE BOX", "ref": "9172300016"}, "type": "Feature"}
{"geometry": {"coordinates": [-117.88584, 34.078844], "type": "Point"}, "id": "j-5fDKVm0b2Ho_0_1d8KWxpfybk=", "properties": {"@spider": "usps_collection_boxes", "addr:city": "COVINA", "addr:country": "US", "addr:full": "274 E ROWLAND ST", "addr:postcode": "91723", "addr:state": "CA", "brand": "USPS", "collection_times": "Mo-Sa 10:00", "name": "USPS COLLECTION BOX - BLUE BOX", "ref": "9172300018"}, "type": "Feature"}
{"geometry": {"coordinates": [-117.890282, 34.085786], "type": "Point"}, "id": "Z-oxnO2GnmvbvToBSdy6yMCqg-c=", "properties": {"@spider": "usps_collection_boxes", "addr:city": "COVINA", "addr:country": "US", "addr:full": "107 S CITRUS AVE", "addr:postcode": "91723", "addr:state": "CA", "brand": "USPS", "collection_times": "Mo-Sa 10:00", "name": "USPS COLLECTION BOX - BLUE BOX", "ref": "9172300023"}, "type": "Feature"}
{"geometry": {"coordinates": [-117.8882505838, 34.0873864701], "type": "Point"}, "id": "RIUWjXuNC73F7WikWTcIl5SmXGs=", "properties": {"@spider": "usps_collection_boxes", "addr:city": "COVINA", "addr:country": "US", "addr:full": "170 E COLLEGE ST", "addr:postcode": "91723", "addr:state": "CA", "brand": "USPS", "collection_times": "Mo-Sa 17:00", "name": "USPS COLLECTION BOX - BLUE BOX", "note": "ON 12/24 AND 12/31, THIS BOX MAY BE COLLECTED AS EARLY AS 12 NOON.", "ref": "9172300026"}, "type": "Feature"}
{"geometry": {"coordinates": [-117.8882505838, 34.0873864701], "type": "Point"}, "id": "zS_dKWZKUXC1ssktwEIXVQuZvbo=", "properties": {"@spider": "usps_collection_boxes", "addr:city": "COVINA", "addr:country": "US", "addr:full": "170 E COLLEGE ST", "addr:postcode": "91723", "addr:state": "CA", "brand": "USPS", "collection_times": "Mo-Sa 17:00", "name": "USPS COLLECTION BOX - BLUE BOX", "note": "ON 12/24 AND 12/31, THIS BOX MAY BE COLLECTED AS EARLY AS 12 NOON.", "ref": "9172300032"}, "type": "Feature"}
{"geometry": {"coordinates": [-117.881955, 34.07907], "type": "Point"}, "id": "1ucl5mqHoUicuWIS5a5or32LPbM=", "properties": {"@spider": "usps_collection_boxes", "addr:city": "COVINA", "addr:country": "US", "addr:full": "459 E ROWLAND ST", "addr:postcode": "91723", "addr:state": "CA", "brand": "USPS", "collection_times": "Mo-Sa 10:00", "name": "USPS COLLECTION BOX - BLUE BOX", "ref": "9172300033"}, "type": "Feature"}
{"geometry": {"coordinates": [-117.8882505838, 34.0873864701], "type": "Point"}, "id": "AbA3FKLyi5ZUOX69Jkf8Syv8fEY=", "properties": {"@spider": "usps_collection_boxes", "addr:city": "COVINA", "addr:country": "US", "addr:full": "170 E COLLEGE ST", "addr:postcode": "91723", "addr:state": "CA", "brand": "USPS", "collection_times": "Mo-Sa 17:00", "name": "USPS COLLECTION BOX - BLUE BOX", "note": "ON 12/24 AND 12/31, THIS BOX MAY BE COLLECTED AS EARLY AS 12 NOON.", "ref": "9172300034"}, "type": "Feature"}
{"geometry": {"coordinates": [-117.8882505838, 34.0873864701], "type": "Point"}, "id": "z3c1HtDqgPtAErZoHtuGLTq15cE=", "properties": {"@spider": "usps_collection_boxes", "addr:city": "COVINA", "addr:country": "US", "addr:full": "170 E COLLEGE ST", "addr:postcode": "91723", "addr:state": "CA", "brand": "USPS", "collection_times": "Mo-Sa 17:00", "name": "USPS COLLECTION BOX - APC", "note": "ON 12/24 AND 12/31, THIS BOX MAY BE COLLECTED AS EARLY AS 12 NOON.", "ref": "9172300036"}, "type": "Feature"}
{"geometry": {"coordinates": [-117.8882505838, 34.0873864701], "type": "Point"}, "id": "g0EBwO1SB7n0m-NOJ0dAGuny2FE=", "properties": {"@spider": "usps_collection_boxes", "addr:city": "COVINA", "addr:country": "US", "addr:full": "170 E COLLEGE ST", "addr:postcode": "91723", "addr:state": "CA", "brand": "USPS", "collection_times": "Mo-Sa 17:00", "name": "USPS COLLECTION BOX - BLUE BOX", "note": "ON 12/24 AND 12/31, THIS BOX MAY BE COLLECTED AS EARLY AS 12 NOON.", "ref": "9172300037"}, "type": "Feature"}
{"geometry": {"coordinates": [-117.88918, 34.07913], "type": "Point"}, "id": "4LL8mG49OMYPStBjgWQPPxvLEfA=", "properties": {"@spider": "usps_collection_boxes", "addr:city": "COVINA", "addr:country": "US", "addr:full": "143 E ROWLAND ST", "addr:postcode": "91723", "addr:state": "CA", "brand": "USPS", "collection_times": "Mo-Sa 10:00", "name": "USPS COLLECTION BOX - BLUE BOX", "ref": "9172300038"}, "type": "Feature"}
{"geometry": {"coordinates": [-117.8882505838, 34.0873864701], "type": "Point"}, "id": "-JBSkjg3Ize4lgeaVoB23zvFqfQ=", "properties": {"@spider": "usps_collection_boxes", "addr:city": "COVINA", "addr:country": "US", "addr:full": "170 E COLLEGE ST", "addr:postcode": "91723", "addr:state": "CA", "brand": "USPS", "collection_times": "Mo-Fr 17:00", "name": "USPS COLLECTION BOX - PO LOBBY", "note": "ON 12/24 AND 12/31, THIS BOX MAY BE COLLECTED AS EARLY AS 12 NOON.", "ref": "9172300040"}, "type": "Feature"}
{"geometry": {"coordinates": [-117.85855, 34.102954], "type": "Point"}, "id": "Nu9OL4dYTiqIgskqPnH5mk3Pwds=", "properties": {"@spider": "usps_collection_boxes", "addr:city": "COVINA", "addr:country": "US", "addr:full": "20240 E CIENEGA AVE", "addr:postcode": "91724", "addr:state": "CA", "brand": "USPS", "collection_times": "Mo-Sa 10:00", "name": "USPS COLLECTION BOX - BLUE BOX", "ref": "9172400007"}, "type": "Feature"}
{"geometry": {"coordinates": [-117.862979, 34.072522], "type": "Point"}, "id": "fYoEEg4g8pwoxxjF4rYqzv915f4=", "properties": {"@spider": "usps_collection_boxes", "addr:city": "COVINA", "addr:country": "US", "addr:full": "1290 CENTER COURT DR", "addr:postcode": "91724", "addr:state": "CA", "brand": "USPS", "collection_times": "Mo-Sa 10:00", "name": "USPS COLLECTION BOX - BLUE BOX", "ref": "9172400010"}, "type": "Feature"}
{"geometry": {"coordinates": [-117.862972, 34.072532], "type": "Point"}, "id": "jfOo3RjD2HHqyE-qDBkIlrpoHnU=", "properties": {"@spider": "usps_collection_boxes", "addr:city": "COVINA", "addr:country": "US", "addr:full": "1290 CENTER COURT DR", "addr:postcode": "91724", "addr:state": "CA", "brand": "USPS", "collection_times": "Mo-Sa 10:00", "name": "USPS COLLECTION BOX - BLUE BOX", "ref": "9172400011"}, "type": "Feature"}
{"geometry": {"coordinates": [-117.863172, 34.072461], "type": "Point"}, "id": "HWt3NaDtgyu3f_hJAJKrBueYgaw=", "properties": {"@spider": "usps_collection_boxes", "addr:city": "COVINA", "addr:country": "US", "addr:full": "1290 CENTER COURT DR", "addr:postcode": "91724", "addr:state": "CA", "brand": "USPS", "collection_times": "Mo-Sa 10:00", "name": "USPS COLLECTION BOX - BLUE BOX", "ref": "9172400015"}, "type": "Feature"}
{"geometry": {"coordinates": [-117.862977, 34.072502], "type": "Point"}, "id": "_U7tOoyp-5vT-UdSngzbwLmvRV8=", "properties": {"@spider": "usps_collection_boxes", "addr:city": "COVINA", "addr:country": "US", "addr:full": "1290 CENTER COURT DR", "addr:postcode": "91724", "addr:state": "CA", "brand": "USPS", "collection_times": "Mo-Sa 10:00", "name": "USPS COLLECTION BOX - BLUE BOX", "ref": "9172400016"}, "type": "Feature"}
{"geometry": {"coordinates": [-117.565849697, 34.099135495], "type": "Point"}, "id": "PwRhj-gzlJY-g2mPhvUHvoO0Y6Q=", "properties": {"@spider": "usps_collection_boxes", "addr:city": "RANCHO CUCAMONGA", "addr:country": "US", "addr:full": "10950 ARROW RTE", "addr:postcode": "91729", "addr:state": "CA", "brand": "USPS", "collection_times": "Mo-Fr 17:00; Sa 15:00", "name": "USPS COLLECTION BOX - PO LOBBY", "note": "ON 12/24 AND 12/31, THIS BOX MAY BE COLLECTED AS EARLY AS 12 NOON.", "ref": "9172900001"}, "type": "Feature"}
{"geometry": {"coordinates": [-117.559931, 34.123219], "type": "Point"}, "id": "aCL3690OmKX6moT1WxGR6ePp1Kw=", "properties": {"@spider": "usps_collection_boxes", "addr:city": "RCH CUCAMONGA", "addr:country": "US", "addr:full": "11200 BASELINE RD", "addr:postcode": "91730", "addr:state": "CA", "brand": "USPS", "collection_times": "Mo-Sa 10:00", "name": "USPS COLLECTION BOX - BLUE BOX", "ref": "9173000007"}, "type": "Feature"}
{"geometry": {"coordinates": [-117.593364, 34.105839], "type": "Point"}, "id": "H4DhN6u7Ncy6ONXpYIFVN6zISFQ=", "properties": {"@spider": "usps_collection_boxes", "addr:city": "RCH CUCAMONGA", "addr:country": "US", "addr:full": "8111 ARCHIBALD AVE", "addr:postcode": "91730", "addr:state": "CA", "brand": "USPS", "collection_times": "Mo-Sa 10:00", "name": "USPS COLLECTION BOX - BLUE BOX", "ref": "9173000008"}, "type": "Feature"}
{"geometry": {"coordinates": [-117.587864475, 34.101570977], "type": "Point"}, "id": "z5sY4AMZbkJqPfBxpQi645o9iAA=", "properties": {"@spider": "usps_collection_boxes", "addr:city": "RCH CUCAMONGA", "addr:country": "US", "addr:full": "9933 PLACER ST", "addr:postcode": "91730", "addr:state": "CA", "brand": "USPS", "collection_times": "Mo-Sa 10:00", "name": "USPS COLLECTION BOX - BLUE BOX", "ref": "9173000009"}, "type": "Feature"}
{"geometry": {"coordinates": [-117.5954480086, 34.0977889831], "type": "Point"}, "id": "gVgbROYs2Jd4QY2mM-HcUYxvXMM=", "properties": {"@spider": "usps_collection_boxes", "addr:city": "RCH CUCAMONGA", "addr:country": "US", "addr:full": "9607 BUSINESS CENTER DR", "addr:postcode": "91730", "addr:state": "CA", "brand": "USPS", "collection_times": "Mo-Sa 10:00", "name": "USPS COLLECTION BOX - BLUE BOX", "ref": "9173000010"}, "type": "Feature"}
{"geometry": {"coordinates": [-117.565276, 34.100132], "type": "Point"}, "id": "kZt-HHbI72QWlUoxkel0OaYvbT4=", "properties": {"@spider": "usps_collection_boxes", "addr:city": "RCH CUCAMONGA", "addr:country": "US", "addr:full": "10950 ARROW RTE", "addr:postcode": "91730", "addr:state": "CA", "brand": "USPS", "collection_times": "Mo-Fr 17:05; Sa 17:00", "name": "USPS COLLECTION BOX - BLUE BOX", "note": "ON 12/24 AND 12/31, THIS BOX MAY BE COLLECTED AS EARLY AS 12 NOON.", "ref": "9173000018"}, "type": "Feature"}
{"geometry": {"coordinates": [-117.573534, 34.106106], "type": "Point"}, "id": "1nH-dGuda3jhhr0s6cEsAI6LxMY=", "properties": {"@spider": "usps_collection_boxes", "addr:city": "RCH CUCAMONGA", "addr:country": "US", "addr:full": "10535 FOOTHILL BLVD", "addr:postcode": "91730", "addr:state": "CA", "brand": "USPS", "collection_times": "Mo-Sa 10:00", "name": "USPS COLLECTION BOX - BLUE BOX", "ref": "9173000019"}, "type": "Feature"}
{"geometry": {"coordinates": [-117.556214, 34.10858], "type": "Point"}, "id": "puo5npbQT1e_LgxmTvSpNoeDWWc=", "properties": {"@spider": "usps_collection_boxes", "addr:city": "RCH CUCAMONGA", "addr:country": "US", "addr:full": "7777 MILLIKEN AVE", "addr:postcode": "91730", "addr:state": "CA", "brand": "USPS", "collection_times": "Mo-Sa 10:00", "name": "USPS COLLECTION BOX - BLUE BOX", "ref": "9173000021"}, "type": "Feature"}
{"geometry": {"coordinates": [-117.572501, 34.101615], "type": "Point"}, "id": "3hbgyb3v8hnwZHR1qxWMJfI3Leg=", "properties": {"@spider": "usps_collection_boxes", "addr:city": "RCH CUCAMONGA", "addr:country": "US", "addr:full": "8350 UTICA AVE", "addr:postcode": "91730", "addr:state": "CA", "brand": "USPS", "collection_times": "Mo-Sa 10:00", "name": "USPS COLLECTION BOX - BLUE BOX", "ref": "9173000024"}, "type": "Feature"}
{"geometry": {"coordinates": [-117.5730150848, 34.1008306485], "type": "Point"}, "id": "FxHL2u3gYkq7CVcuxophx9Jh2SM=", "properties": {"@spider": "usps_collection_boxes", "addr:city": "RCH CUCAMONGA", "addr:country": "US", "addr:full": "8350 UTICA AVE", "addr:postcode": "91730", "addr:state": "CA", "brand": "USPS", "collection_times": "Mo-Sa 10:00", "name": "USPS COLLECTION BOX - BLUE BOX", "ref": "9173000036"}, "type": "Feature"}
{"geometry": {"coordinates": [-117.5954480086, 34.0977889831], "type": "Point"}, "id": "dFVhw-8XQsuLlQvZ9IDEgf-dGlw=", "properties": {"@spider": "usps_collection_boxes", "addr:city": "RCH CUCAMONGA", "addr:country": "US", "addr:full": "9607 BUSINESS CENTER DR", "addr:postcode": "91730", "addr:state": "CA", "brand": "USPS", "collection_times": "Mo-Sa 10:00", "name": "USPS COLLECTION BOX - BLUE BOX", "ref": "9173000045"}, "type": "Feature"}
{"geometry": {"coordinates": [-117.5793480194, 34.07830639], "type": "Point"}, "id": "JqSSeaSf2nemC9Oa2FPYpKTMV54=", "properties": {"@spider": "usps_collection_boxes", "addr:city": "RCH CUCAMONGA", "addr:country": "US", "addr:full": "9640 CENTER AVE", "addr:postcode": "91730", "addr:state": "CA", "brand": "USPS", "collection_times": "Mo-Sa 10:00", "name": "USPS COLLECTION BOX - BLUE BOX", "ref": "9173000047"}, "type": "Feature"}
{"geometry": {"coordinates": [-117.571313, 34.109467], "type": "Point"}, "id": "8PfMoc62rsaWheFJy-sC-qxT1h4=", "properties": {"@spider": "usps_collection_boxes", "addr:city": "RCH CUCAMONGA", "addr:country": "US", "addr:full": "10701 TOWN CENTER DR", "addr:postcode": "91730", "addr:state": "CA", "brand": "USPS", "collection_times": "Mo-Sa 10:00", "name": "USPS COLLECTION BOX - BLUE BOX", "ref": "9173000055"}, "type": "Feature"}
{"geometry": {"coordinates": [-117.607528, 34.098974], "type": "Point"}, "id": "ZBDKrGDChJZZ-uoDU1TwFXjVI3Q=", "properties": {"@spider": "usps_collection_boxes", "addr:city": "RCH CUCAMONGA", "addr:country": "US", "addr:full": "9007 ARROW", "addr:postcode": "91730", "addr:state": "CA", "brand": "USPS", "collection_times": "Mo-Sa 10:00", "name": "USPS COLLECTION BOX - BLUE BOX", "ref": "9173000059"}, "type": "Feature"}
{"geometry": {"coordinates": [-117.535684, 34.12108], "type": "Point"}, "id": "AvK9nGi9CAJ_CwszLm1MmnDVJoA=", "properties": {"@spider": "usps_collection_boxes", "addr:city": "RCH CUCAMONGA", "addr:country": "US", "addr:full": "12375 BASELINE RD", "addr:postcode": "91730", "addr:state": "CA", "brand": "USPS", "collection_times": "Mo-Sa 10:00", "name": "USPS COLLECTION BOX - BLUE BOX", "ref": "9173000060"}, "type": "Feature"}
{"geometry": {"coordinates": [-117.566963, 34.099582], "type": "Point"}, "id": "t8W8AmjBOwN9MOreAE3fbbRhRhw=", "properties": {"@spider": "usps_collection_boxes", "addr:city": "RCH CUCAMONGA", "addr:country": "US", "addr:full": "10950 ARROW RTE", "addr:postcode": "91730", "addr:state": "CA", "brand": "USPS", "collection_times": "Mo-Fr 17:05; Sa 17:00", "name": "USPS COLLECTION BOX - PO LOBBY", "note": "ON 12/24 AND 12/31, THIS BOX MAY BE COLLECTED AS EARLY AS 12 NOON.", "ref": "9173000062"}, "type": "Feature"}
{"geometry": {"coordinates": [-117.566056, 34.099842], "type": "Point"}, "id": "L5Ff07AHIMGQiX6p4OrtIWz_Rjw=", "properties": {"@spider": "usps_collection_boxes", "addr:city": "RCH CUCAMONGA", "addr:country": "US", "addr:full": "10950 ARROW RTE", "addr:postcode": "91730", "addr:state": "CA", "brand": "USPS", "collection_times": "Mo-Fr 17:05; Sa 17:00", "name": "USPS COLLECTION BOX - APC", "note": "ON 12/24 AND 12/31, THIS BOX MAY BE COLLECTED AS EARLY AS 12 NOON.", "ref": "9173000065"}, "type": "Feature"}
{"geometry": {"coordinates": [-118.052515, 34.078747], "type": "Point"}, "id": "Xc3FrINAhEKvki12Fx_LTAELkLw=", "properties": {"@spider": "usps_collection_boxes", "addr:city": "EL MONTE", "addr:country": "US", "addr:full": "10008 VALLEY / BALDWIN", "addr:postcode": "91731", "addr:state": "CA", "brand": "USPS", "collection_times": "Mo-Sa 10:00", "name": "USPS COLLECTION BOX - BLUE BOX", "ref": "9173100004"}, "type": "Feature"}
{"geometry": {"coordinates": [-118.03331, 34.074807], "type": "Point"}, "id": "HJ2rghvVIZshNwQOBBQqOWn3r4E=", "properties": {"@spider": "usps_collection_boxes", "addr:city": "EL MONTE", "addr:country": "US", "addr:full": "11151 VALLEY VLY", "addr:postcode": "91731", "addr:state": "CA", "brand": "USPS", "collection_times": "Mo-Sa 17:00", "name": "USPS COLLECTION BOX - BLUE BOX", "note": "ON 12/24 AND 12/31, THIS BOX MAY BE COLLECTED AS EARLY AS 12 NOON.", "ref": "9173100017"}, "type": "Feature"}
{"geometry": {"coordinates": [-118.0328972153, 34.0734772551], "type": "Point"}, "id": "nZgomn1gmp4eeB6L6q3yVdasuJE=", "properties": {"@spider": "usps_collection_boxes", "addr:city": "EL MONTE", "addr:country": "US", "addr:full": "11151 VALLEY BLVD", "addr:postcode": "91731", "addr:state": "CA", "brand": "USPS", "collection_times": "Mo-Sa 17:00", "name": "USPS COLLECTION BOX - BLUE BOX", "note": "ON 12/24 AND 12/31, THIS BOX MAY BE COLLECTED AS EARLY AS 12 NOON.", "ref": "9173100018"}, "type": "Feature"}
{"geometry": {"coordinates": [-118.03097, 34.07091], "type": "Point"}, "id": "Zs3iT7IvFs3apLPfJUctjt4uQl4=", "properties": {"@spider": "usps_collection_boxes", "addr:city": "EL MONTE", "addr:country": "US", "addr:full": "11234 VALLEY VLY", "addr:postcode": "91731", "addr:state": "CA", "brand": "USPS", "collection_times": "Mo-Sa 10:00", "name": "USPS COLLECTION BOX - BLUE BOX", "ref": "9173100029"}, "type": "Feature"}
{"geometry": {"coordinates": [-118.064926, 34.071332], "type": "Point"}, "id": "Z9hz8zWfODywxCAs_iBurAqoBbw=", "properties": {"@spider": "usps_collection_boxes", "addr:city": "EL MONTE", "addr:country": "US", "addr:full": "9350 FLAIR DR", "addr:postcode": "91731", "addr:state": "CA", "brand": "USPS", "collection_times": "Mo-Fr 10:00", "name": "USPS COLLECTION BOX - BLUE BOX", "ref": "9173100030"}, "type": "Feature"}
{"geometry": {"coordinates": [-118.066464, 34.071309], "type": "Point"}, "id": "qToQJpFiv1pyHXu7dFOjVTUQyCY=", "properties": {"@spider": "usps_collection_boxes", "addr:city": "EL MONTE", "addr:country": "US", "addr:full": "9300 FLAIR DR", "addr:postcode": "91731", "addr:state": "CA", "brand": "USPS", "collection_times": "Mo-Sa 10:00", "name": "USPS COLLECTION BOX - BLUE BOX", "ref": "9173100032"}, "type": "Feature"}
{"geometry": {"coordinates": [-118.057981, 34.072011], "type": "Point"}, "id": "sG6XZqAd5y-XiLzRk-PHmVr4FjA=", "properties": {"@spider": "usps_collection_boxes", "addr:city": "EL MONTE", "addr:country": "US", "addr:full": "9660 FLAIR DR", "addr:postcode": "91731", "addr:state": "CA", "brand": "USPS", "collection_times": "Mo-Sa 10:00", "name": "USPS COLLECTION BOX - BLUE BOX", "ref": "9173100033"}, "type": "Feature"}
{"geometry": {"coordinates": [-118.033321, 34.074777], "type": "Point"}, "id": "_CxoRvyVKv59vJaPc4h92jb78SM=", "properties": {"@spider": "usps_collection_boxes", "addr:city": "EL MONTE", "addr:country": "US", "addr:full": "11151 VALLEY BLVD", "addr:postcode": "91731", "addr:state": "CA", "brand": "USPS", "collection_times": "Mo-Fr 15:20", "name": "USPS COLLECTION BOX - EXPRESS", "note": "ON 12/24 AND 12/31, THIS BOX MAY BE COLLECTED AS EARLY AS 12 NOON.", "ref": "9173100082"}, "type": "Feature"}
{"geometry": {"coordinates": [-118.033182, 34.074203], "type": "Point"}, "id": "bKdo9ZxQwjCUM1RSjtt6wfrL4p8=", "properties": {"@spider": "usps_collection_boxes", "addr:city": "EL MONTE", "addr:country": "US", "addr:full": "11151 VALLEY BLVD", "addr:postcode": "91731", "addr:state": "CA", "brand": "USPS", "collection_times": "Mo-Sa 17:00", "name": "USPS COLLECTION BOX - BLUE BOX", "note": "ON 12/24 AND 12/31, THIS BOX MAY BE COLLECTED AS EARLY AS 12 NOON.", "ref": "9173100083"}, "type": "Feature"}
{"geometry": {"coordinates": [-118.063408, 34.068208], "type": "Point"}, "id": "owvdFs1Aj5LK3rAu4aHtPpDEvsU=", "properties": {"@spider": "usps_collection_boxes", "addr:city": "EL MONTE", "addr:country": "US", "addr:full": "9480 TELSTAR AVE", "addr:postcode": "91731", "addr:state": "CA", "brand": "USPS", "collection_times": "Mo-Sa 10:00", "name": "USPS COLLECTION BOX - BLUE BOX", "ref": "9173100084"}, "type": "Feature"}
{"geometry": {"coordinates": [-118.068276, 34.068903], "type": "Point"}, "id": "R0-zoKI43JLBgfpc7YnoqN-djjw=", "properties": {"@spider": "usps_collection_boxes", "addr:city": "EL MONTE", "addr:country": "US", "addr:full": "3350 AERO JET AVE", "addr:postcode": "91731", "addr:state": "CA", "brand": "USPS", "collection_times": "Mo-Sa 10:00", "name": "USPS COLLECTION BOX - BLUE BOX", "ref": "9173100086"}, "type": "Feature"}
{"geometry": {"coordinates": [-118.033318, 34.0748], "type": "Point"}, "id": "c4td_1_lgk3Nfw-DCFANGAqW0G8=", "properties": {"@spider": "usps_collection_boxes", "addr:city": "EL MONTE", "addr:country": "US", "addr:full": "11151 VALLEY BLVD", "addr:postcode": "91731", "addr:state": "CA", "brand": "USPS", "collection_times": "Mo-Sa 17:00", "name": "USPS COLLECTION BOX - BLUE BOX", "note": "ON 12/24 AND 12/31, THIS BOX MAY BE COLLECTED AS EARLY AS 12 NOON.", "ref": "9173100095"}, "type": "Feature"}
{"geometry": {"coordinates": [-118.061054, 34.071553], "type": "Point"}, "id": "niMzxMbqCeyjilpUr1F0VSNCc1Y=", "properties": {"@spider": "usps_collection_boxes", "addr:city": "EL MONTE", "addr:country": "US", "addr:full": "9550 FLAIR DR", "addr:postcode": "91731", "addr:state": "CA", "brand": "USPS", "collection_times": "Mo-Sa 10:00", "name": "USPS COLLECTION BOX - BLUE BOX", "ref": "9173100105"}, "type": "Feature"}
{"geometry": {"coordinates": [-118.064942, 34.071332], "type": "Point"}, "id": "xoykVMvIDvIwngER2xUut-yub80=", "properties": {"@spider": "usps_collection_boxes", "addr:city": "EL MONTE", "addr:country": "US", "addr:full": "9350 FLAIR DR", "addr:postcode": "91731", "addr:state": "CA", "brand": "USPS", "collection_times": "Mo-Fr 10:00", "name": "USPS COLLECTION BOX - BLUE BOX", "ref": "9173100109"}, "type": "Feature"}
{"geometry": {"coordinates": [-118.032918525, 34.07351523], "type": "Point"}, "id": "jAQ-KPEdBNblGChbL8xAbytb9u0=", "properties": {"@spider": "usps_collection_boxes", "addr:city": "EL MONTE", "addr:country": "US", "addr:full": "11151 VALLEY BLVD", "addr:postcode": "91731", "addr:state": "CA", "brand": "USPS", "collection_times": "Mo-Sa 17:00", "name": "USPS COLLECTION BOX - APC", "note": "ON 12/24 AND 12/31, THIS BOX MAY BE COLLECTED AS EARLY AS 12 NOON.", "ref": "9173100123"}, "type": "Feature"}
{"geometry": {"coordinates": [-118.017304, 34.085611], "type": "Point"}, "id": "XN9HCxG72Imo0YUiBq1Ftkr1eeQ=", "properties": {"@spider": "usps_collection_boxes", "addr:city": "EL MONTE", "addr:country": "US", "addr:full": "4501 PECK RD", "addr:postcode": "91732", "addr:state": "CA", "brand": "USPS", "collection_times": "Mo-Sa 10:00", "name": "USPS COLLECTION BOX - BLUE BOX", "ref": "9173200002"}, "type": "Feature"}
{"geometry": {"coordinates": [-118.021797, 34.064325], "type": "Point"}, "id": "kxqMHmHIe-sR3U9rezk6lpGodzI=", "properties": {"@spider": "usps_collection_boxes", "addr:city": "EL MONTE", "addr:country": "US", "addr:full": "11840 VALLEY BLVD", "addr:postcode": "91732", "addr:state": "CA", "brand": "USPS", "collection_times": "Mo-Sa 10:00", "name": "USPS COLLECTION BOX - BLUE BOX", "ref": "9173200010"}, "type": "Feature"}
{"geometry": {"coordinates": [-118.013698, 34.075079], "type": "Point"}, "id": "QpJX3MXrxIXUP6l5rk5iKqQ78X8=", "properties": {"@spider": "usps_collection_boxes", "addr:city": "EL MONTE", "addr:country": "US", "addr:full": "11904 RAMONA BLVD", "addr:postcode": "91732", "addr:state": "CA", "brand": "USPS", "collection_times": "Mo-Sa 10:00", "name": "USPS COLLECTION BOX - BLUE BOX", "ref": "9173200012"}, "type": "Feature"}
{"geometry": {"coordinates": [-118.020519, 34.053211], "type": "Point"}, "id": "QITrdMdm0Paiqim-XOo69VOINwY=", "properties": {"@spider": "usps_collection_boxes", "addr:city": "EL MONTE", "addr:country": "US", "addr:full": "2556 DURFEE AVE", "addr:postcode": "91732", "addr:state": "CA", "brand": "USPS", "collection_times": "Mo-Sa 10:00", "name": "USPS COLLECTION BOX - BLUE BOX", "ref": "9173200014"}, "type": "Feature"}
{"geometry": {"coordinates": [-118.008211, 34.07574], "type": "Point"}, "id": "xHNNQZ2ykNtkG7nZRmlQTrsPTxI=", "properties": {"@spider": "usps_collection_boxes", "addr:city": "EL MONTE", "addr:country": "US", "addr:full": "12170 RAMONA BLVD", "addr:postcode": "91732", "addr:state": "CA", "brand": "USPS", "collection_times": "Mo-Sa 10:00", "name": "USPS COLLECTION BOX - BLUE BOX", "ref": "9173200016"}, "type": "Feature"}
{"geometry": {"coordinates": [-118.059219969, 34.062360019], "type": "Point"}, "id": "IEisbmHRbAPVNt1P8ZUDSMCnUv0=", "properties": {"@spider": "usps_collection_boxes", "addr:city": "EL MONTE", "addr:country": "US", "addr:full": "9622 GARVEY AVE", "addr:postcode": "91733", "addr:state": "CA", "brand": "USPS", "collection_times": "Mo-Sa 10:00", "name": "USPS COLLECTION BOX - BLUE BOX", "ref": "9173300000"}, "type": "Feature"}
{"geometry": {"coordinates": [-118.05208, 34.062599], "type": "Point"}, "id": "FOOGmerCpClj2w4--uRMyat5uAg=", "properties": {"@spider": "usps_collection_boxes", "addr:city": "EL MONTE", "addr:country": "US", "addr:full": "9900 GARVEY AVE", "addr:postcode": "91733", "addr:state": "CA", "brand": "USPS", "collection_times": "Mo-Sa 10:00", "name": "USPS COLLECTION BOX - BLUE BOX", "ref": "9173300001"}, "type": "Feature"}
{"geometry": {"coordinates": [-118.045694, 34.044678], "type": "Point"}, "id": "mhhN1I1bd-Kv3MeYQiRp1in8deA=", "properties": {"@spider": "usps_collection_boxes", "addr:city": "EL MONTE", "addr:country": "US", "addr:full": "1415 SANTA ANITA AVE", "addr:postcode": "91733", "addr:state": "CA", "brand": "USPS", "collection_times": "Mo-Sa 10:00", "name": "USPS COLLECTION BOX - BLUE BOX", "ref": "9173300002"}, "type": "Feature"}
{"geometry": {"coordinates": [-118.055581, 34.049466], "type": "Point"}, "id": "9vC79o--_OHd-pWEs0OeCBgY8gI=", "properties": {"@spider": "usps_collection_boxes", "addr:city": "EL MONTE", "addr:country": "US", "addr:full": "1802 POTRERO AVE", "addr:postcode": "91733", "addr:state": "CA", "brand": "USPS", "collection_times": "Mo-Sa 10:00", "name": "USPS COLLECTION BOX - BLUE BOX", "ref": "9173300004"}, "type": "Feature"}
{"geometry": {"coordinates": [-118.029016, 34.046748], "type": "Point"}, "id": "asg5hTU8i5wlffriPfIHD41ByO4=", "properties": {"@spider": "usps_collection_boxes", "addr:city": "EL MONTE", "addr:country": "US", "addr:full": "2041 DURFEE AVE", "addr:postcode": "91733", "addr:state": "CA", "brand": "USPS", "collection_times": "Mo-Sa 10:00", "name": "USPS COLLECTION BOX - BLUE BOX", "ref": "9173300008"}, "type": "Feature"}
{"geometry": {"coordinates": [-118.030724, 34.062539], "type": "Point"}, "id": "4ezSabrou0mq7yD4SRXEWtYP_KU=", "properties": {"@spider": "usps_collection_boxes", "addr:city": "EL MONTE", "addr:country": "US", "addr:full": "11230 GARVEY AVE", "addr:postcode": "91733", "addr:state": "CA", "brand": "USPS", "collection_times": "Mo-Sa 10:00", "name": "USPS COLLECTION BOX - BLUE BOX", "ref": "9173300010"}, "type": "Feature"}
{"geometry": {"coordinates": [-118.04292, 34.0518214774], "type": "Point"}, "id": "Bujbh8Bw-LPUpmATXzUhkWTc9hw=", "properties": {"@spider": "usps_collection_boxes", "addr:city": "EL MONTE", "addr:country": "US", "addr:full": "10452 RUSH ST", "addr:postcode": "91733", "addr:state": "CA", "brand": "USPS", "collection_times": "Mo-Fr 16:30", "name": "USPS COLLECTION BOX - PO LOBBY", "note": "ON 12/24 AND 12/31, THIS BOX MAY BE COLLECTED AS EARLY AS 12 NOON.", "ref": "9173300027"}, "type": "Feature"}
{"geometry": {"coordinates": [-118.0328972153, 34.0734772551], "type": "Point"}, "id": "uXzBR2cetlxom9dyzdP-XkE_wGk=", "properties": {"@spider": "usps_collection_boxes", "addr:city": "EL MONTE", "addr:country": "US", "addr:full": "11151 VALLEY BLVD", "addr:postcode": "91734", "addr:state": "CA", "brand": "USPS", "collection_times": "Mo-Fr 17:00; Sa 14:00", "name": "USPS COLLECTION BOX - PO LOBBY", "note": "ON 12/24 AND 12/31, THIS BOX MAY BE COLLECTED AS EARLY AS 12 NOON.", "ref": "9173400001"}, "type": "Feature"}
{"geometry": {"coordinates": [-117.598136, 34.133402], "type": "Point"}, "id": "Y8vmX1Jfe8GCMg6EGzsyuAAD9sk=", "properties": {"@spider": "usps_collection_boxes", "addr:city": "RCH CUCAMONGA", "addr:country": "US", "addr:full": "6649 AMETHYST AVE", "addr:postcode": "91737", "addr:state": "CA", "brand": "USPS", "collection_times": "Mo-Fr 16:00; Sa 15:00", "name": "USPS COLLECTION BOX - BLUE BOX", "note": "ON 12/24 AND 12/31, THIS BOX MAY BE COLLECTED AS EARLY AS 12 NOON.", "ref": "9173700002"}, "type": "Feature"}
{"geometry": {"coordinates": [-117.597841, 34.1334], "type": "Point"}, "id": "8TdUucSCAvWo-5qAB8mFJAXVSdc=", "properties": {"@spider": "usps_collection_boxes", "addr:city": "RCH CUCAMONGA", "addr:country": "US", "addr:full": "6649 AMETHYST AVE", "addr:postcode": "91737", "addr:state": "CA", "brand": "USPS", "collection_times": "Mo-Fr 16:00", "name": "USPS COLLECTION BOX - PO LOBBY", "note": "ON 12/24 AND 12/31, THIS BOX MAY BE COLLECTED AS EARLY AS 12 NOON.", "ref": "9173700003"}, "type": "Feature"}
{"geometry": {"coordinates": [-117.574323, 34.138088], "type": "Point"}, "id": "sYbwvlY-JZ6DLn_bXZuPO5KHfEU=", "properties": {"@spider": "usps_collection_boxes", "addr:city": "RCH CUCAMONGA", "addr:country": "US", "addr:full": "6401 HAVEN AVE", "addr:postcode": "91737", "addr:state": "CA", "brand": "USPS", "collection_times": "Mo-Sa 10:00", "name": "USPS COLLECTION BOX - BLUE BOX", "ref": "9173700004"}, "type": "Feature"}
{"geometry": {"coordinates": [-117.5235355645, 34.115027994], "type": "Point"}, "id": "4-vipp7qdEQbQE5nuc126mn8c9k=", "properties": {"@spider": "usps_collection_boxes", "addr:city": "RCH CUCAMONGA", "addr:country": "US", "addr:full": "7615 ETIWANDA AVE", "addr:postcode": "91739", "addr:state": "CA", "brand": "USPS", "collection_times": "Mo-Fr 16:00", "name": "USPS COLLECTION BOX - BLUE BOX", "note": "ON 12/24 AND 12/31, THIS BOX MAY BE COLLECTED AS EARLY AS 12 NOON.", "ref": "9173900000"}, "type": "Feature"}
{"geometry": {"coordinates": [-117.5235355645, 34.115027994], "type": "Point"}, "id": "QbLklOT5hONiKOAaUMVizk7-qck=", "properties": {"@spider": "usps_collection_boxes", "addr:city": "RCH CUCAMONGA", "addr:country": "US", "addr:full": "7615 ETIWANDA AVE", "addr:postcode": "91739", "addr:state": "CA", "brand": "USPS", "collection_times": "Mo-Fr 16:00", "name": "USPS COLLECTION BOX - BLUE BOX", "note": "ON 12/24 AND 12/31, THIS BOX MAY BE COLLECTED AS EARLY AS 12 NOON.", "ref": "9173900003"}, "type": "Feature"}
{"geometry": {"coordinates": [-117.5235355645, 34.115027994], "type": "Point"}, "id": "R0OG8qUBnkw_7ZGMlWIzj4rm1gU=", "properties": {"@spider": "usps_collection_boxes", "addr:city": "RCH CUCAMONGA", "addr:country": "US", "addr:full": "7615 ETIWANDA AVE", "addr:postcode": "91739", "addr:state": "CA", "brand": "USPS", "collection_times": "Mo-Fr 16:00", "name": "USPS COLLECTION BOX - PO LOBBY", "note": "ON 12/24 AND 12/31, THIS BOX MAY BE COLLECTED AS EARLY AS 12 NOON.", "ref": "9173900544"}, "type": "Feature"}
{"geometry": {"coordinates": [-117.86626202, 34.132690013], "type": "Point"}, "id": "1k9yeW7gmxl0YfAJ88Ger5AKNF4=", "properties": {"@spider": "usps_collection_boxes", "addr:city": "GLENDORA", "addr:country": "US", "addr:full": "255 S GLENDORA AVE", "addr:postcode": "91740", "addr:state": "CA", "brand": "USPS", "collection_times": "Mo-Sa 17:00", "name": "USPS COLLECTION BOX - BLUE BOX", "note": "ON 12/24 AND 12/31, THIS BOX MAY BE COLLECTED AS EARLY AS 12 NOON.", "ref": "9174000001"}, "type": "Feature"}
{"geometry": {"coordinates": [-117.872459, 34.107462], "type": "Point"}, "id": "pm7PH5OxPnbYwBaAkZoxxDI51tk=", "properties": {"@spider": "usps_collection_boxes", "addr:city": "GLENDORA", "addr:country": "US", "addr:full": "1740 S GRAND AVE", "addr:postcode": "91740", "addr:state": "CA", "brand": "USPS", "collection_times": "Mo-Sa 10:00", "name": "USPS COLLECTION BOX - BLUE BOX", "ref": "9174000022"}, "type": "Feature"}
{"geometry": {"coordinates": [-117.8290241641, 34.127316], "type": "Point"}, "id": "aBXuuueziU2PmPEVQxmFvqLe9N8=", "properties": {"@spider": "usps_collection_boxes", "addr:city": "GLENDORA", "addr:country": "US", "addr:full": "645 S LONE HL", "addr:postcode": "91740", "addr:state": "CA", "brand": "USPS", "collection_times": "Mo-Fr 10:00; Sa 09:45", "name": "USPS COLLECTION BOX - BLUE BOX", "ref": "9174000027"}, "type": "Feature"}
{"geometry": {"coordinates": [-117.842255, 34.128702], "type": "Point"}, "id": "vNhNTNtg7KgcizNTww2urIYlUbw=", "properties": {"@spider": "usps_collection_boxes", "addr:city": "GLENDORA", "addr:country": "US", "addr:full": "1200 E ROUTE 66", "addr:postcode": "91740", "addr:state": "CA", "brand": "USPS", "collection_times": "Mo-Sa 10:00", "name": "USPS COLLECTION BOX - BLUE BOX", "ref": "9174000028"}, "type": "Feature"}
{"geometry": {"coordinates": [-117.830427, 34.127586], "type": "Point"}, "id": "el_fu9quTkIN0yWEqBgzJMvDkww=", "properties": {"@spider": "usps_collection_boxes", "addr:city": "GLENDORA", "addr:country": "US", "addr:full": "1822 E ROUTE 66", "addr:postcode": "91740", "addr:state": "CA", "brand": "USPS", "collection_times": "Mo-Sa 10:00", "name": "USPS COLLECTION BOX - BLUE BOX", "ref": "9174000029"}, "type": "Feature"}
{"geometry": {"coordinates": [-117.8472105, 34.1067674788], "type": "Point"}, "id": "59x1XNqJRLiVUww6TIcYXDVqU0o=", "properties": {"@spider": "usps_collection_boxes", "addr:city": "GLENDORA", "addr:country": "US", "addr:full": "843 E ARROW HWY", "addr:postcode": "91740", "addr:state": "CA", "brand": "USPS", "collection_times": "Mo-Sa 10:00", "name": "USPS COLLECTION BOX - BLUE BOX", "ref": "9174000032"}, "type": "Feature"}
{"geometry": {"coordinates": [-117.86626202, 34.132690013], "type": "Point"}, "id": "tbjYZJtigF3hT0EDnFUzXR723A0=", "properties": {"@spider": "usps_collection_boxes", "addr:city": "GLENDORA", "addr:country": "US", "addr:full": "255 S GLENDORA AVE", "addr:postcode": "91740", "addr:state": "CA", "brand": "USPS", "collection_times": "Mo-Sa 17:00", "name": "USPS COLLECTION BOX - BLUE BOX", "note": "ON 12/24 AND 12/31, THIS BOX MAY BE COLLECTED AS EARLY AS 12 NOON.", "ref": "9174000042"}, "type": "Feature"}
{"geometry": {"coordinates": [-117.8662635, 34.132689], "type": "Point"}, "id": "KMhqUnqUF1jGmgIR3undnwDB5LU=", "properties": {"@spider": "usps_collection_boxes", "addr:city": "GLENDORA", "addr:country": "US", "addr:full": "255 S GLENDORA AVE", "addr:postcode": "91740", "addr:state": "CA", "brand": "USPS", "collection_times": "Mo-Sa 17:00", "name": "USPS COLLECTION BOX - BLUE BOX", "note": "ON 12/24 AND 12/31, THIS BOX MAY BE COLLECTED AS EARLY AS 12 NOON.", "ref": "9174000043"}, "type": "Feature"}
{"geometry": {"coordinates": [-117.8655046869, 34.133013], "type": "Point"}, "id": "uoArH08UfpvDmQkjnUn-TggjFjc=", "properties": {"@spider": "usps_collection_boxes", "addr:city": "GLENDORA", "addr:country": "US", "addr:full": "255 S GLENDORA AVE", "addr:postcode": "91740", "addr:state": "CA", "brand": "USPS", "collection_times": "Mo-Sa 17:00", "name": "USPS COLLECTION BOX - BLUE BOX", "note": "ON 12/24 AND 12/31, THIS BOX MAY BE COLLECTED AS EARLY AS 12 NOON.", "ref": "9174000044"}, "type": "Feature"}
{"geometry": {"coordinates": [-117.822503, 34.11766], "type": "Point"}, "id": "3QiyVf8RSovvyI7hqjjA8LSWWUg=", "properties": {"@spider": "usps_collection_boxes", "addr:city": "GLENDORA", "addr:country": "US", "addr:full": "2121 AUTO CENTRE DR", "addr:postcode": "91740", "addr:state": "CA", "brand": "USPS", "collection_times": "Mo-Sa 10:00", "name": "USPS COLLECTION BOX - BLUE BOX", "ref": "9174000046"}, "type": "Feature"}
{"geometry": {"coordinates": [-117.822506, 34.117673], "type": "Point"}, "id": "nQuOL-ryCSctHbAA8bU-nkIWcP4=", "properties": {"@spider": "usps_collection_boxes", "addr:city": "GLENDORA", "addr:country": "US", "addr:full": "2121 AUTO CENTRE DR", "addr:postcode": "91740", "addr:state": "CA", "brand": "USPS", "collection_times": "Mo-Sa 10:00", "name": "USPS COLLECTION BOX - BLUE BOX", "ref": "9174000047"}, "type": "Feature"}
{"geometry": {"coordinates": [-117.821587, 34.127112], "type": "Point"}, "id": "U7R5sM2DoTefbI6rjMYrTxT7tPw=", "properties": {"@spider": "usps_collection_boxes", "addr:city": "GLENDORA", "addr:country": "US", "addr:full": "2200 E ROUTE 66", "addr:postcode": "91740", "addr:state": "CA", "brand": "USPS", "collection_times": "Mo-Sa 10:00", "name": "USPS COLLECTION BOX - BLUE BOX", "ref": "9174000048"}, "type": "Feature"}
{"geometry": {"coordinates": [-117.822503, 34.117668], "type": "Point"}, "id": "49Dz0L3lzqxvemEbl9tXcSGz2cE=", "properties": {"@spider": "usps_collection_boxes", "addr:city": "GLENDORA", "addr:country": "US", "addr:full": "2121 AUTO CENTRE DR", "addr:postcode": "91740", "addr:state": "CA", "brand": "USPS", "collection_times": "Mo-Sa 10:00", "name": "USPS COLLECTION BOX - BLUE BOX", "ref": "9174000049"}, "type": "Feature"}
{"geometry": {"coordinates": [-117.821607, 34.127121], "type": "Point"}, "id": "r8qQyvstoelvZeotRjY3mefIjwA=", "properties": {"@spider": "usps_collection_boxes", "addr:city": "GLENDORA", "addr:country": "US", "addr:full": "2200 E ROUTE 66", "addr:postcode": "91740", "addr:state": "CA", "brand": "USPS", "collection_times": "Mo-Sa 10:00", "name": "USPS COLLECTION BOX - BLUE BOX", "ref": "9174000050"}, "type": "Feature"}
{"geometry": {"coordinates": [-117.865076986, 34.13263201], "type": "Point"}, "id": "nhAHT2xXAukDP7NklZ38v9IX34Y=", "properties": {"@spider": "usps_collection_boxes", "addr:city": "GLENDORA", "addr:country": "US", "addr:full": "252 S GLENDORA AVE", "addr:postcode": "91740", "addr:state": "CA", "brand": "USPS", "collection_times": "Mo-Sa 10:00", "name": "USPS COLLECTION BOX - BLUE BOX", "ref": "9174000051"}, "type": "Feature"}
{"geometry": {"coordinates": [-117.870063, 34.128914], "type": "Point"}, "id": "Do5jMY-2H7YQ3fi2vkqe1bPyUjg=", "properties": {"@spider": "usps_collection_boxes", "addr:city": "GLENDORA", "addr:country": "US", "addr:full": "415 W ROUTE 66", "addr:postcode": "91740", "addr:state": "CA", "brand": "USPS", "collection_times": "Mo-Sa 10:00", "name": "USPS COLLECTION BOX - BLUE BOX", "ref": "9174000052"}, "type": "Feature"}
{"geometry": {"coordinates": [-117.828625, 34.136], "type": "Point"}, "id": "j_rkVH8FT6Qip1W_peLRvk9bz3Q=", "properties": {"@spider": "usps_collection_boxes", "addr:city": "GLENDORA", "addr:country": "US", "addr:full": "103 S LONE HILL AVE", "addr:postcode": "91740", "addr:state": "CA", "brand": "USPS", "collection_times": "Mo-Sa 10:00", "name": "USPS COLLECTION BOX - BLUE BOX", "ref": "9174000053"}, "type": "Feature"}
{"geometry": {"coordinates": [-117.8655046869, 34.133013], "type": "Point"}, "id": "rhDc0oM9uIdjPRPCz2W7D1R5Dtk=", "properties": {"@spider": "usps_collection_boxes", "addr:city": "GLENDORA", "addr:country": "US", "addr:full": "255 S GLENDORA AVE", "addr:postcode": "91740", "addr:state": "CA", "brand": "USPS", "collection_times": "Mo-Sa 17:00", "name": "USPS COLLECTION BOX - APC", "note": "ON 12/24 AND 12/31, THIS BOX MAY BE COLLECTED AS EARLY AS 12 NOON.", "ref": "9174000054"}, "type": "Feature"}
{"geometry": {"coordinates": [-117.873744, 34.115033], "type": "Point"}, "id": "zB1ImaMk2yDgoWaxnvDWrMHnPdc=", "properties": {"@spider": "usps_collection_boxes", "addr:city": "GLENDORA", "addr:country": "US", "addr:full": "1335 S GRAND AVE", "addr:postcode": "91740", "addr:state": "CA", "brand": "USPS", "collection_times": "Mo-Sa 10:00", "name": "USPS COLLECTION BOX - BLUE BOX", "ref": "9174000058"}, "type": "Feature"}
{"geometry": {"coordinates": [-117.8655046869, 34.133013], "type": "Point"}, "id": "9fDcVnE_gR_aLLMVxKcIofib5zU=", "properties": {"@spider": "usps_collection_boxes", "addr:city": "GLENDORA", "addr:country": "US", "addr:full": "255 S GLENDORA AVE", "addr:postcode": "91740", "addr:state": "CA", "brand": "USPS", "collection_times": "Mo-Fr 17:00; Sa 13:00", "name": "USPS COLLECTION BOX - PO LOBBY", "note": "ON 12/24 AND 12/31, THIS BOX MAY BE COLLECTED AS EARLY AS 12 NOON.", "ref": "9174000062"}, "type": "Feature"}
{"geometry": {"coordinates": [-117.870823, 34.136591], "type": "Point"}, "id": "l95cP2D35B_ocp5kolLo_6O64ho=", "properties": {"@spider": "usps_collection_boxes", "addr:city": "GLENDORA", "addr:country": "US", "addr:full": "407 W FOOTHILL BLVD", "addr:postcode": "91741", "addr:state": "CA", "brand": "USPS", "collection_times": "Mo-Sa 10:00", "name": "USPS COLLECTION BOX - BLUE BOX", "ref": "9174100000"}, "type": "Feature"}
{"geometry": {"coordinates": [-117.868147, 34.138352], "type": "Point"}, "id": "-LsCHHWjXoBGA08CQa7SGPeg_L4=", "properties": {"@spider": "usps_collection_boxes", "addr:city": "GLENDORA", "addr:country": "US", "addr:full": "175 N PENNSYLVANIA AVE", "addr:postcode": "91741", "addr:state": "CA", "brand": "USPS", "collection_times": "Mo-Sa 10:00", "name": "USPS COLLECTION BOX - BLUE BOX", "ref": "9174100002"}, "type": "Feature"}
{"geometry": {"coordinates": [-117.871586, 34.1343], "type": "Point"}, "id": "u0g70xF3MvFWMwRrbV7nUUxZnEg=", "properties": {"@spider": "usps_collection_boxes", "addr:city": "GLENDORA", "addr:country": "US", "addr:full": "427 W CARROLL AVE", "addr:postcode": "91741", "addr:state": "CA", "brand": "USPS", "collection_times": "Mo-Sa 10:00", "name": "USPS COLLECTION BOX - BLUE BOX", "ref": "9174100013"}, "type": "Feature"}
{"geometry": {"coordinates": [-117.5846614359, 34.0659775641], "type": "Point"}, "id": "GbAet2AcDxfBALhPK5lbVuJaog0=", "properties": {"@spider": "usps_collection_boxes", "addr:city": "ONTARIO", "addr:country": "US", "addr:full": "323 N TURNER AVE", "addr:postcode": "91743", "addr:state": "CA", "brand": "USPS", "collection_times": "Mo-Fr 17:00", "name": "USPS COLLECTION BOX - PO LOBBY", "note": "ON 12/24 AND 12/31, THIS BOX MAY BE COLLECTED AS EARLY AS 12 NOON.", "ref": "9174300001"}, "type": "Feature"}
{"geometry": {"coordinates": [-117.950318, 34.019344], "type": "Point"}, "id": "2iWP7bBJt6iA6nC-qpDd1GdvMQQ=", "properties": {"@spider": "usps_collection_boxes", "addr:city": "LA PUENTE", "addr:country": "US", "addr:full": "15900 CENTRAL AVE", "addr:postcode": "91744", "addr:state": "CA", "brand": "USPS", "collection_times": "Mo-Sa 10:00", "name": "USPS COLLECTION BOX - BLUE BOX", "ref": "9174400000"}, "type": "Feature"}
{"geometry": {"coordinates": [-117.944399, 34.051626], "type": "Point"}, "id": "gqNetyLDACyz42D_7x6Hp1FlwH4=", "properties": {"@spider": "usps_collection_boxes", "addr:city": "LA PUENTE", "addr:country": "US", "addr:full": "1821 N HACIENDA BLVD", "addr:postcode": "91744", "addr:state": "CA", "brand": "USPS", "collection_times": "Mo-Sa 10:00", "name": "USPS COLLECTION BOX - BLUE BOX", "ref": "9174400004"}, "type": "Feature"}
{"geometry": {"coordinates": [-117.909364, 34.006896], "type": "Point"}, "id": "_CzsG3VaD6MBq-4yrYsLoKTspZI=", "properties": {"@spider": "usps_collection_boxes", "addr:city": "LA PUENTE", "addr:country": "US", "addr:full": "600 GIANO AVE", "addr:postcode": "91744", "addr:state": "CA", "brand": "USPS", "collection_times": "Mo-Sa 10:00", "name": "USPS COLLECTION BOX - BLUE BOX", "ref": "9174400017"}, "type": "Feature"}
{"geometry": {"coordinates": [-117.968841, 34.041374], "type": "Point"}, "id": "_P5h7UNN_PmykucvD1Z-Kl0ZHXg=", "properties": {"@spider": "usps_collection_boxes", "addr:city": "LA PUENTE", "addr:country": "US", "addr:full": "14535 TEMPLE AVE", "addr:postcode": "91744", "addr:state": "CA", "brand": "USPS", "collection_times": "Mo-Sa 10:00", "name": "USPS COLLECTION BOX - BLUE BOX", "ref": "9174400019"}, "type": "Feature"}
{"geometry": {"coordinates": [-117.935039694, 34.036105848], "type": "Point"}, "id": "aYqTnElsdoWiDommQbXG5NIO9b0=", "properties": {"@spider": "usps_collection_boxes", "addr:city": "LA PUENTE", "addr:country": "US", "addr:full": "16030 AMAR RD", "addr:postcode": "91744", "addr:state": "CA", "brand": "USPS", "collection_times": "Mo-Sa 10:00", "name": "USPS COLLECTION BOX - BLUE BOX", "ref": "9174400023"}, "type": "Feature"}
{"geometry": {"coordinates": [-117.92762, 34.013756], "type": "Point"}, "id": "H9ZpLZhUOc-X1mC4idQV1E1l6Nc=", "properties": {"@spider": "usps_collection_boxes", "addr:city": "LA PUENTE", "addr:country": "US", "addr:full": "17203 MAIN ST", "addr:postcode": "91744", "addr:state": "CA", "brand": "USPS", "collection_times": "Mo-Sa 10:00", "name": "USPS COLLECTION BOX - BLUE BOX", "ref": "9174400026"}, "type": "Feature"}
{"geometry": {"coordinates": [-117.926492, 34.010078], "type": "Point"}, "id": "LOq2MdN2DqsdR6jMdTYlhCm4T0c=", "properties": {"@spider": "usps_collection_boxes", "addr:city": "LA PUENTE", "addr:country": "US", "addr:full": "17305 E VALLEY BLVD", "addr:postcode": "91744", "addr:state": "CA", "brand": "USPS", "collection_times": "Mo-Sa 10:00", "name": "USPS COLLECTION BOX - BLUE BOX", "ref": "9174400027"}, "type": "Feature"}
{"geometry": {"coordinates": [-117.95588, 34.021597], "type": "Point"}, "id": "DvqH6ar9vwXBvkodJZeb23MLDPU=", "properties": {"@spider": "usps_collection_boxes", "addr:city": "LA PUENTE", "addr:country": "US", "addr:full": "15559 RAUSCH RD", "addr:postcode": "91744", "addr:state": "CA", "brand": "USPS", "collection_times": "Mo-Sa 17:00", "name": "USPS COLLECTION BOX - BLUE BOX", "note": "ON 12/24 AND 12/31, THIS BOX MAY BE COLLECTED AS EARLY AS 12 NOON.", "ref": "9174400029"}, "type": "Feature"}
{"geometry": {"coordinates": [-117.955882, 34.02161], "type": "Point"}, "id": "u5VUPRG6k_eClJwKGC4pY9tQJyQ=", "properties": {"@spider": "usps_collection_boxes", "addr:city": "LA PUENTE", "addr:country": "US", "addr:full": "15559 RAUSCH RD", "addr:postcode": "91744", "addr:state": "CA", "brand": "USPS", "collection_times": "Mo-Sa 17:00", "name": "USPS COLLECTION BOX - BLUE BOX", "note": "ON 12/24 AND 12/31, THIS BOX MAY BE COLLECTED AS EARLY AS 12 NOON.", "ref": "9174400030"}, "type": "Feature"}
{"geometry": {"coordinates": [-117.955874, 34.021606], "type": "Point"}, "id": "4LHUO8IE8q11p70Ev7893yfzecU=", "properties": {"@spider": "usps_collection_boxes", "addr:city": "LA PUENTE", "addr:country": "US", "addr:full": "15559 RAUSCH RD", "addr:postcode": "91744", "addr:state": "CA", "brand": "USPS", "collection_times": "Mo-Sa 17:00", "name": "USPS COLLECTION BOX - EXPRESS", "note": "ON 12/24 AND 12/31, THIS BOX MAY BE COLLECTED AS EARLY AS 12 NOON.", "ref": "9174400031"}, "type": "Feature"}
{"geometry": {"coordinates": [-117.9562960387, 34.0218995084], "type": "Point"}, "id": "a1It8JZ8LEMdhRPbUTVxQFa5v0o=", "properties": {"@spider": "usps_collection_boxes", "addr:city": "LA PUENTE", "addr:country": "US", "addr:full": "15559 RAUSCH RD", "addr:postcode": "91744", "addr:state": "CA", "brand": "USPS", "collection_times": "Mo-Fr 17:00", "name": "USPS COLLECTION BOX - PO LOBBY", "note": "ON 12/24 AND 12/31, THIS BOX MAY BE COLLECTED AS EARLY AS 12 NOON.", "ref": "9174400047"}, "type": "Feature"}
{"geometry": {"coordinates": [-117.954447, 33.98456], "type": "Point"}, "id": "-wqQ2LSPWq1PfTgqEnKa839vbhY=", "properties": {"@spider": "usps_collection_boxes", "addr:city": "CITY INDUSTRY", "addr:country": "US", "addr:full": "16300 SIERRA RIDGEWAY", "addr:postcode": "91745", "addr:state": "CA", "brand": "USPS", "collection_times": "Mo-Sa 10:00", "name": "USPS COLLECTION BOX - BLUE BOX", "ref": "9174500030"}, "type": "Feature"}
{"geometry": {"coordinates": [-117.944832, 33.989671], "type": "Point"}, "id": "DTZ_u9i_n7V3A_VrfkUhfc5oh1M=", "properties": {"@spider": "usps_collection_boxes", "addr:city": "CITY INDUSTRY", "addr:country": "US", "addr:full": "16874 DAWNHAVEN", "addr:postcode": "91745", "addr:state": "CA", "brand": "USPS", "collection_times": "Mo-Sa 10:00", "name": "USPS COLLECTION BOX - BLUE BOX", "ref": "9174500039"}, "type": "Feature"}
{"geometry": {"coordinates": [-117.9678439805, 33.996144996], "type": "Point"}, "id": "MJXeMa8ZQRIij4qyIRC3LxBfn-c=", "properties": {"@spider": "usps_collection_boxes", "addr:city": "CITY INDUSTRY", "addr:country": "US", "addr:full": "2054 S HACIENDA BLVD", "addr:postcode": "91745", "addr:state": "CA", "brand": "USPS", "collection_times": "Mo-Sa 17:00", "name": "USPS COLLECTION BOX - BLUE BOX", "note": "ON 12/24 AND 12/31, THIS BOX MAY BE COLLECTED AS EARLY AS 12 NOON.", "ref": "9174500041"}, "type": "Feature"}
{"geometry": {"coordinates": [-117.9678439805, 33.996144996], "type": "Point"}, "id": "eZtprKf56nMV8AxdEEgWeGf7qNw=", "properties": {"@spider": "usps_collection_boxes", "addr:city": "CITY INDUSTRY", "addr:country": "US", "addr:full": "2054 S HACIENDA BLVD", "addr:postcode": "91745", "addr:state": "CA", "brand": "USPS", "collection_times": "Mo-Sa 17:00", "name": "USPS COLLECTION BOX - BLUE BOX", "note": "ON 12/24 AND 12/31, THIS BOX MAY BE COLLECTED AS EARLY AS 12 NOON.", "ref": "9174500042"}, "type": "Feature"}
{"geometry": {"coordinates": [-117.968285, 33.990977], "type": "Point"}, "id": "76eZXnqRdIGxETMVtP43KYgHW3k=", "properties": {"@spider": "usps_collection_boxes", "addr:city": "CITY INDUSTRY", "addr:country": "US", "addr:full": "2440 S HACIENDA BLVD", "addr:postcode": "91745", "addr:state": "CA", "brand": "USPS", "collection_times": "Mo-Sa 10:00", "name": "USPS COLLECTION BOX - BLUE BOX", "ref": "9174500044"}, "type": "Feature"}
{"geometry": {"coordinates": [-117.937182, 33.989838], "type": "Point"}, "id": "Rl6rouyUxXDV7DhRzSt5wi_Ew5c=", "properties": {"@spider": "usps_collection_boxes", "addr:city": "CITY INDUSTRY", "addr:country": "US", "addr:full": "17002 COLIMA RD", "addr:postcode": "91745", "addr:state": "CA", "brand": "USPS", "collection_times": "Mo-Sa 10:00", "name": "USPS COLLECTION BOX - BLUE BOX", "ref": "9174500048"}, "type": "Feature"}
{"geometry": {"coordinates": [-117.9320140266, 33.9933200013], "type": "Point"}, "id": "JEoTc1TPPIBJ7ZPwGp_9AqKIC6A=", "properties": {"@spider": "usps_collection_boxes", "addr:city": "CITY INDUSTRY", "addr:country": "US", "addr:full": "1605 S AZUSA AVE", "addr:postcode": "91745", "addr:state": "CA", "brand": "USPS", "collection_times": "Mo-Sa 10:00", "name": "USPS COLLECTION BOX - BLUE BOX", "ref": "9174500049"}, "type": "Feature"}
{"geometry": {"coordinates": [-117.933369, 34.000695], "type": "Point"}, "id": "phAv4opG0aA8beteSEFhDmAFl68=", "properties": {"@spider": "usps_collection_boxes", "addr:city": "CITY INDUSTRY", "addr:country": "US", "addr:full": "17088 GREEN DR", "addr:postcode": "91745", "addr:state": "CA", "brand": "USPS", "collection_times": "Mo-Sa 10:00", "name": "USPS COLLECTION BOX - BLUE BOX", "ref": "9174500052"}, "type": "Feature"}
{"geometry": {"coordinates": [-117.9678439805, 33.996144996], "type": "Point"}, "id": "S-1Hv5SQcbgPvIjpFVSWtxiuxLc=", "properties": {"@spider": "usps_collection_boxes", "addr:city": "CITY INDUSTRY", "addr:country": "US", "addr:full": "2054 S HACIENDA BLVD", "addr:postcode": "91745", "addr:state": "CA", "brand": "USPS", "collection_times": "Mo-Sa 17:00", "name": "USPS COLLECTION BOX - BLUE BOX", "note": "ON 12/24 AND 12/31, THIS BOX MAY BE COLLECTED AS EARLY AS 12 NOON.", "ref": "9174500120"}, "type": "Feature"}
{"geometry": {"coordinates": [-117.9678439805, 33.996144996], "type": "Point"}, "id": "A4ZZX1kn0sRGLvzvMzlUSd9kXsA=", "properties": {"@spider": "usps_collection_boxes", "addr:city": "CITY INDUSTRY", "addr:country": "US", "addr:full": "2054 S HACIENDA BLVD", "addr:postcode": "91745", "addr:state": "CA", "brand": "USPS", "collection_times": "Mo-Sa 17:00", "name": "USPS COLLECTION BOX - BLUE BOX", "note": "ON 12/24 AND 12/31, THIS BOX MAY BE COLLECTED AS EARLY AS 12 NOON.", "ref": "9174500121"}, "type": "Feature"}
{"geometry": {"coordinates": [-117.9678439805, 33.996144996], "type": "Point"}, "id": "9A1oYbfyqFr21ao4Kl654PcZxZs=", "properties": {"@spider": "usps_collection_boxes", "addr:city": "CITY INDUSTRY", "addr:country": "US", "addr:full": "2054 S HACIENDA BLVD", "addr:postcode": "91745", "addr:state": "CA", "brand": "USPS", "collection_times": "Mo-Fr 17:00", "name": "USPS COLLECTION BOX - PO LOBBY", "note": "ON 12/24 AND 12/31, THIS BOX MAY BE COLLECTED AS EARLY AS 12 NOON.", "ref": "9174500128"}, "type": "Feature"}
{"geometry": {"coordinates": [-117.968131, 34.04885], "type": "Point"}, "id": "o09IePuegz4PYtPftjG2Lg_-0Nw=", "properties": {"@spider": "usps_collection_boxes", "addr:city": "LA PUENTE", "addr:country": "US", "addr:full": "14284 AMAR RD", "addr:postcode": "91746", "addr:state": "CA", "brand": "USPS", "collection_times": "Mo-Sa 10:00", "name": "USPS COLLECTION BOX - BLUE BOX", "ref": "9174600002"}, "type": "Feature"}
{"geometry": {"coordinates": [-117.98642362, 34.033022717], "type": "Point"}, "id": "51ywpzqSQqzldHB9h4X8cngEtAg=", "properties": {"@spider": "usps_collection_boxes", "addr:city": "LA PUENTE", "addr:country": "US", "addr:full": "14250 DON JULIAN RD", "addr:postcode": "91746", "addr:state": "CA", "brand": "USPS", "collection_times": "Mo-Sa 10:00", "name": "USPS COLLECTION BOX - BLUE BOX", "ref": "9174600005"}, "type": "Feature"}
{"geometry": {"coordinates": [-117.9863219089, 34.0329571319], "type": "Point"}, "id": "eNUqRea0PjEY-eB5AVg5RMR6u4c=", "properties": {"@spider": "usps_collection_boxes", "addr:city": "LA PUENTE", "addr:country": "US", "addr:full": "14250 DON JULIAN RD", "addr:postcode": "91746", "addr:state": "CA", "brand": "USPS", "collection_times": "Mo-Sa 10:00", "name": "USPS COLLECTION BOX - BLUE BOX", "ref": "9174600006"}, "type": "Feature"}
{"geometry": {"coordinates": [-117.962109, 34.025114], "type": "Point"}, "id": "YpEyqBMZv1KCsyWpzSPxpUxkF8M=", "properties": {"@spider": "usps_collection_boxes", "addr:city": "LA PUENTE", "addr:country": "US", "addr:full": "15322 VALLEY BLVD", "addr:postcode": "91746", "addr:state": "CA", "brand": "USPS", "collection_times": "Mo-Sa 10:00", "name": "USPS COLLECTION BOX - BLUE BOX", "ref": "9174600007"}, "type": "Feature"}
{"geometry": {"coordinates": [-117.973349, 34.053016], "type": "Point"}, "id": "73ScUnUHVQMf9biDrwK27Eq5XXc=", "properties": {"@spider": "usps_collection_boxes", "addr:city": "LA PUENTE", "addr:country": "US", "addr:full": "13955 AMAR RD", "addr:postcode": "91746", "addr:state": "CA", "brand": "USPS", "collection_times": "Mo-Sa 10:00", "name": "USPS COLLECTION BOX - BLUE BOX", "ref": "9174600010"}, "type": "Feature"}
{"geometry": {"coordinates": [-117.997254, 34.040427], "type": "Point"}, "id": "PcQwtutEcHJLxS19lakbHe3jSsY=", "properties": {"@spider": "usps_collection_boxes", "addr:city": "LA PUENTE", "addr:country": "US", "addr:full": "512 WORKMAN MILL RD", "addr:postcode": "91746", "addr:state": "CA", "brand": "USPS", "collection_times": "Mo-Sa 17:00", "name": "USPS COLLECTION BOX - BLUE BOX", "note": "ON 12/24 AND 12/31, THIS BOX MAY BE COLLECTED AS EARLY AS 12 NOON.", "ref": "9174600019"}, "type": "Feature"}
{"geometry": {"coordinates": [-117.9982118531, 34.0408868576], "type": "Point"}, "id": "XPi1F7TdNHs24WTR6Ar_G_MrGOQ=", "properties": {"@spider": "usps_collection_boxes", "addr:city": "LA PUENTE", "addr:country": "US", "addr:full": "512 WORKMAN MILL RD", "addr:postcode": "91746", "addr:state": "CA", "brand": "USPS", "collection_times": "Mo-Sa 17:00", "name": "USPS COLLECTION BOX - BLUE BOX", "note": "ON 12/24 AND 12/31, THIS BOX MAY BE COLLECTED AS EARLY AS 12 NOON.", "ref": "9174600020"}, "type": "Feature"}
{"geometry": {"coordinates": [-118.022815, 34.028751], "type": "Point"}, "id": "0feqriYVQWEUXJTXT25DcLhereM=", "properties": {"@spider": "usps_collection_boxes", "addr:city": "LA PUENTE", "addr:country": "US", "addr:full": "12900 CROSSROADS PKWY S", "addr:postcode": "91746", "addr:state": "CA", "brand": "USPS", "collection_times": "Mo-Sa 10:00", "name": "USPS COLLECTION BOX - BLUE BOX", "ref": "9174600025"}, "type": "Feature"}
{"geometry": {"coordinates": [-117.9982118531, 34.0408868576], "type": "Point"}, "id": "01_n4HDHHfeItSHgZPxbjgL2rxA=", "properties": {"@spider": "usps_collection_boxes", "addr:city": "LA PUENTE", "addr:country": "US", "addr:full": "512 WORKMAN MILL RD", "addr:postcode": "91746", "addr:state": "CA", "brand": "USPS", "collection_times": "Mo-Fr 17:00", "name": "USPS COLLECTION BOX - PO LOBBY", "note": "ON 12/24 AND 12/31, THIS BOX MAY BE COLLECTED AS EARLY AS 12 NOON.", "ref": "9174600028"}, "type": "Feature"}
{"geometry": {"coordinates": [-117.952061852, 34.0371468781], "type": "Point"}, "id": "lpKOhNsSUQCgLHvuXSc0Mz7n8UA=", "properties": {"@spider": "usps_collection_boxes", "addr:city": "LA PUENTE", "addr:country": "US", "addr:full": "15310 ELLIOTT AVE", "addr:postcode": "91747", "addr:state": "CA", "brand": "USPS", "collection_times": "Mo-Fr 17:10; Sa 17:00", "name": "USPS COLLECTION BOX - BLUE BOX", "note": "ON 12/24 AND 12/31, THIS BOX MAY BE COLLECTED AS EARLY AS 12 NOON.", "ref": "9174700000"}, "type": "Feature"}
{"geometry": {"coordinates": [-117.952061852, 34.0371468781], "type": "Point"}, "id": "3d0Bv6WUe21YP9RqUPxt6USsCjM=", "properties": {"@spider": "usps_collection_boxes", "addr:city": "LA PUENTE", "addr:country": "US", "addr:full": "15310 ELLIOTT AVE", "addr:postcode": "91747", "addr:state": "CA", "brand": "USPS", "collection_times": "Mo-Sa 15:00", "name": "USPS COLLECTION BOX - BLUE BOX", "note": "ON 12/24 AND 12/31, THIS BOX MAY BE COLLECTED AS EARLY AS 12 NOON.", "ref": "9174700001"}, "type": "Feature"}
{"geometry": {"coordinates": [-117.9514607835, 34.0366985578], "type": "Point"}, "id": "lifqnHYByGyFxG2u_9dx3bDOI_4=", "properties": {"@spider": "usps_collection_boxes", "addr:city": "LA PUENTE", "addr:country": "US", "addr:full": "15310 ELLIOT AVE", "addr:postcode": "91747", "addr:state": "CA", "brand": "USPS", "collection_times": "Mo-Fr 17:00; Sa 14:00", "name": "USPS COLLECTION BOX - PO LOBBY", "note": "ON 12/24 AND 12/31, THIS BOX MAY BE COLLECTED AS EARLY AS 12 NOON.", "ref": "9174700008"}, "type": "Feature"}
{"geometry": {"coordinates": [-117.909856, 33.975509], "type": "Point"}, "id": "RLfB5uxho1oUReQeL5ngoAxKgX0=", "properties": {"@spider": "usps_collection_boxes", "addr:city": "CITY INDUSTRY", "addr:country": "US", "addr:full": "2430 FULLERTON RD", "addr:postcode": "91748", "addr:state": "CA", "brand": "USPS", "collection_times": "Mo-Sa 10:00", "name": "USPS COLLECTION BOX - BLUE BOX", "ref": "9174800000"}, "type": "Feature"}
{"geometry": {"coordinates": [-117.8973039789, 33.9949770197], "type": "Point"}, "id": "_-4Q601_yN4p618T5iU_HHXGXNI=", "properties": {"@spider": "usps_collection_boxes", "addr:city": "CITY INDUSTRY", "addr:country": "US", "addr:full": "18605 GALE AVE", "addr:postcode": "91748", "addr:state": "CA", "brand": "USPS", "collection_times": "Mo-Sa 10:00", "name": "USPS COLLECTION BOX - BLUE BOX", "ref": "9174800001"}, "type": "Feature"}
{"geometry": {"coordinates": [-117.908784, 33.979655], "type": "Point"}, "id": "oMIq3B7UYAnFW-ohnsVLTK6SYM8=", "properties": {"@spider": "usps_collection_boxes", "addr:city": "CITY INDUSTRY", "addr:country": "US", "addr:full": "18100 GALATINA ST", "addr:postcode": "91748", "addr:state": "CA", "brand": "USPS", "collection_times": "Mo-Sa 10:00", "name": "USPS COLLECTION BOX - BLUE BOX", "ref": "9174800006"}, "type": "Feature"}
{"geometry": {"coordinates": [-117.889979, 33.996607], "type": "Point"}, "id": "Up3q45nm27Vg6PCER0cLSl4vR2k=", "properties": {"@spider": "usps_collection_boxes", "addr:city": "CITY INDUSTRY", "addr:country": "US", "addr:full": "1015 NOGALES ST", "addr:postcode": "91748", "addr:state": "CA", "brand": "USPS", "collection_times": "Mo-Sa 10:00", "name": "USPS COLLECTION BOX - BLUE BOX", "ref": "9174800007"}, "type": "Feature"}
{"geometry": {"coordinates": [-117.872607, 33.993174], "type": "Point"},