{"geometry": {"coordinates": [-117.226712, 33.290597], "type": "Point"}, "id": "w2uAtzsoDSoJeQveDsoB3VRxzfU=", "properties": {"@spider": "usps_collection_boxes", "addr:city": "BONSALL", "addr:country": "US", "addr:full": "5521 MISSION RD", "addr:postcode": "92003", "addr:state": "CA", "brand": "USPS", "collection_times": "Mo-Fr 17:00; Sa 15:00", "name": "USPS COLLECTION BOX - BLUE BOX", "note": "ON 12/24 AND 12/31, THIS BOX MAY BE COLLECTED AS EARLY AS 12 NOON.", "ref": "9200300003"}, "type": "Feature"}
{"geometry": {"coordinates": [-117.226712, 33.290597], "type": "Point"}, "id": "6mwuUpEtM_x93h-3TXnpd0Dqruo=", "properties": {"@spider": "usps_collection_boxes", "addr:city": "BONSALL", "addr:country": "US", "addr:full": "5521 MISSION RD", "addr:postcode": "92003", "addr:state": "CA", "brand": "USPS", "collection_times": "Mo-Fr 17:00; Sa 15:00", "name": "USPS COLLECTION BOX - PO LOBBY", "note": "ON 12/24 AND 12/31, THIS BOX MAY BE COLLECTED AS EARLY AS 12 NOON.", "ref": "9200300005"}, "type": "Feature"}
{"geometry": {"coordinates": [-117.226712, 33.290597], "type": "Point"}, "id": "H5r2E94yyLC2-f9PhhW3a_KXxQ4=", "properties": {"@spider": "usps_collection_boxes", "addr:city": "BONSALL", "addr:country": "US", "addr:full": "5521 MISSION RD", "addr:postcode": "92003", "addr:state": "CA", "brand": "USPS", "collection_times": "Sa 12:00", "name": "USPS COLLECTION BOX - PO LOBBY", "ref": "9200300006"}, "type": "Feature"}
{"geometry": {"coordinates": [-117.226712, 33.290597], "type": "Point"}, "id": "YsUd5ZuV-tJ3AQa3H5lcVB2lHqA=", "properties": {"@spider": "usps_collection_boxes", "addr:city": "BONSALL", "addr:country": "US", "addr:full": "5521 MISSION RD", "addr:postcode": "92003", "addr:state": "CA", "brand": "USPS", "collection_times": "Mo-Fr 17:00; Sa 15:00", "name": "USPS COLLECTION BOX - PO LOBBY", "note": "ON 12/24 AND 12/31, THIS BOX MAY BE COLLECTED AS EARLY AS 12 NOON.", "ref": "9200300007"}, "type": "Feature"}
{"geometry": {"coordinates": [-117.2257038116, 33.2911229836], "type": "Point"}, "id": "DXq9SZT5RWFnAhiXJ9coPCaH8t4=", "properties": {"@spider": "usps_collection_boxes", "addr:city": "BONSALL", "addr:country": "US", "addr:full": "5521 MISSION RD STE D", "addr:postcode": "92003", "addr:state": "CA", "brand": "USPS", "collection_times": "Mo-Fr 16:30", "name": "USPS COLLECTION BOX - PO LOBBY", "note": "ON 12/24 AND 12/31, THIS BOX MAY BE COLLECTED AS EARLY AS 12 NOON.", "ref": "9200300008"}, "type": "Feature"}
{"geometry": {"coordinates": [-116.3798222027, 33.2547353903], "type": "Point"}, "id": "9Q5CT8dzXSE7HXZceJ6BSKK4GlY=", "properties": {"@spider": "usps_collection_boxes", "addr:city": "BORREGO SPRINGS", "addr:country": "US", "addr:full": "2599 COUNTRY CLUB RD", "addr:postcode": "92004", "addr:state": "CA", "brand": "USPS", "collection_times": "Mo-Fr 14:15; Sa 12:00", "name": "USPS COLLECTION BOX - BLUE BOX", "note": "ON 12/24 AND 12/31, THIS BOX MAY BE COLLECTED AS EARLY AS 12 NOON.", "ref": "9200400001"}, "type": "Feature"}
{"geometry": {"coordinates": [-116.376874, 33.256818], "type": "Point"}, "id": "E-cOXPMQLFV2Ha3_ma1vtvDE8-4=", "properties": {"@spider": "usps_collection_boxes", "addr:city": "BORREGO SPRINGS", "addr:country": "US", "addr:full": "682 PALM CANYON DR", "addr:postcode": "92004", "addr:state": "CA", "brand": "USPS", "collection_times": "Mo-Sa 12:45", "name": "USPS COLLECTION BOX - BLUE BOX", "note": "ON 12/24 AND 12/31, THIS BOX MAY BE COLLECTED AS EARLY AS 12 NOON.", "ref": "9200400003"}, "type": "Feature"}
{"geometry": {"coordinates": [-116.3798222027, 33.2547353903], "type": "Point"}, "id": "lBhoH99eP2R0HQLf5O-7D_BS7BQ=", "properties": {"@spider": "usps_collection_boxes", "addr:city": "BORREGO SPRINGS", "addr:country": "US", "addr:full": "2599 COUNTRY CLUB RD", "addr:postcode": "92004", "addr:state": "CA", "brand": "USPS", "collection_times": "Mo-Fr 14:15; Sa 12:00", "name": "USPS COLLECTION BOX - BLUE BOX", "note": "ON 12/24 AND 12/31, THIS BOX MAY BE COLLECTED AS EARLY AS 12 NOON.", "ref": "9200400004"}, "type": "Feature"}
{"geometry": {"coordinates": [-116.362939, 33.256797], "type": "Point"}, "id": "4C-REU3cFNl6ZuF2FVXExLfgXT4=", "properties": {"@spider": "usps_collection_boxes", "addr:city": "BORREGO SPRINGS", "addr:country": "US", "addr:full": "1010 PALM CANYON DR", "addr:postcode": "92004", "addr:state": "CA", "brand": "USPS", "collection_times": "Mo-Sa 12:45", "name": "USPS COLLECTION BOX - BLUE BOX", "note": "ON 12/24 AND 12/31, THIS BOX MAY BE COLLECTED AS EARLY AS 12 NOON.", "ref": "9200400007"}, "type": "Feature"}
{"geometry": {"coordinates": [-116.132797, 33.135491], "type": "Point"}, "id": "MaLIkj4et0qhy1GmwAgvthUCtJo=", "properties": {"@spider": "usps_collection_boxes", "addr:city": "BORREGO SPRINGS", "addr:country": "US", "addr:full": "5525 SPLIT MOUNTAIN RD", "addr:postcode": "92004", "addr:state": "CA", "brand": "USPS", "collection_times": "Mo-Sa 12:00", "name": "USPS COLLECTION BOX - BLUE BOX", "ref": "9200400008"}, "type": "Feature"}
{"geometry": {"coordinates": [-116.329907, 33.20961], "type": "Point"}, "id": "GchFOXRz_6EMRn33hSfz4pc-dkY=", "properties": {"@spider": "usps_collection_boxes", "addr:city": "BORREGO SPRINGS", "addr:country": "US", "addr:full": "3845 YAQUI PASS", "addr:postcode": "92004", "addr:state": "CA", "brand": "USPS", "collection_times": "Mo-Sa 12:30", "name": "USPS COLLECTION BOX - BLUE BOX", "note": "ON 12/24 AND 12/31, THIS BOX MAY BE COLLECTED AS EARLY AS 12 NOON.", "ref": "9200400009"}, "type": "Feature"}
{"geometry": {"coordinates": [-116.3798222027, 33.2547353903], "type": "Point"}, "id": "SFxgmGrxra8Gdbpcu2lMCfYLNbY=", "properties": {"@spider": "usps_collection_boxes", "addr:city": "BORREGO SPRINGS", "addr:country": "US", "addr:full": "2599 COUNTRY CLUB RD", "addr:postcode": "92004", "addr:state": "CA", "brand": "USPS", "collection_times": "Mo-Sa 12:00", "name": "USPS COLLECTION BOX - PO LOBBY", "ref": "9200400012"}, "type": "Feature"}
{"geometry": {"coordinates": [-116.3798222027, 33.2547353903], "type": "Point"}, "id": "D1T048_f7VIRwRTtFMSeblIEH08=", "properties": {"@spider": "usps_collection_boxes", "addr:city": "BORREGO SPRINGS", "addr:country": "US", "addr:full": "2599 COUNTRY CLUB RD", "addr:postcode": "92004", "addr:state": "CA", "brand": "USPS", "collection_times": "Mo-Fr 14:15", "name": "USPS COLLECTION BOX - PO LOBBY", "note": "ON 12/24 AND 12/31, THIS BOX MAY BE COLLECTED AS EARLY AS 12 NOON.", "ref": "9200400013"}, "type": "Feature"}
{"geometry": {"coordinates": [-117.2699674456, 33.0256393651], "type": "Point"}, "id": "MQtHeQRbkhptWsV_vEIPgGCL0x8=", "properties": {"@spider": "usps_collection_boxes", "addr:city": "CARDIFF", "addr:country": "US", "addr:full": "1760 LEGAYE DR", "addr:postcode": "92007", "addr:state": "CA", "brand": "USPS", "collection_times": "Mo-Fr 15:00; Sa 13:00", "name": "USPS COLLECTION BOX - BLUE BOX", "note": "ON 12/24 AND 12/31, THIS BOX MAY BE COLLECTED AS EARLY AS 12 NOON.", "ref": "9200700001"}, "type": "Feature"}
{"geometry": {"coordinates": [-117.2817578511, 33.0214407605], "type": "Point"}, "id": "rexqMWaYK0YQ3cM5ETHe5R4ZfLM=", "properties": {"@spider": "usps_collection_boxes", "addr:city": "CARDIFF", "addr:country": "US", "addr:full": "135 LIVERPOOL DR", "addr:postcode": "92007", "addr:state": "CA", "brand": "USPS", "collection_times": "Mo-Fr 17:00; Sa 14:00", "name": "USPS COLLECTION BOX - BLUE BOX", "note": "ON 12/24 AND 12/31, THIS BOX MAY BE COLLECTED AS EARLY AS 12 NOON.", "ref": "9200700004"}, "type": "Feature"}
{"geometry": {"coordinates": [-117.2817578511, 33.0214407605], "type": "Point"}, "id": "zM0I4AqQBfULyHPvOeze9hquBOg=", "properties": {"@spider": "usps_collection_boxes", "addr:city": "CARDIFF", "addr:country": "US", "addr:full": "135 LIVERPOOL DR", "addr:postcode": "92007", "addr:state": "CA", "brand": "USPS", "collection_times": "Mo-Fr 17:00; Sa 14:00", "name": "USPS COLLECTION BOX - PO LOBBY", "note": "ON 12/24 AND 12/31, THIS BOX MAY BE COLLECTED AS EARLY AS 12 NOON.", "ref": "9200700005"}, "type": "Feature"}
{"geometry": {"coordinates": [-117.2817578511, 33.0214407605], "type": "Point"}, "id": "r2mJklrv2HxUB1TU_ofSOBPA4vw=", "properties": {"@spider": "usps_collection_boxes", "addr:city": "CARDIFF", "addr:country": "US", "addr:full": "135 LIVERPOOL DR", "addr:postcode": "92007", "addr:state": "CA", "brand": "USPS", "collection_times": "Mo-Fr 17:00; Sa 14:00", "name": "USPS COLLECTION BOX - BLUE BOX", "note": "ON 12/24 AND 12/31, THIS BOX MAY BE COLLECTED AS EARLY AS 12 NOON.", "ref": "9200700008"}, "type": "Feature"}
{"geometry": {"coordinates": [-117.2817578511, 33.0214407605], "type": "Point"}, "id": "mYbtQvi6AZ1Ccj6xo_u7ef0Za8s=", "properties": {"@spider": "usps_collection_boxes", "addr:city": "CARDIFF", "addr:country": "US", "addr:full": "135 LIVERPOOL DR", "addr:postcode": "92007", "addr:state": "CA", "brand": "USPS", "collection_times": "Mo-Fr 17:00; Sa 14:00", "name": "USPS COLLECTION BOX - BLUE BOX", "note": "ON 12/24 AND 12/31, THIS BOX MAY BE COLLECTED AS EARLY AS 12 NOON.", "ref": "9200700009"}, "type": "Feature"}
{"geometry": {"coordinates": [-117.2817578511, 33.0214407605], "type": "Point"}, "id": "E3_aJj_rg66jG2YDDgWsxLBY2t8=", "properties": {"@spider": "usps_collection_boxes", "addr:city": "CARDIFF", "addr:country": "US", "addr:full": "135 LIVERPOOL DR", "addr:postcode": "92007", "addr:state": "CA", "brand": "USPS", "collection_times": "Mo-Fr 17:00", "name": "USPS COLLECTION BOX - PO LOBBY", "note": "ON 12/24 AND 12/31, THIS BOX MAY BE COLLECTED AS EARLY AS 12 NOON.", "ref": "9200700014"}, "type": "Feature"}
{"geometry": {"coordinates": [-117.325089, 33.179074], "type": "Point"}, "id": "z1gwzLipw616JNs5FYtUgTTog4w=", "properties": {"@spider": "usps_collection_boxes", "addr:city": "CARLSBAD", "addr:country": "US", "addr:full": "2560 EL CAMINO REAL", "addr:postcode": "92008", "addr:state": "CA", "brand": "USPS", "collection_times": "Mo-Fr 13:00; Sa 12:00", "name": "USPS COLLECTION BOX - BLUE BOX", "note": "ON 12/24 AND 12/31, THIS BOX MAY BE COLLECTED AS EARLY AS 12 NOON.", "ref": "9200800002"}, "type": "Feature"}
{"geometry": {"coordinates": [-117.340267, 33.164575], "type": "Point"}, "id": "O5dM36taSP65SwqF-T0uPWC2z-A=", "properties": {"@spider": "usps_collection_boxes", "addr:city": "CARLSBAD", "addr:country": "US", "addr:full": "1250 CARLSBAD VILLAGE DR", "addr:postcode": "92008", "addr:state": "CA", "brand": "USPS", "collection_times": "Mo-Fr 13:00; Sa 12:00", "name": "USPS COLLECTION BOX - BLUE BOX", "note": "ON 12/24 AND 12/31, THIS BOX MAY BE COLLECTED AS EARLY AS 12 NOON.", "ref": "9200800007"}, "type": "Feature"}
{"geometry": {"coordinates": [-117.275084, 33.134425], "type": "Point"}, "id": "eb38C0f7h0hM3BUAIM-choIJLL8=", "properties": {"@spider": "usps_collection_boxes", "addr:city": "CARLSBAD", "addr:country": "US", "addr:full": "5800 PRIESTLY DR", "addr:postcode": "92008", "addr:state": "CA", "brand": "USPS", "collection_times": "Mo-Fr 13:00; Sa 12:00", "name": "USPS COLLECTION BOX - BLUE BOX", "note": "ON 12/24 AND 12/31, THIS BOX MAY BE COLLECTED AS EARLY AS 12 NOON.", "ref": "9200800008"}, "type": "Feature"}
{"geometry": {"coordinates": [-117.334236, 33.152406], "type": "Point"}, "id": "X-YfTWvEldqPakJb7bkIZTOdtjo=", "properties": {"@spider": "usps_collection_boxes", "addr:city": "CARLSBAD", "addr:country": "US", "addr:full": "985 TAMARACK AVE", "addr:postcode": "92008", "addr:state": "CA", "brand": "USPS", "collection_times": "Mo-Fr 13:00; Sa 12:00", "name": "USPS COLLECTION BOX - BLUE BOX", "note": "ON 12/24 AND 12/31, THIS BOX MAY BE COLLECTED AS EARLY AS 12 NOON.", "ref": "9200800025"}, "type": "Feature"}
{"geometry": {"coordinates": [-117.3496204784, 33.1625881552], "type": "Point"}, "id": "lw6x54PFRyS8AgFjVdFXd8oVOqQ=", "properties": {"@spider": "usps_collection_boxes", "addr:city": "CARLSBAD", "addr:country": "US", "addr:full": "2772 ROOSEVELT ST", "addr:postcode": "92008", "addr:state": "CA", "brand": "USPS", "collection_times": "Mo-Fr 17:00; Sa 16:00", "name": "USPS COLLECTION BOX - BLUE BOX", "note": "ON 12/24 AND 12/31, THIS BOX MAY BE COLLECTED AS EARLY AS 12 NOON.", "ref": "9200800034"}, "type": "Feature"}
{"geometry": {"coordinates": [-117.329203, 33.131671], "type": "Point"}, "id": "kvSco3DvU32bBAQJNZ6PXoa1-fY=", "properties": {"@spider": "usps_collection_boxes", "addr:city": "CARLSBAD", "addr:country": "US", "addr:full": "5050 AVENIDA ENCINAS", "addr:postcode": "92008", "addr:state": "CA", "brand": "USPS", "collection_times": "Mo-Fr 13:00; Sa 12:00", "name": "USPS COLLECTION BOX - BLUE BOX", "note": "ON 12/24 AND 12/31, THIS BOX MAY BE COLLECTED AS EARLY AS 12 NOON.", "ref": "9200800038"}, "type": "Feature"}
{"geometry": {"coordinates": [-117.329227, 33.13166], "type": "Point"}, "id": "JXIQ-_igcyf8qDJtxLoOL85Am2A=", "properties": {"@spider": "usps_collection_boxes", "addr:city": "CARLSBAD", "addr:country": "US", "addr:full": "5050 AVENIDA ENCINAS", "addr:postcode": "92008", "addr:state": "CA", "brand": "USPS", "collection_times": "Mo-Fr 13:00; Sa 12:00", "name": "USPS COLLECTION BOX - BLUE BOX", "note": "ON 12/24 AND 12/31, THIS BOX MAY BE COLLECTED AS EARLY AS 12 NOON.", "ref": "9200800039"}, "type": "Feature"}
{"geometry": {"coordinates": [-117.27632488, 33.132047944], "type": "Point"}, "id": "LB6-IMBslR9mcE74l7dXz3WrA-k=", "properties": {"@spider": "usps_collection_boxes", "addr:city": "CARLSBAD", "addr:country": "US", "addr:full": "2260 RUTHERFORD RD", "addr:postcode": "92008", "addr:state": "CA", "brand": "USPS", "collection_times": "Mo-Fr 13:00; Sa 12:00", "name": "USPS COLLECTION BOX - BLUE BOX", "note": "ON 12/24 AND 12/31, THIS BOX MAY BE COLLECTED AS EARLY AS 12 NOON.", "ref": "9200800041"}, "type": "Feature"}
{"geometry": {"coordinates": [-117.290097, 33.145897], "type": "Point"}, "id": "980spRxZ3uoK2kc64tdrdo3l2eA=", "properties": {"@spider": "usps_collection_boxes", "addr:city": "CARLSBAD", "addr:country": "US", "addr:full": "2300 JACKSPAR ST", "addr:postcode": "92008", "addr:state": "CA", "brand": "USPS", "collection_times": "Mo-Fr 13:00; Sa 12:00", "name": "USPS COLLECTION BOX - BLUE BOX", "note": "ON 12/24 AND 12/31, THIS BOX MAY BE COLLECTED AS EARLY AS 12 NOON.", "ref": "9200800044"}, "type": "Feature"}
{"geometry": {"coordinates": [-117.3496204784, 33.1625881552], "type": "Point"}, "id": "xU0n-JdgEMgEedR1f69COeW1UeA=", "properties": {"@spider": "usps_collection_boxes", "addr:city": "CARLSBAD", "addr:country": "US", "addr:full": "2772 ROOSEVELT ST", "addr:postcode": "92008", "addr:state": "CA", "brand": "USPS", "collection_times": "Mo-Fr 17:00; Sa 16:00", "name": "USPS COLLECTION BOX - BLUE BOX", "note": "ON 12/24 AND 12/31, THIS BOX MAY BE COLLECTED AS EARLY AS 12 NOON.", "ref": "9200800049"}, "type": "Feature"}
{"geometry": {"coordinates": [-117.3496204784, 33.1625881552], "type": "Point"}, "id": "mvOcyqtIwWxby2fihV-X16_s1Ug=", "properties": {"@spider": "usps_collection_boxes", "addr:city": "CARLSBAD", "addr:country": "US", "addr:full": "2772 ROOSEVELT ST", "addr:postcode": "92008", "addr:state": "CA", "brand": "USPS", "collection_times": "Mo-Fr 17:00; Sa 16:00", "name": "USPS COLLECTION BOX - APC", "note": "ON 12/24 AND 12/31, THIS BOX MAY BE COLLECTED AS EARLY AS 12 NOON.", "ref": "9200800055"}, "type": "Feature"}
{"geometry": {"coordinates": [-117.289585, 33.123545], "type": "Point"}, "id": "OLe2ASv89tqQCytXJuDdjRIWEjg=", "properties": {"@spider": "usps_collection_boxes", "addr:city": "CARLSBAD", "addr:country": "US", "addr:full": "1901 PALOMAR OAKS WAY", "addr:postcode": "92008", "addr:state": "CA", "brand": "USPS", "collection_times": "Mo-Fr 13:00; Sa 12:00", "name": "USPS COLLECTION BOX - BLUE BOX", "note": "ON 12/24 AND 12/31, THIS BOX MAY BE COLLECTED AS EARLY AS 12 NOON.", "ref": "9200800057"}, "type": "Feature"}
{"geometry": {"coordinates": [-117.350438, 33.159564], "type": "Point"}, "id": "pDFn2xdVEkxNo3wQgBldCQHTpeU=", "properties": {"@spider": "usps_collection_boxes", "addr:city": "CARLSBAD", "addr:country": "US", "addr:full": "300 CARLSBAD VILLAGE DR", "addr:postcode": "92008", "addr:state": "CA", "brand": "USPS", "collection_times": "Mo-Fr 13:00; Sa 12:00", "name": "USPS COLLECTION BOX - BLUE BOX", "note": "ON 12/24 AND 12/31, THIS BOX MAY BE COLLECTED AS EARLY AS 12 NOON.", "ref": "9200800058"}, "type": "Feature"}
{"geometry": {"coordinates": [-117.349620478, 33.162588155], "type": "Point"}, "id": "GhsxBFgQlpNzqOers_AUYj45nZw=", "properties": {"@spider": "usps_collection_boxes", "addr:city": "CARLSBAD", "addr:country": "US", "addr:full": "2772 ROOSEVELT ST", "addr:postcode": "92008", "addr:state": "CA", "brand": "USPS", "collection_times": "Mo-Fr 17:00", "name": "USPS COLLECTION BOX - PO LOBBY", "note": "ON 12/24 AND 12/31, THIS BOX MAY BE COLLECTED AS EARLY AS 12 NOON.", "ref": "9200800065"}, "type": "Feature"}
{"geometry": {"coordinates": [-117.26641, 33.104561], "type": "Point"}, "id": "sL_XnDb24YI6cFbYXpg48GZV7vY=", "properties": {"@spider": "usps_collection_boxes", "addr:city": "CARLSBAD", "addr:country": "US", "addr:full": "6990 EL CAMINO REAL", "addr:postcode": "92009", "addr:state": "CA", "brand": "USPS", "collection_times": "Mo-Fr 13:00; Sa 12:00", "name": "USPS COLLECTION BOX - BLUE BOX", "note": "ON 12/24 AND 12/31, THIS BOX MAY BE COLLECTED AS EARLY AS 12 NOON.", "ref": "9200900014"}, "type": "Feature"}
{"geometry": {"coordinates": [-117.251422, 33.128154], "type": "Point"}, "id": "syiKTc0TSFs22gIGYeU2ufLYi-4=", "properties": {"@spider": "usps_collection_boxes", "addr:city": "CARLSBAD", "addr:country": "US", "addr:full": "2741 GATEWAY RD", "addr:postcode": "92009", "addr:state": "CA", "brand": "USPS", "collection_times": "Mo-Sa 12:00", "name": "USPS COLLECTION BOX - BLUE BOX", "ref": "9200900047"}, "type": "Feature"}
{"geometry": {"coordinates": [-117.272394, 33.138985], "type": "Point"}, "id": "NrzGcvu1vzeYQ7Q3xsLxDybXDgs=", "properties": {"@spider": "usps_collection_boxes", "addr:city": "CARLSBAD", "addr:country": "US", "addr:full": "5661 PALMER WAY", "addr:postcode": "92010", "addr:state": "CA", "brand": "USPS", "collection_times": "Mo-Fr 13:00; Sa 12:00", "name": "USPS COLLECTION BOX - BLUE BOX", "note": "ON 12/24 AND 12/31, THIS BOX MAY BE COLLECTED AS EARLY AS 12 NOON.", "ref": "9201000002"}, "type": "Feature"}
{"geometry": {"coordinates": [-117.272382, 33.138965], "type": "Point"}, "id": "srK2XFQmsrJuZ1sXXdQX-ZDx7SM=", "properties": {"@spider": "usps_collection_boxes", "addr:city": "CARLSBAD", "addr:country": "US", "addr:full": "5661 PALMER WAY", "addr:postcode": "92010", "addr:state": "CA", "brand": "USPS", "collection_times": "Mo-Fr 13:00; Sa 12:00", "name": "USPS COLLECTION BOX - BLUE BOX", "note": "ON 12/24 AND 12/31, THIS BOX MAY BE COLLECTED AS EARLY AS 12 NOON.", "ref": "9201000003"}, "type": "Feature"}
{"geometry": {"coordinates": [-117.272384, 33.138968], "type": "Point"}, "id": "bMdp1KBzuarY68tgf2kzgL7EPCw=", "properties": {"@spider": "usps_collection_boxes", "addr:city": "CARLSBAD", "addr:country": "US", "addr:full": "5661 PALMER WAY", "addr:postcode": "92010", "addr:state": "CA", "brand": "USPS", "collection_times": "Mo-Fr 13:00; Sa 12:00", "name": "USPS COLLECTION BOX - BLUE BOX", "note": "ON 12/24 AND 12/31, THIS BOX MAY BE COLLECTED AS EARLY AS 12 NOON.", "ref": "9201000004"}, "type": "Feature"}
{"geometry": {"coordinates": [-117.311326, 33.172721], "type": "Point"}, "id": "1A3wClORKCR19Fetmi-eTzxLZVs=", "properties": {"@spider": "usps_collection_boxes", "addr:city": "CARLSBAD", "addr:country": "US", "addr:full": "2790 CARLSBAD VILLAGE DR", "addr:postcode": "92010", "addr:state": "CA", "brand": "USPS", "collection_times": "Mo-Fr 13:00; Sa 12:00", "name": "USPS COLLECTION BOX - BLUE BOX", "note": "ON 12/24 AND 12/31, THIS BOX MAY BE COLLECTED AS EARLY AS 12 NOON.", "ref": "9201000005"}, "type": "Feature"}
{"geometry": {"coordinates": [-117.257558, 33.134296], "type": "Point"}, "id": "7k-ipOaXwreQS9z_Yw82vF_wha8=", "properties": {"@spider": "usps_collection_boxes", "addr:city": "CARLSBAD", "addr:country": "US", "addr:full": "2752 LOKER AVE W", "addr:postcode": "92010", "addr:state": "CA", "brand": "USPS", "collection_times": "Mo-Fr 13:00; Sa 12:00", "name": "USPS COLLECTION BOX - BLUE BOX", "note": "ON 12/24 AND 12/31, THIS BOX MAY BE COLLECTED AS EARLY AS 12 NOON.", "ref": "9201000006"}, "type": "Feature"}
{"geometry": {"coordinates": [-117.300642, 33.110221], "type": "Point"}, "id": "9TPAOpZPZP51YxLr_Zmk73togAs=", "properties": {"@spider": "usps_collection_boxes", "addr:city": "CARLSBAD", "addr:country": "US", "addr:full": "1200 CAMINO DE LAS ONDAS", "addr:postcode": "92011", "addr:state": "CA", "brand": "USPS", "collection_times": "Mo-Fr 13:00; Sa 12:00", "name": "USPS COLLECTION BOX - BLUE BOX", "note": "ON 12/24 AND 12/31, THIS BOX MAY BE COLLECTED AS EARLY AS 12 NOON.", "ref": "9201100001"}, "type": "Feature"}
{"geometry": {"coordinates": [-117.311054, 33.101239], "type": "Point"}, "id": "Z7JzZfhYfoS5R1e27et5DMMGor4=", "properties": {"@spider": "usps_collection_boxes", "addr:city": "CARLSBAD", "addr:country": "US", "addr:full": "7140 AVENIDA ENCINAS", "addr:postcode": "92011", "addr:state": "CA", "brand": "USPS", "collection_times": "Mo-Fr 13:00; Sa 12:00", "name": "USPS COLLECTION BOX - BLUE BOX", "note": "ON 12/24 AND 12/31, THIS BOX MAY BE COLLECTED AS EARLY AS 12 NOON.", "ref": "9201100002"}, "type": "Feature"}
{"geometry": {"coordinates": [-117.324979, 33.121571], "type": "Point"}, "id": "SVaHCLNpfrK9uj73SsV_D_gUokg=", "properties": {"@spider": "usps_collection_boxes", "addr:city": "CARLSBAD", "addr:country": "US", "addr:full": "6000 AVENIDA ENCINAS", "addr:postcode": "92011", "addr:state": "CA", "brand": "USPS", "collection_times": "Mo-Fr 13:00; Sa 12:00", "name": "USPS COLLECTION BOX - BLUE BOX", "note": "ON 12/24 AND 12/31, THIS BOX MAY BE COLLECTED AS EARLY AS 12 NOON.", "ref": "9201100005"}, "type": "Feature"}
{"geometry": {"coordinates": [-117.309606, 33.112439], "type": "Point"}, "id": "g9nHa3uVHPrJTnxO7ssu0rp3GkA=", "properties": {"@spider": "usps_collection_boxes", "addr:city": "CARLSBAD", "addr:country": "US", "addr:full": "6733 PASEO DEL NORTE", "addr:postcode": "92011", "addr:state": "CA", "brand": "USPS", "collection_times": "Mo-Fr 13:00; Sa 12:00", "name": "USPS COLLECTION BOX - BLUE BOX", "note": "ON 12/24 AND 12/31, THIS BOX MAY BE COLLECTED AS EARLY AS 12 NOON.", "ref": "9201100006"}, "type": "Feature"}
{"geometry": {"coordinates": [-117.2760387494, 33.1249254681], "type": "Point"}, "id": "Ur-U5JHDs8THsTZTn03JUEvz7kY=", "properties": {"@spider": "usps_collection_boxes", "addr:city": "CARLSBAD", "addr:country": "US", "addr:full": "2141 PALOMAR AIRPORT RD", "addr:postcode": "92011", "addr:state": "CA", "brand": "USPS", "collection_times": "Mo-Fr 13:00; Sa 12:00", "name": "USPS COLLECTION BOX - BLUE BOX", "note": "ON 12/24 AND 12/31, THIS BOX MAY BE COLLECTED AS EARLY AS 12 NOON.", "ref": "9201100008"}, "type": "Feature"}
{"geometry": {"coordinates": [-117.272495074, 33.119074346], "type": "Point"}, "id": "PnlKv8mzs5SNn8EtoochybkMYCw=", "properties": {"@spider": "usps_collection_boxes", "addr:city": "CARLSBAD", "addr:country": "US", "addr:full": "2245 CAMINO VIDA ROBLE", "addr:postcode": "92011", "addr:state": "CA", "brand": "USPS", "collection_times": "Mo-Fr 13:00; Sa 12:00", "name": "USPS COLLECTION BOX - BLUE BOX", "note": "ON 12/24 AND 12/31, THIS BOX MAY BE COLLECTED AS EARLY AS 12 NOON.", "ref": "9201100014"}, "type": "Feature"}
{"geometry": {"coordinates": [-117.2704480955, 33.1024630716], "type": "Point"}, "id": "CYHy2EKBRvNA_yEsvfHFVhyA930=", "properties": {"@spider": "usps_collection_boxes", "addr:city": "CARLSBAD", "addr:country": "US", "addr:full": "1700 AVIARA PKWY", "addr:postcode": "92011", "addr:state": "CA", "brand": "USPS", "collection_times": "Mo-Fr 17:00; Sa 16:00", "name": "USPS COLLECTION BOX - EXPRESS", "note": "ON 12/24 AND 12/31, THIS BOX MAY BE COLLECTED AS EARLY AS 12 NOON.", "ref": "9201100021"}, "type": "Feature"}
{"geometry": {"coordinates": [-117.2704480955, 33.1024630716], "type": "Point"}, "id": "6L-0gcEhUFAd_DicAY2Z7K7501c=", "properties": {"@spider": "usps_collection_boxes", "addr:city": "CARLSBAD", "addr:country": "US", "addr:full": "1700 AVIARA PKWY", "addr:postcode": "92011", "addr:state": "CA", "brand": "USPS", "collection_times": "Mo-Fr 17:00; Sa 16:00", "name": "USPS COLLECTION BOX - BLUE BOX", "note": "ON 12/24 AND 12/31, THIS BOX MAY BE COLLECTED AS EARLY AS 12 NOON.", "ref": "9201100022"}, "type": "Feature"}
{"geometry": {"coordinates": [-117.2704480955, 33.1024630716], "type": "Point"}, "id": "ixjsuPWHYXAAMQWxDv-VmmDALxI=", "properties": {"@spider": "usps_collection_boxes", "addr:city": "CARLSBAD", "addr:country": "US", "addr:full": "1700 AVIARA PKWY", "addr:postcode": "92011", "addr:state": "CA", "brand": "USPS", "collection_times": "Mo-Fr 17:00; Sa 16:00", "name": "USPS COLLECTION BOX - BLUE BOX", "note": "ON 12/24 AND 12/31, THIS BOX MAY BE COLLECTED AS EARLY AS 12 NOON.", "ref": "9201100023"}, "type": "Feature"}
{"geometry": {"coordinates": [-117.2704480955, 33.1024630716], "type": "Point"}, "id": "2hEOb97YLXU8bJlzFxJZmG8u2OU=", "properties": {"@spider": "usps_collection_boxes", "addr:city": "CARLSBAD", "addr:country": "US", "addr:full": "1700 AVIARA PKWY", "addr:postcode": "92011", "addr:state": "CA", "brand": "USPS", "collection_times": "Mo-Fr 17:00; Sa 16:00", "name": "USPS COLLECTION BOX - APC", "note": "ON 12/24 AND 12/31, THIS BOX MAY BE COLLECTED AS EARLY AS 12 NOON.", "ref": "9201100025"}, "type": "Feature"}
{"geometry": {"coordinates": [-117.304999, 33.103402], "type": "Point"}, "id": "LC7s5onxGU04XvVpbSHHLs2y8gU=", "properties": {"@spider": "usps_collection_boxes", "addr:city": "CARLSBAD", "addr:country": "US", "addr:full": "7000 BATIQUITOS DR", "addr:postcode": "92011", "addr:state": "CA", "brand": "USPS", "collection_times": "Mo-Fr 13:00; Sa 12:00", "name": "USPS COLLECTION BOX - BLUE BOX", "note": "ON 12/24 AND 12/31, THIS BOX MAY BE COLLECTED AS EARLY AS 12 NOON.", "ref": "9201100028"}, "type": "Feature"}
{"geometry": {"coordinates": [-117.302105, 33.122902], "type": "Point"}, "id": "ADZOl8ZlsoScmGu9mQE3DF3X-iU=", "properties": {"@spider": "usps_collection_boxes", "addr:city": "CARLSBAD", "addr:country": "US", "addr:full": "1000 AVIARA DR", "addr:postcode": "92011", "addr:state": "CA", "brand": "USPS", "collection_times": "Mo-Fr 13:00; Sa 12:00", "name": "USPS COLLECTION BOX - BLUE BOX", "note": "ON 12/24 AND 12/31, THIS BOX MAY BE COLLECTED AS EARLY AS 12 NOON.", "ref": "9201100029"}, "type": "Feature"}
{"geometry": {"coordinates": [-117.2704480955, 33.1024630716], "type": "Point"}, "id": "66j7j58lgQN_RUEiVZfmicwXxvQ=", "properties": {"@spider": "usps_collection_boxes", "addr:city": "CARLSBAD", "addr:country": "US", "addr:full": "1700 AVIARA PKWY", "addr:postcode": "92011", "addr:state": "CA", "brand": "USPS", "collection_times": "Mo-Fr 17:00", "name": "USPS COLLECTION BOX - PO LOBBY", "note": "ON 12/24 AND 12/31, THIS BOX MAY BE COLLECTED AS EARLY AS 12 NOON.", "ref": "9201100032"}, "type": "Feature"}
{"geometry": {"coordinates": [-117.2665473728, 32.9593038232], "type": "Point"}, "id": "hfIhQwpVVuRQgQiXVDY271NaQBM=", "properties": {"@spider": "usps_collection_boxes", "addr:city": "DEL MAR", "addr:country": "US", "addr:full": "122 15TH ST", "addr:postcode": "92014", "addr:state": "CA", "brand": "USPS", "collection_times": "Mo-Fr 17:30; Sa 15:00", "name": "USPS COLLECTION BOX - BLUE BOX", "note": "ON 12/24 AND 12/31, THIS BOX MAY BE COLLECTED AS EARLY AS 12 NOON.", "ref": "9201400001"}, "type": "Feature"}
{"geometry": {"coordinates": [-117.2665473728, 32.9593038232], "type": "Point"}, "id": "9GIO2QeDotXbXAEmvULIycNZ0Lo=", "properties": {"@spider": "usps_collection_boxes", "addr:city": "DEL MAR", "addr:country": "US", "addr:full": "122 15TH ST", "addr:postcode": "92014", "addr:state": "CA", "brand": "USPS", "collection_times": "Mo-Fr 17:30; Sa 15:00", "name": "USPS COLLECTION BOX - APC", "note": "ON 12/24 AND 12/31, THIS BOX MAY BE COLLECTED AS EARLY AS 12 NOON.", "ref": "9201400002"}, "type": "Feature"}
{"geometry": {"coordinates": [-117.265308, 32.959073], "type": "Point"}, "id": "m6fOE0u0WpFwAMkAyrLhKpnEuzA=", "properties": {"@spider": "usps_collection_boxes", "addr:city": "DEL MAR", "addr:country": "US", "addr:full": "1436 CAMINO DEL MAR", "addr:postcode": "92014", "addr:state": "CA", "brand": "USPS", "collection_times": "Mo-Fr 15:00; Sa 13:00", "name": "USPS COLLECTION BOX - BLUE BOX", "note": "ON 12/24 AND 12/31, THIS BOX MAY BE COLLECTED AS EARLY AS 12 NOON.", "ref": "9201400004"}, "type": "Feature"}
{"geometry": {"coordinates": [-117.268227, 32.971657], "type": "Point"}, "id": "5GssI-81UU2cYk3vgoWyo_ObynE=", "properties": {"@spider": "usps_collection_boxes", "addr:city": "DEL MAR", "addr:country": "US", "addr:full": "201 28TH ST", "addr:postcode": "92014", "addr:state": "CA", "brand": "USPS", "collection_times": "Mo-Fr 14:45; Sa 13:00", "name": "USPS COLLECTION BOX - BLUE BOX", "note": "ON 12/24 AND 12/31, THIS BOX MAY BE COLLECTED AS EARLY AS 12 NOON.", "ref": "9201400005"}, "type": "Feature"}
{"geometry": {"coordinates": [-117.255435, 32.934386], "type": "Point"}, "id": "rwIkHOfftJJfc9UJYb-XkdK-PtY=", "properties": {"@spider": "usps_collection_boxes", "addr:city": "DEL MAR", "addr:country": "US", "addr:full": "2207 CARMEL VALLEY RD", "addr:postcode": "92014", "addr:state": "CA", "brand": "USPS", "collection_times": "Mo-Fr 15:00; Sa 14:00", "name": "USPS COLLECTION BOX - BLUE BOX", "note": "ON 12/24 AND 12/31, THIS BOX MAY BE COLLECTED AS EARLY AS 12 NOON.", "ref": "9201400006"}, "type": "Feature"}
{"geometry": {"coordinates": [-117.2468691582, 32.9489310507], "type": "Point"}, "id": "Dtg2kOh-acIrp_Kv8f-DUBwAZCQ=", "properties": {"@spider": "usps_collection_boxes", "addr:city": "DEL MAR", "addr:country": "US", "addr:full": "2606 DEL MAR HEIGHTS RD", "addr:postcode": "92014", "addr:state": "CA", "brand": "USPS", "collection_times": "Mo-Fr 15:15; Sa 13:00", "name": "USPS COLLECTION BOX - BLUE BOX", "note": "ON 12/24 AND 12/31, THIS BOX MAY BE COLLECTED AS EARLY AS 12 NOON.", "ref": "9201400007"}, "type": "Feature"}
{"geometry": {"coordinates": [-117.264793, 32.969763], "type": "Point"}, "id": "fwJQxIcL6htvYcDzsGDX8E2xxLI=", "properties": {"@spider": "usps_collection_boxes", "addr:city": "DEL MAR", "addr:country": "US", "addr:full": "2010 JIMMY DURANTE BLVD", "addr:postcode": "92014", "addr:state": "CA", "brand": "USPS", "collection_times": "Mo-Fr 14:45; Sa 13:00", "name": "USPS COLLECTION BOX - BLUE BOX", "note": "ON 12/24 AND 12/31, THIS BOX MAY BE COLLECTED AS EARLY AS 12 NOON.", "ref": "9201400008"}, "type": "Feature"}
{"geometry": {"coordinates": [-117.249787, 32.953804], "type": "Point"}, "id": "wh4r_ALTHUcxDVBpZnajXM1_qMc=", "properties": {"@spider": "usps_collection_boxes", "addr:city": "DEL MAR", "addr:country": "US", "addr:full": "14100 BOQUITA DR", "addr:postcode": "92014", "addr:state": "CA", "brand": "USPS", "collection_times": "Mo-Fr 15:15; Sa 13:00", "name": "USPS COLLECTION BOX - BLUE BOX", "note": "ON 12/24 AND 12/31, THIS BOX MAY BE COLLECTED AS EARLY AS 12 NOON.", "ref": "9201400009"}, "type": "Feature"}
{"geometry": {"coordinates": [-117.242585, 32.938331], "type": "Point"}, "id": "vNxUnbmYu1Skryz_U8MLBXNCFnM=", "properties": {"@spider": "usps_collection_boxes", "addr:city": "DEL MAR", "addr:country": "US", "addr:full": "13131 PORTOFINO DR", "addr:postcode": "92014", "addr:state": "CA", "brand": "USPS", "collection_times": "Mo-Fr 15:15; Sa 13:00", "name": "USPS COLLECTION BOX - BLUE BOX", "note": "ON 12/24 AND 12/31, THIS BOX MAY BE COLLECTED AS EARLY AS 12 NOON.", "ref": "9201400010"}, "type": "Feature"}
{"geometry": {"coordinates": [-117.262343, 32.94762], "type": "Point"}, "id": "Pgd2-WqO2y1_ZCdhfC0VuparchQ=", "properties": {"@spider": "usps_collection_boxes", "addr:city": "DEL MAR", "addr:country": "US", "addr:full": "391 STRATFORD CT", "addr:postcode": "92014", "addr:state": "CA", "brand": "USPS", "collection_times": "Mo-Fr 15:00; Sa 13:00", "name": "USPS COLLECTION BOX - BLUE BOX", "note": "ON 12/24 AND 12/31, THIS BOX MAY BE COLLECTED AS EARLY AS 12 NOON.", "ref": "9201400011"}, "type": "Feature"}
{"geometry": {"coordinates": [-117.248823, 32.980219], "type": "Point"}, "id": "y57010AYeP6hojlt2Wd5zfG_IKc=", "properties": {"@spider": "usps_collection_boxes", "addr:city": "DEL MAR", "addr:country": "US", "addr:full": "2751 VIA DE LA VALLE", "addr:postcode": "92014", "addr:state": "CA", "brand": "USPS", "collection_times": "Mo-Fr 15:00; Sa 13:00", "name": "USPS COLLECTION BOX - BLUE BOX", "note": "ON 12/24 AND 12/31, THIS BOX MAY BE COLLECTED AS EARLY AS 12 NOON.", "ref": "9201400012"}, "type": "Feature"}
{"geometry": {"coordinates": [-117.2217549283, 32.9837959415], "type": "Point"}, "id": "mMHjDOuvKlE7Q0rXJOYVAO2ndb4=", "properties": {"@spider": "usps_collection_boxes", "addr:city": "DEL MAR", "addr:country": "US", "addr:full": "14850 VIA DE LA VALLE", "addr:postcode": "92014", "addr:state": "CA", "brand": "USPS", "collection_times": "Mo-Fr 15:00; Sa 13:00", "name": "USPS COLLECTION BOX - BLUE BOX", "note": "ON 12/24 AND 12/31, THIS BOX MAY BE COLLECTED AS EARLY AS 12 NOON.", "ref": "9201400014"}, "type": "Feature"}
{"geometry": {"coordinates": [-117.2665473728, 32.9593038232], "type": "Point"}, "id": "aBhHEEhRVweWBLmjryfoV6D2aTU=", "properties": {"@spider": "usps_collection_boxes", "addr:city": "DEL MAR", "addr:country": "US", "addr:full": "122 15TH ST", "addr:postcode": "92014", "addr:state": "CA", "brand": "USPS", "collection_times": "Mo-Fr 17:30; Sa 15:00", "name": "USPS COLLECTION BOX - BLUE BOX", "note": "ON 12/24 AND 12/31, THIS BOX MAY BE COLLECTED AS EARLY AS 12 NOON.", "ref": "9201400015"}, "type": "Feature"}
{"geometry": {"coordinates": [-117.2665473728, 32.9593038232], "type": "Point"}, "id": "9Pje4gCYafc5ChX07QzAf24sslA=", "properties": {"@spider": "usps_collection_boxes", "addr:city": "DEL MAR", "addr:country": "US", "addr:full": "122 15TH ST", "addr:postcode": "92014", "addr:state": "CA", "brand": "USPS", "collection_times": "Mo-Fr 17:30; Sa 15:00", "name": "USPS COLLECTION BOX - BLUE BOX", "note": "ON 12/24 AND 12/31, THIS BOX MAY BE COLLECTED AS EARLY AS 12 NOON.", "ref": "9201400017"}, "type": "Feature"}
{"geometry": {"coordinates": [-117.246869158, 32.948931051], "type": "Point"}, "id": "1I20usgIL3n7_RBbalt4N93w2WE=", "properties": {"@spider": "usps_collection_boxes", "addr:city": "DEL MAR", "addr:country": "US", "addr:full": "2606 DEL MAR HEIGHTS RD", "addr:postcode": "92014", "addr:state": "CA", "brand": "USPS", "collection_times": "Mo-Fr 15:15; Sa 13:00", "name": "USPS COLLECTION BOX - BLUE BOX", "note": "ON 12/24 AND 12/31, THIS BOX MAY BE COLLECTED AS EARLY AS 12 NOON.", "ref": "9201400023"}, "type": "Feature"}
{"geometry": {"coordinates": [-117.243204, 32.932439], "type": "Point"}, "id": "GuVZflkWlrN_IRp_H5-l99pZSvA=", "properties": {"@spider": "usps_collection_boxes", "addr:city": "DEL MAR", "addr:country": "US", "addr:full": "12800 POINT DEL MAR WAY", "addr:postcode": "92014", "addr:state": "CA", "brand": "USPS", "collection_times": "Mo-Fr 15:00; Sa 14:00", "name": "USPS COLLECTION BOX - BLUE BOX", "note": "ON 12/24 AND 12/31, THIS BOX MAY BE COLLECTED AS EARLY AS 12 NOON.", "ref": "9201400031"}, "type": "Feature"}
{"geometry": {"coordinates": [-117.2665473728, 32.9593038232], "type": "Point"}, "id": "Q075o23QQFuH94FwnlNr3Zx3mxc=", "properties": {"@spider": "usps_collection_boxes", "addr:city": "DEL MAR", "addr:country": "US", "addr:full": "122 15TH ST", "addr:postcode": "92014", "addr:state": "CA", "brand": "USPS", "collection_times": "Mo-Fr 17:00", "name": "USPS COLLECTION BOX - PO LOBBY", "note": "ON 12/24 AND 12/31, THIS BOX MAY BE COLLECTED AS EARLY AS 12 NOON.", "ref": "9201400034"}, "type": "Feature"}
{"geometry": {"coordinates": [-116.926703832, 32.800145481], "type": "Point"}, "id": "65Plg6KlZeXe8qVhj8onEV1GeDg=", "properties": {"@spider": "usps_collection_boxes", "addr:city": "EL CAJON", "addr:country": "US", "addr:full": "1503 E MADISON AVE", "addr:postcode": "92019", "addr:state": "CA", "brand": "USPS", "collection_times": "Mo-Sa 14:00", "name": "USPS COLLECTION BOX - BLUE BOX", "note": "ON 12/24 AND 12/31, THIS BOX MAY BE COLLECTED AS EARLY AS 12 NOON.", "ref": "9201900001"}, "type": "Feature"}
{"geometry": {"coordinates": [-116.937386, 32.78748], "type": "Point"}, "id": "-DVjZzF5yocBTzjEdEQWZ_o7WgU=", "properties": {"@spider": "usps_collection_boxes", "addr:city": "EL CAJON", "addr:country": "US", "addr:full": "700 S 2ND ST", "addr:postcode": "92019", "addr:state": "CA", "brand": "USPS", "collection_times": "Mo-Sa 13:30", "name": "USPS COLLECTION BOX - BLUE BOX", "note": "ON 12/24 AND 12/31, THIS BOX MAY BE COLLECTED AS EARLY AS 12 NOON.", "ref": "9201900004"}, "type": "Feature"}
{"geometry": {"coordinates": [-116.933071, 32.792218], "type": "Point"}, "id": "0jpFiNSbcl8qRf1gXn6KowqmMRw=", "properties": {"@spider": "usps_collection_boxes", "addr:city": "EL CAJON", "addr:country": "US", "addr:full": "305 JAMACHA RD", "addr:postcode": "92019", "addr:state": "CA", "brand": "USPS", "collection_times": "Mo-Sa 14:00", "name": "USPS COLLECTION BOX - BLUE BOX", "note": "ON 12/24 AND 12/31, THIS BOX MAY BE COLLECTED AS EARLY AS 12 NOON.", "ref": "9201900007"}, "type": "Feature"}
{"geometry": {"coordinates": [-116.9278707043, 32.7844589578], "type": "Point"}, "id": "4ptPXqO26XAqieapKwU-V5KDsGY=", "properties": {"@spider": "usps_collection_boxes", "addr:city": "EL CAJON", "addr:country": "US", "addr:full": "851 JAMACHA RD", "addr:postcode": "92019", "addr:state": "CA", "brand": "USPS", "collection_times": "Mo-Sa 14:00", "name": "USPS COLLECTION BOX - BLUE BOX", "note": "ON 12/24 AND 12/31, THIS BOX MAY BE COLLECTED AS EARLY AS 12 NOON.", "ref": "9201900008"}, "type": "Feature"}
{"geometry": {"coordinates": [-116.941269, 32.740602], "type": "Point"}, "id": "p6VAg9wZK4Gsn-Hmn5IgWb7h01E=", "properties": {"@spider": "usps_collection_boxes", "addr:city": "EL CAJON", "addr:country": "US", "addr:full": "2990 JAMACHA RD", "addr:postcode": "92019", "addr:state": "CA", "brand": "USPS", "collection_times": "Mo-Sa 13:30", "name": "USPS COLLECTION BOX - BLUE BOX", "note": "ON 12/24 AND 12/31, THIS BOX MAY BE COLLECTED AS EARLY AS 12 NOON.", "ref": "9201900010"}, "type": "Feature"}
{"geometry": {"coordinates": [-116.833651, 32.785459], "type": "Point"}, "id": "fBvs1N3sEvXQaXgZNI1t7ZzKlmc=", "properties": {"@spider": "usps_collection_boxes", "addr:city": "EL CAJON", "addr:country": "US", "addr:full": "5469 DEHESA RD", "addr:postcode": "92019", "addr:state": "CA", "brand": "USPS", "collection_times": "Mo-Sa 11:00", "name": "USPS COLLECTION BOX - BLUE BOX", "ref": "9201900012"}, "type": "Feature"}
{"geometry": {"coordinates": [-116.9383689933, 32.7382799949], "type": "Point"}, "id": "ug1boK9OsAtFZBYsnZHSDPCXq74=", "properties": {"@spider": "usps_collection_boxes", "addr:city": "EL CAJON", "addr:country": "US", "addr:full": "2911 JAMACHA RD", "addr:postcode": "92019", "addr:state": "CA", "brand": "USPS", "collection_times": "Mo-Sa 13:30", "name": "USPS COLLECTION BOX - BLUE BOX", "note": "ON 12/24 AND 12/31, THIS BOX MAY BE COLLECTED AS EARLY AS 12 NOON.", "ref": "9201900015"}, "type": "Feature"}
{"geometry": {"coordinates": [-116.9578992147, 32.7799186553], "type": "Point"}, "id": "RW8p7ohbE-t_G5C5VS6jmBO3ffA=", "properties": {"@spider": "usps_collection_boxes", "addr:city": "EL CAJON", "addr:country": "US", "addr:full": "1135 AVOCADO AVE", "addr:postcode": "92020", "addr:state": "CA", "brand": "USPS", "collection_times": "Mo-Sa 09:30", "name": "USPS COLLECTION BOX - BLUE BOX", "ref": "9202000003"}, "type": "Feature"}
{"geometry": {"coordinates": [-116.975811, 32.781142], "type": "Point"}, "id": "yBYIjkBC9dl32c1aYvhMzIwWaJM=", "properties": {"@spider": "usps_collection_boxes", "addr:city": "EL CAJON", "addr:country": "US", "addr:full": "1099 W CHASE AVE", "addr:postcode": "92020", "addr:state": "CA", "brand": "USPS", "collection_times": "Mo-Sa 10:00", "name": "USPS COLLECTION BOX - BLUE BOX", "ref": "9202000005"}, "type": "Feature"}
{"geometry": {"coordinates": [-116.958908, 32.794], "type": "Point"}, "id": "7tIZiZMRvWzJ682wM1CPE9IYPlE=", "properties": {"@spider": "usps_collection_boxes", "addr:city": "EL CAJON", "addr:country": "US", "addr:full": "190 CLAYDELLE AVE", "addr:postcode": "92020", "addr:state": "CA", "brand": "USPS", "collection_times": "Mo-Sa 12:30", "name": "USPS COLLECTION BOX - BLUE BOX", "note": "ON 12/24 AND 12/31, THIS BOX MAY BE COLLECTED AS EARLY AS 12 NOON.", "ref": "9202000007"}, "type": "Feature"}
{"geometry": {"coordinates": [-116.957201, 32.800979], "type": "Point"}, "id": "6C8khFpl0dPcdcc_SHURgXkBpUY=", "properties": {"@spider": "usps_collection_boxes", "addr:city": "EL CAJON", "addr:country": "US", "addr:full": "440 E MADISON AVE", "addr:postcode": "92020", "addr:state": "CA", "brand": "USPS", "collection_times": "Mo-Sa 10:15", "name": "USPS COLLECTION BOX - BLUE BOX", "ref": "9202000008"}, "type": "Feature"}
{"geometry": {"coordinates": [-116.959056, 32.796388], "type": "Point"}, "id": "pKBDNBCEyBi-ZMrphZV2wIa6DU4=", "properties": {"@spider": "usps_collection_boxes", "addr:city": "EL CAJON", "addr:country": "US", "addr:full": "250 E MAIN ST", "addr:postcode": "92020", "addr:state": "CA", "brand": "USPS", "collection_times": "Mo-Fr 15:00; Sa 12:30", "name": "USPS COLLECTION BOX - BLUE BOX", "note": "ON 12/24 AND 12/31, THIS BOX MAY BE COLLECTED AS EARLY AS 12 NOON.", "ref": "9202000012"}, "type": "Feature"}
{"geometry": {"coordinates": [-116.97787, 32.821173], "type": "Point"}, "id": "2maZxxCk5BYbeUvXEryD3obTdRM=", "properties": {"@spider": "usps_collection_boxes", "addr:city": "EL CAJON", "addr:country": "US", "addr:full": "1200 BILLY MITCHELL DR", "addr:postcode": "92020", "addr:state": "CA", "brand": "USPS", "collection_times": "Mo-Fr 15:00; Sa 09:30", "name": "USPS COLLECTION BOX - BLUE BOX", "note": "ON 12/24 AND 12/31, THIS BOX MAY BE COLLECTED AS EARLY AS 12 NOON.", "ref": "9202000015"}, "type": "Feature"}
{"geometry": {"coordinates": [-117.002805, 32.800902], "type": "Point"}, "id": "wF4ufPLUjfgCTl2ihtd2w-BcY2M=", "properties": {"@spider": "usps_collection_boxes", "addr:city": "EL CAJON", "addr:country": "US", "addr:full": "2756 NAVAJO RD", "addr:postcode": "92020", "addr:state": "CA", "brand": "USPS", "collection_times": "Mo-Sa 13:00", "name": "USPS COLLECTION BOX - BLUE BOX", "note": "ON 12/24 AND 12/31, THIS BOX MAY BE COLLECTED AS EARLY AS 12 NOON.", "ref": "9202000018"}, "type": "Feature"}
{"geometry": {"coordinates": [-116.99725, 32.799201], "type": "Point"}, "id": "YlYAQH65mQJOBDxW7QRcMfBbEDU=", "properties": {"@spider": "usps_collection_boxes", "addr:city": "EL CAJON", "addr:country": "US", "addr:full": "2375 CHATHAM ST", "addr:postcode": "92020", "addr:state": "CA", "brand": "USPS", "collection_times": "Mo-Sa 13:00", "name": "USPS COLLECTION BOX - BLUE BOX", "note": "ON 12/24 AND 12/31, THIS BOX MAY BE COLLECTED AS EARLY AS 12 NOON.", "ref": "9202000022"}, "type": "Feature"}
{"geometry": {"coordinates": [-116.981942, 32.820547], "type": "Point"}, "id": "in-2pWbOAL1VofLVO7t3UTtahlg=", "properties": {"@spider": "usps_collection_boxes", "addr:city": "EL CAJON", "addr:country": "US", "addr:full": "1825 GILLESPIE WAY", "addr:postcode": "92020", "addr:state": "CA", "brand": "USPS", "collection_times": "Mo-Sa 15:00", "name": "USPS COLLECTION BOX - BLUE BOX", "note": "ON 12/24 AND 12/31, THIS BOX MAY BE COLLECTED AS EARLY AS 12 NOON.", "ref": "9202000025"}, "type": "Feature"}
{"geometry": {"coordinates": [-116.9733732128, 32.8060261676], "type": "Point"}, "id": "2A7mnOXHArNWfindO_z6bNuRAw4=", "properties": {"@spider": "usps_collection_boxes", "addr:city": "EL CAJON", "addr:country": "US", "addr:full": "808 JACKMAN ST", "addr:postcode": "92020", "addr:state": "CA", "brand": "USPS", "collection_times": "Mo-Sa 10:30", "name": "USPS COLLECTION BOX - BLUE BOX", "ref": "9202000028"}, "type": "Feature"}
{"geometry": {"coordinates": [-116.977517, 32.805922], "type": "Point"}, "id": "-V1dWOdGY7oXVL4E1UkQzjAGacE=", "properties": {"@spider": "usps_collection_boxes", "addr:city": "EL CAJON", "addr:country": "US", "addr:full": "1150 PETREE ST", "addr:postcode": "92020", "addr:state": "CA", "brand": "USPS", "collection_times": "Mo-Sa 10:30", "name": "USPS COLLECTION BOX - BLUE BOX", "ref": "9202000029"}, "type": "Feature"}
{"geometry": {"coordinates": [-116.973476, 32.812096], "type": "Point"}, "id": "EeUZ7BRItJX0mdHiEkVyxkEHhUM=", "properties": {"@spider": "usps_collection_boxes", "addr:city": "EL CAJON", "addr:country": "US", "addr:full": "898 VERNON WAY", "addr:postcode": "92020", "addr:state": "CA", "brand": "USPS", "collection_times": "Mo-Sa 15:00", "name": "USPS COLLECTION BOX - BLUE BOX", "note": "ON 12/24 AND 12/31, THIS BOX MAY BE COLLECTED AS EARLY AS 12 NOON.", "ref": "9202000032"}, "type": "Feature"}
{"geometry": {"coordinates": [-116.9656440415, 32.7918409849], "type": "Point"}, "id": "XlOj_5QkPJFn5jdcWyBYipkYXSY=", "properties": {"@spider": "usps_collection_boxes", "addr:city": "EL CAJON", "addr:country": "US", "addr:full": "355 VAN HOUTEN AVE", "addr:postcode": "92020", "addr:state": "CA", "brand": "USPS", "collection_times": "Mo-Fr 17:00; Sa 16:30", "name": "USPS COLLECTION BOX - EXPRESS", "note": "ON 12/24 AND 12/31, THIS BOX MAY BE COLLECTED AS EARLY AS 12 NOON.", "ref": "9202000034"}, "type": "Feature"}
{"geometry": {"coordinates": [-116.966649296, 32.800054901], "type": "Point"}, "id": "OHLQI-RxJhUrHEQLt_WPjbJrZ0A=", "properties": {"@spider": "usps_collection_boxes", "addr:city": "EL CAJON", "addr:country": "US", "addr:full": "450 CHAMBERS ST", "addr:postcode": "92020", "addr:state": "CA", "brand": "USPS", "collection_times": "Mo-Sa 10:30", "name": "USPS COLLECTION BOX - BLUE BOX", "ref": "9202000036"}, "type": "Feature"}
{"geometry": {"coordinates": [-116.963971, 32.800894], "type": "Point"}, "id": "sf0lHlvYmi_5sFLxj58npkc0HXQ=", "properties": {"@spider": "usps_collection_boxes", "addr:city": "EL CAJON", "addr:country": "US", "addr:full": "501 MONTROSE CT", "addr:postcode": "92020", "addr:state": "CA", "brand": "USPS", "collection_times": "Mo-Sa 14:00", "name": "USPS COLLECTION BOX - BLUE BOX", "note": "ON 12/24 AND 12/31, THIS BOX MAY BE COLLECTED AS EARLY AS 12 NOON.", "ref": "9202000037"}, "type": "Feature"}
{"geometry": {"coordinates": [-116.963082, 32.787569], "type": "Point"}, "id": "ZZSyVR-E6UrKdaiT6HT3i6EQBOk=", "properties": {"@spider": "usps_collection_boxes", "addr:city": "EL CAJON", "addr:country": "US", "addr:full": "121 W WASHINGTON AVE", "addr:postcode": "92020", "addr:state": "CA", "brand": "USPS", "collection_times": "Mo-Sa 10:00", "name": "USPS COLLECTION BOX - BLUE BOX", "ref": "9202000040"}, "type": "Feature"}
{"geometry": {"coordinates": [-116.967503, 32.806438], "type": "Point"}, "id": "lX2iBhjzfdkXPKAw6ND4H539lfQ=", "properties": {"@spider": "usps_collection_boxes", "addr:city": "EL CAJON", "addr:country": "US", "addr:full": "475 FLETCHER PKWY", "addr:postcode": "92020", "addr:state": "CA", "brand": "USPS", "collection_times": "Mo-Sa 10:00", "name": "USPS COLLECTION BOX - BLUE BOX", "ref": "9202000042"}, "type": "Feature"}
{"geometry": {"coordinates": [-116.970947, 32.809375], "type": "Point"}, "id": "tyn98fMsRIDzp8Y8C6Jm_PqU35w=", "properties": {"@spider": "usps_collection_boxes", "addr:city": "EL CAJON", "addr:country": "US", "addr:full": "1047 N JOHNSON AVE", "addr:postcode": "92020", "addr:state": "CA", "brand": "USPS", "collection_times": "Mo-Sa 15:00", "name": "USPS COLLECTION BOX - BLUE BOX", "note": "ON 12/24 AND 12/31, THIS BOX MAY BE COLLECTED AS EARLY AS 12 NOON.", "ref": "9202000044"}, "type": "Feature"}
{"geometry": {"coordinates": [-116.966098281, 32.791824], "type": "Point"}, "id": "EJ_EINvjVZaYAhclvhfvHvXfI60=", "properties": {"@spider": "usps_collection_boxes", "addr:city": "EL CAJON", "addr:country": "US", "addr:full": "355 VAN HOUTEN AVE", "addr:postcode": "92020", "addr:state": "CA", "brand": "USPS", "collection_times": "Mo-Fr 17:00; Sa 16:30", "name": "USPS COLLECTION BOX - BLUE BOX", "note": "ON 12/24 AND 12/31, THIS BOX MAY BE COLLECTED AS EARLY AS 12 NOON.", "ref": "9202000045"}, "type": "Feature"}
{"geometry": {"coordinates": [-116.966095, 32.792125], "type": "Point"}, "id": "5gVAOzYaHNrgM7qmD89MS0Sb12c=", "properties": {"@spider": "usps_collection_boxes", "addr:city": "EL CAJON", "addr:country": "US", "addr:full": "355 VAN HOUTEN AVE", "addr:postcode": "92020", "addr:state": "CA", "brand": "USPS", "collection_times": "Mo-Fr 17:00; Sa 16:30", "name": "USPS COLLECTION BOX - BLUE BOX", "note": "ON 12/24 AND 12/31, THIS BOX MAY BE COLLECTED AS EARLY AS 12 NOON.", "ref": "9202000046"}, "type": "Feature"}
{"geometry": {"coordinates": [-116.997009, 32.802979], "type": "Point"}, "id": "3epT6IDriXu5oSJsU5xMqlgvcRQ=", "properties": {"@spider": "usps_collection_boxes", "addr:city": "EL CAJON", "addr:country": "US", "addr:full": "2388 FLETCHER PKWY", "addr:postcode": "92020", "addr:state": "CA", "brand": "USPS", "collection_times": "Mo-Fr 15:00; Sa 13:00", "name": "USPS COLLECTION BOX - BLUE BOX", "note": "ON 12/24 AND 12/31, THIS BOX MAY BE COLLECTED AS EARLY AS 12 NOON.", "ref": "9202000054"}, "type": "Feature"}
{"geometry": {"coordinates": [-116.966820956, 32.818025769], "type": "Point"}, "id": "neuLtFDExe_hQhsoka6sDPDsgnA=", "properties": {"@spider": "usps_collection_boxes", "addr:city": "EL CAJON", "addr:country": "US", "addr:full": "365 W BRADLEY AVE", "addr:postcode": "92020", "addr:state": "CA", "brand": "USPS", "collection_times": "Mo-Sa 15:00", "name": "USPS COLLECTION BOX - EXPRESS", "note": "ON 12/24 AND 12/31, THIS BOX MAY BE COLLECTED AS EARLY AS 12 NOON.", "ref": "9202000056"}, "type": "Feature"}
{"geometry": {"coordinates": [-116.966095, 32.792125], "type": "Point"}, "id": "-BPS8Uz1ujm2ht8D73DlAq4t6MQ=", "properties": {"@spider": "usps_collection_boxes", "addr:city": "EL CAJON", "addr:country": "US", "addr:full": "355 VAN HOUTEN AVE", "addr:postcode": "92020", "addr:state": "CA", "brand": "USPS", "collection_times": "Mo-Fr 17:00; Sa 16:30", "name": "USPS COLLECTION BOX - BLUE BOX", "note": "ON 12/24 AND 12/31, THIS BOX MAY BE COLLECTED AS EARLY AS 12 NOON.", "ref": "9202000057"}, "type": "Feature"}
{"geometry": {"coordinates": [-116.966095, 32.792125], "type": "Point"}, "id": "zWv5riTD8b-bEuioH-dq-XDosII=", "properties": {"@spider": "usps_collection_boxes", "addr:city": "EL CAJON", "addr:country": "US", "addr:full": "355 VAN HOUTEN AVE", "addr:postcode": "92020", "addr:state": "CA", "brand": "USPS", "collection_times": "Mo-Fr 17:00; Sa 16:30", "name": "USPS COLLECTION BOX - BLUE BOX", "note": "ON 12/24 AND 12/31, THIS BOX MAY BE COLLECTED AS EARLY AS 12 NOON.", "ref": "9202000058"}, "type": "Feature"}
{"geometry": {"coordinates": [-116.981937, 32.820557], "type": "Point"}, "id": "oXLNaKG0YTx-Qj4usZosGB_MCm4=", "properties": {"@spider": "usps_collection_boxes", "addr:city": "EL CAJON", "addr:country": "US", "addr:full": "1825 GILLESPIE WAY", "addr:postcode": "92020", "addr:state": "CA", "brand": "USPS", "collection_times": "Mo-Sa 15:00", "name": "USPS COLLECTION BOX - BLUE BOX", "note": "ON 12/24 AND 12/31, THIS BOX MAY BE COLLECTED AS EARLY AS 12 NOON.", "ref": "9202000063"}, "type": "Feature"}
{"geometry": {"coordinates": [-116.9669515284, 32.7926655095], "type": "Point"}, "id": "Jecps7d2mfujhbrKM8FLJak6zZ8=", "properties": {"@spider": "usps_collection_boxes", "addr:city": "EL CAJON", "addr:country": "US", "addr:full": "401 W LEXINGTON AVE", "addr:postcode": "92020", "addr:state": "CA", "brand": "USPS", "collection_times": "Mo-Fr 17:00; Sa 16:30", "name": "USPS COLLECTION BOX - APC", "note": "ON 12/24 AND 12/31, THIS BOX MAY BE COLLECTED AS EARLY AS 12 NOON.", "ref": "9202000065"}, "type": "Feature"}
{"geometry": {"coordinates": [-116.959045, 32.79639], "type": "Point"}, "id": "sEMDHoU0oeW8Wb87zBGfJxizjMQ=", "properties": {"@spider": "usps_collection_boxes", "addr:city": "EL CAJON", "addr:country": "US", "addr:full": "250 E MAIN ST", "addr:postcode": "92020", "addr:state": "CA", "brand": "USPS", "collection_times": "Mo-Fr 15:00; Sa 12:30", "name": "USPS COLLECTION BOX - BLUE BOX", "note": "ON 12/24 AND 12/31, THIS BOX MAY BE COLLECTED AS EARLY AS 12 NOON.", "ref": "9202000067"}, "type": "Feature"}
{"geometry": {"coordinates": [-116.9669515284, 32.7926655095], "type": "Point"}, "id": "aIv6TlehiNxiyAi-fJcyuGDqTCk=", "properties": {"@spider": "usps_collection_boxes", "addr:city": "EL CAJON", "addr:country": "US", "addr:full": "401 W LEXINGTON AVE", "addr:postcode": "92020", "addr:state": "CA", "brand": "USPS", "collection_times": "Mo-Fr 17:00", "name": "USPS COLLECTION BOX - PO LOBBY", "note": "ON 12/24 AND 12/31, THIS BOX MAY BE COLLECTED AS EARLY AS 12 NOON.", "ref": "9202000077"}, "type": "Feature"}
{"geometry": {"coordinates": [-116.94542, 32.807591], "type": "Point"}, "id": "ogPfIEQn_2z222L08IJk2ejYUgw=", "properties": {"@spider": "usps_collection_boxes", "addr:city": "EL CAJON", "addr:country": "US", "addr:full": "1069 BROADWAY", "addr:postcode": "92021", "addr:state": "CA", "brand": "USPS", "collection_times": "Mo-Sa 13:30", "name": "USPS COLLECTION BOX - BLUE BOX", "note": "ON 12/24 AND 12/31, THIS BOX MAY BE COLLECTED AS EARLY AS 12 NOON.", "ref": "9202100003"}, "type": "Feature"}
{"geometry": {"coordinates": [-116.953742, 32.819252], "type": "Point"}, "id": "xvCx_8aVfiHXogodFpAZTA45fTA=", "properties": {"@spider": "usps_collection_boxes", "addr:city": "EL CAJON", "addr:country": "US", "addr:full": "450 E BRADLEY AVE", "addr:postcode": "92021", "addr:state": "CA", "brand": "USPS", "collection_times": "Mo-Sa 12:30", "name": "USPS COLLECTION BOX - BLUE BOX", "note": "ON 12/24 AND 12/31, THIS BOX MAY BE COLLECTED AS EARLY AS 12 NOON.", "ref": "9202100007"}, "type": "Feature"}
{"geometry": {"coordinates": [-116.918375, 32.813958], "type": "Point"}, "id": "2bojUWN7fYP1JRzzuakt-YilIVc=", "properties": {"@spider": "usps_collection_boxes", "addr:city": "EL CAJON", "addr:country": "US", "addr:full": "1746 E MAIN ST", "addr:postcode": "92021", "addr:state": "CA", "brand": "USPS", "collection_times": "Mo-Sa 14:30", "name": "USPS COLLECTION BOX - BLUE BOX", "note": "ON 12/24 AND 12/31, THIS BOX MAY BE COLLECTED AS EARLY AS 12 NOON.", "ref": "9202100012"}, "type": "Feature"}
{"geometry": {"coordinates": [-116.9206788905, 32.8132210515], "type": "Point"}, "id": "xsbjgKwvbSztbsd0Y6HO6tidfVo=", "properties": {"@spider": "usps_collection_boxes", "addr:city": "EL CAJON", "addr:country": "US", "addr:full": "1660 GREENFIELD DR", "addr:postcode": "92021", "addr:state": "CA", "brand": "USPS", "collection_times": "Mo-Sa 14:30", "name": "USPS COLLECTION BOX - BLUE BOX", "note": "ON 12/24 AND 12/31, THIS BOX MAY BE COLLECTED AS EARLY AS 12 NOON.", "ref": "9202100014"}, "type": "Feature"}
{"geometry": {"coordinates": [-116.934884, 32.820916], "type": "Point"}, "id": "6M4WMfRSCdm_X55cmjnaOXrQohA=", "properties": {"@spider": "usps_collection_boxes", "addr:city": "EL CAJON", "addr:country": "US", "addr:full": "1298 PEPPER DR", "addr:postcode": "92021", "addr:state": "CA", "brand": "USPS", "collection_times": "Mo-Sa 11:30", "name": "USPS COLLECTION BOX - BLUE BOX", "ref": "9202100018"}, "type": "Feature"}
{"geometry": {"coordinates": [-116.935633014, 32.806827], "type": "Point"}, "id": "0ki1TB7KKmkV9uA79wMQec4XWX4=", "properties": {"@spider": "usps_collection_boxes", "addr:city": "EL CAJON", "addr:country": "US", "addr:full": "867 N 2ND ST", "addr:postcode": "92021", "addr:state": "CA", "brand": "USPS", "collection_times": "Mo-Fr 17:00; Sa 16:00", "name": "USPS COLLECTION BOX - BLUE BOX", "note": "ON 12/24 AND 12/31, THIS BOX MAY BE COLLECTED AS EARLY AS 12 NOON.", "ref": "9202100020"}, "type": "Feature"}
{"geometry": {"coordinates": [-116.905798677, 32.832146967], "type": "Point"}, "id": "7coC61pAmBTgZKTU6oR_FTctlPQ=", "properties": {"@spider": "usps_collection_boxes", "addr:city": "EL CAJON", "addr:country": "US", "addr:full": "13288 HIGHWAY 8 BUSINESS", "addr:postcode": "92021", "addr:state": "CA", "brand": "USPS", "collection_times": "Mo-Sa 11:30", "name": "USPS COLLECTION BOX - BLUE BOX", "ref": "9202100022"}, "type": "Feature"}
{"geometry": {"coordinates": [-116.943309, 32.794841], "type": "Point"}, "id": "JcthzM_LiEfZxL6fl1ZrdLNcY_A=", "properties": {"@spider": "usps_collection_boxes", "addr:city": "EL CAJON", "addr:country": "US", "addr:full": "1143 E MAIN ST", "addr:postcode": "92021", "addr:state": "CA", "brand": "USPS", "collection_times": "Mo-Sa 11:00", "name": "USPS COLLECTION BOX - BLUE BOX", "ref": "9202100027"}, "type": "Feature"}
{"geometry": {"coordinates": [-116.9356292584, 32.8068019489], "type": "Point"}, "id": "W3VBRYksWHBpOs8f6wDaMSI-Wp4=", "properties": {"@spider": "usps_collection_boxes", "addr:city": "EL CAJON", "addr:country": "US", "addr:full": "867 N 2ND ST", "addr:postcode": "92021", "addr:state": "CA", "brand": "USPS", "collection_times": "Mo-Fr 17:00; Sa 16:00", "name": "USPS COLLECTION BOX - BLUE BOX", "note": "ON 12/24 AND 12/31, THIS BOX MAY BE COLLECTED AS EARLY AS 12 NOON.", "ref": "9202100029"}, "type": "Feature"}
{"geometry": {"coordinates": [-116.9356292584, 32.8068019489], "type": "Point"}, "id": "uXoEJ17x-xRQICjSX1FcsmbSSnk=", "properties": {"@spider": "usps_collection_boxes", "addr:city": "EL CAJON", "addr:country": "US", "addr:full": "867 N 2ND ST", "addr:postcode": "92021", "addr:state": "CA", "brand": "USPS", "collection_times": "Mo-Fr 17:00; Sa 16:00", "name": "USPS COLLECTION BOX - BLUE BOX", "note": "ON 12/24 AND 12/31, THIS BOX MAY BE COLLECTED AS EARLY AS 12 NOON.", "ref": "9202100030"}, "type": "Feature"}
{"geometry": {"coordinates": [-116.870842, 32.847369], "type": "Point"}, "id": "aMrb4BRGDRvbL6EZtZi7iyIHQeU=", "properties": {"@spider": "usps_collection_boxes", "addr:city": "EL CAJON", "addr:country": "US", "addr:full": "9302 BOND AVE", "addr:postcode": "92021", "addr:state": "CA", "brand": "USPS", "collection_times": "Mo-Sa 11:00", "name": "USPS COLLECTION BOX - BLUE BOX", "ref": "9202100035"}, "type": "Feature"}
{"geometry": {"coordinates": [-116.9356292584, 32.8068019489], "type": "Point"}, "id": "nYbPc-ht5gbua9lpOBJGTVhfEBs=", "properties": {"@spider": "usps_collection_boxes", "addr:city": "EL CAJON", "addr:country": "US", "addr:full": "867 N 2ND ST", "addr:postcode": "92021", "addr:state": "CA", "brand": "USPS", "collection_times": "Mo-Fr 17:00; Sa 16:00", "name": "USPS COLLECTION BOX - APC", "note": "ON 12/24 AND 12/31, THIS BOX MAY BE COLLECTED AS EARLY AS 12 NOON.", "ref": "9202100037"}, "type": "Feature"}
{"geometry": {"coordinates": [-116.933351, 32.821255], "type": "Point"}, "id": "cWel6mWpU62Hm7smZXKBo9HnSuQ=", "properties": {"@spider": "usps_collection_boxes", "addr:city": "EL CAJON", "addr:country": "US", "addr:full": "7907 CAJON RD", "addr:postcode": "92021", "addr:state": "CA", "brand": "USPS", "collection_times": "Mo-Sa 12:30", "name": "USPS COLLECTION BOX - BLUE BOX", "note": "ON 12/24 AND 12/31, THIS BOX MAY BE COLLECTED AS EARLY AS 12 NOON.", "ref": "9202100038"}, "type": "Feature"}
{"geometry": {"coordinates": [-116.9356292584, 32.8068019489], "type": "Point"}, "id": "dE3hYcbAwV5laVhuG6SCTJI87U8=", "properties": {"@spider": "usps_collection_boxes", "addr:city": "EL CAJON", "addr:country": "US", "addr:full": "867 N 2ND ST", "addr:postcode": "92021", "addr:state": "CA", "brand": "USPS", "collection_times": "Mo-Fr 17:00", "name": "USPS COLLECTION BOX - PO LOBBY", "note": "ON 12/24 AND 12/31, THIS BOX MAY BE COLLECTED AS EARLY AS 12 NOON.", "ref": "9202100049"}, "type": "Feature"}
{"geometry": {"coordinates": [-117.283774, 33.045975], "type": "Point"}, "id": "i5SDvdX9zXL5tslJtna-aYu6jHI=", "properties": {"@spider": "usps_collection_boxes", "addr:city": "ENCINITAS", "addr:country": "US", "addr:full": "171 CALLE MAGDALENA", "addr:postcode": "92024", "addr:state": "CA", "brand": "USPS", "collection_times": "Mo-Fr 15:00; Sa 14:00", "name": "USPS COLLECTION BOX - BLUE BOX", "note": "ON 12/24 AND 12/31, THIS BOX MAY BE COLLECTED AS EARLY AS 12 NOON.", "ref": "9202400004"}, "type": "Feature"}
{"geometry": {"coordinates": [-117.284024892, 33.036278395], "type": "Point"}, "id": "3fNL1NU8PP8zvG_Xh0NHtyvv0k4=", "properties": {"@spider": "usps_collection_boxes", "addr:city": "ENCINITAS", "addr:country": "US", "addr:full": "354 SANTA FE DR", "addr:postcode": "92024", "addr:state": "CA", "brand": "USPS", "collection_times": "Mo-Fr 15:00; Sa 14:00", "name": "USPS COLLECTION BOX - BLUE BOX", "note": "ON 12/24 AND 12/31, THIS BOX MAY BE COLLECTED AS EARLY AS 12 NOON.", "ref": "9202400005"}, "type": "Feature"}
{"geometry": {"coordinates": [-117.260491, 33.04489], "type": "Point"}, "id": "rELB2gIJFjoDfrdRbR9PJ8ldTLM=", "properties": {"@spider": "usps_collection_boxes", "addr:city": "ENCINITAS", "addr:country": "US", "addr:full": "1331 ENCINITAS BLVD", "addr:postcode": "92024", "addr:state": "CA", "brand": "USPS", "collection_times": "Mo-Fr 17:00; Sa 14:00", "name": "USPS COLLECTION BOX - BLUE BOX", "note": "ON 12/24 AND 12/31, THIS BOX MAY BE COLLECTED AS EARLY AS 12 NOON.", "ref": "9202400008"}, "type": "Feature"}
{"geometry": {"coordinates": [-117.239043, 33.037548], "type": "Point"}, "id": "twHtossBhWq8PgtwcP_0phXeKjU=", "properties": {"@spider": "usps_collection_boxes", "addr:city": "ENCINITAS", "addr:country": "US", "addr:full": "2230 ENCINITAS BLVD", "addr:postcode": "92024", "addr:state": "CA", "brand": "USPS", "collection_times": "Mo-Fr 15:00; Sa 14:00", "name": "USPS COLLECTION BOX - BLUE BOX", "note": "ON 12/24 AND 12/31, THIS BOX MAY BE COLLECTED AS EARLY AS 12 NOON.", "ref": "9202400013"}, "type": "Feature"}
{"geometry": {"coordinates": [-117.297009, 33.054493], "type": "Point"}, "id": "XPNrmjlEo6VJfLgXu3gWs2PkHM4=", "properties": {"@spider": "usps_collection_boxes", "addr:city": "ENCINITAS", "addr:country": "US", "addr:full": "300 N COAST HIGHWAY 101", "addr:postcode": "92024", "addr:state": "CA", "brand": "USPS", "collection_times": "Mo-Fr 15:00; Sa 14:00", "name": "USPS COLLECTION BOX - BLUE BOX", "note": "ON 12/24 AND 12/31, THIS BOX MAY BE COLLECTED AS EARLY AS 12 NOON.", "ref": "9202400014"}, "type": "Feature"}
{"geometry": {"coordinates": [-117.245316, 33.052877], "type": "Point"}, "id": "y2scGOIJ4gm6MwKFApPpvN905II=", "properties": {"@spider": "usps_collection_boxes", "addr:city": "ENCINITAS", "addr:country": "US", "addr:full": "1910 MOUNTAIN VISTA DR", "addr:postcode": "92024", "addr:state": "CA", "brand": "USPS", "collection_times": "Mo-Fr 15:00; Sa 14:00", "name": "USPS COLLECTION BOX - BLUE BOX", "note": "ON 12/24 AND 12/31, THIS BOX MAY BE COLLECTED AS EARLY AS 12 NOON.", "ref": "9202400015"}, "type": "Feature"}
{"geometry": {"coordinates": [-117.2595662031, 33.0484432014], "type": "Point"}, "id": "IA1RFx4RujGZP9v3IdI9KKasM24=", "properties": {"@spider": "usps_collection_boxes", "addr:city": "ENCINITAS", "addr:country": "US", "addr:full": "125 N EL CAMINO REAL", "addr:postcode": "92024", "addr:state": "CA", "brand": "USPS", "collection_times": "Mo-Fr 15:00; Sa 14:00", "name": "USPS COLLECTION BOX - BLUE BOX", "note": "ON 12/24 AND 12/31, THIS BOX MAY BE COLLECTED AS EARLY AS 12 NOON.", "ref": "9202400016"}, "type": "Feature"}
{"geometry": {"coordinates": [-117.300162, 33.059394], "type": "Point"}, "id": "6cRUcek3MbnBf2hbt2Zy7-NUEUo=", "properties": {"@spider": "usps_collection_boxes", "addr:city": "ENCINITAS", "addr:country": "US", "addr:full": "560 N COAST HIGHWAY 101", "addr:postcode": "92024", "addr:state": "CA", "brand": "USPS", "collection_times": "Mo-Fr 15:00; Sa 14:00", "name": "USPS COLLECTION BOX - BLUE BOX", "note": "ON 12/24 AND 12/31, THIS BOX MAY BE COLLECTED AS EARLY AS 12 NOON.", "ref": "9202400021"}, "type": "Feature"}
{"geometry": {"coordinates": [-117.257852, 33.044133], "type": "Point"}, "id": "ZGvN-s0AyeUklPOTMHS2sLjlUQc=", "properties": {"@spider": "usps_collection_boxes", "addr:city": "ENCINITAS", "addr:country": "US", "addr:full": "201 S EL CAMINO REAL", "addr:postcode": "92024", "addr:state": "CA", "brand": "USPS", "collection_times": "Mo-Fr 15:00; Sa 14:00", "name": "USPS COLLECTION BOX - BLUE BOX", "note": "ON 12/24 AND 12/31, THIS BOX MAY BE COLLECTED AS EARLY AS 12 NOON.", "ref": "9202400024"}, "type": "Feature"}
{"geometry": {"coordinates": [-117.29469, 33.045839], "type": "Point"}, "id": "ipa7b9BYjo899PjafN1ZSGARank=", "properties": {"@spider": "usps_collection_boxes", "addr:city": "ENCINITAS", "addr:country": "US", "addr:full": "149 W D ST", "addr:postcode": "92024", "addr:state": "CA", "brand": "USPS", "collection_times": "Mo-Fr 15:00; Sa 14:00", "name": "USPS COLLECTION BOX - BLUE BOX", "note": "ON 12/24 AND 12/31, THIS BOX MAY BE COLLECTED AS EARLY AS 12 NOON.", "ref": "9202400026"}, "type": "Feature"}
{"geometry": {"coordinates": [-117.294489, 33.044681], "type": "Point"}, "id": "IX7UB5Ud5kWjIns7nWTSnHg46O8=", "properties": {"@spider": "usps_collection_boxes", "addr:city": "ENCINITAS", "addr:country": "US", "addr:full": "130 W E ST", "addr:postcode": "92024", "addr:state": "CA", "brand": "USPS", "collection_times": "Mo-Fr 15:00; Sa 14:00", "name": "USPS COLLECTION BOX - BLUE BOX", "note": "ON 12/24 AND 12/31, THIS BOX MAY BE COLLECTED AS EARLY AS 12 NOON.", "ref": "9202400027"}, "type": "Feature"}
{"geometry": {"coordinates": [-117.294558, 33.043414], "type": "Point"}, "id": "I8zuX3ybhffbMfnKYq8CBVYphdY=", "properties": {"@spider": "usps_collection_boxes", "addr:city": "ENCINITAS", "addr:country": "US", "addr:full": "690 2ND ST", "addr:postcode": "92024", "addr:state": "CA", "brand": "USPS", "collection_times": "Mo-Fr 15:00; Sa 14:00", "name": "USPS COLLECTION BOX - BLUE BOX", "note": "ON 12/24 AND 12/31, THIS BOX MAY BE COLLECTED AS EARLY AS 12 NOON.", "ref": "9202400028"}, "type": "Feature"}
{"geometry": {"coordinates": [-117.278994, 33.046829], "type": "Point"}, "id": "Vbi81FxowpfNrdyYsq6ki4Bx11I=", "properties": {"@spider": "usps_collection_boxes", "addr:city": "ENCINITAS", "addr:country": "US", "addr:full": "560 WESTLAKE ST", "addr:postcode": "92024", "addr:state": "CA", "brand": "USPS", "collection_times": "Mo-Fr 15:00; Sa 14:00", "name": "USPS COLLECTION BOX - BLUE BOX", "note": "ON 12/24 AND 12/31, THIS BOX MAY BE COLLECTED AS EARLY AS 12 NOON.", "ref": "9202400029"}, "type": "Feature"}
{"geometry": {"coordinates": [-117.24736, 33.040847], "type": "Point"}, "id": "4FSzBHTLHtPKQzOa7uFAhlLqrrM=", "properties": {"@spider": "usps_collection_boxes", "addr:city": "ENCINITAS", "addr:country": "US", "addr:full": "174 WILLOWSPRING DR S", "addr:postcode": "92024", "addr:state": "CA", "brand": "USPS", "collection_times": "Mo-Sa 11:00", "name": "USPS COLLECTION BOX - BLUE BOX", "ref": "9202400030"}, "type": "Feature"}
{"geometry": {"coordinates": [-117.292898, 33.03981], "type": "Point"}, "id": "UdswyvIibGc-LeF5qip7Uz-hzHw=", "properties": {"@spider": "usps_collection_boxes", "addr:city": "ENCINITAS", "addr:country": "US", "addr:full": "891 S COAST HWY", "addr:postcode": "92024", "addr:state": "CA", "brand": "USPS", "collection_times": "Mo-Fr 15:00; Sa 14:00", "name": "USPS COLLECTION BOX - BLUE BOX", "note": "ON 12/24 AND 12/31, THIS BOX MAY BE COLLECTED AS EARLY AS 12 NOON.", "ref": "9202400036"}, "type": "Feature"}
{"geometry": {"coordinates": [-117.284237, 33.049959], "type": "Point"}, "id": "qI0C30ly8VucI6iasoKf6BVw5vI=", "properties": {"@spider": "usps_collection_boxes", "addr:city": "ENCINITAS", "addr:country": "US", "addr:full": "169 SAXONY RD", "addr:postcode": "92024", "addr:state": "CA", "brand": "USPS", "collection_times": "Mo-Fr 15:00; Sa 14:00", "name": "USPS COLLECTION BOX - BLUE BOX", "note": "ON 12/24 AND 12/31, THIS BOX MAY BE COLLECTED AS EARLY AS 12 NOON.", "ref": "9202400037"}, "type": "Feature"}
{"geometry": {"coordinates": [-117.260493, 33.04488], "type": "Point"}, "id": "XpDh2jZgB1oVxrPKRwKPFKDbU1Y=", "properties": {"@spider": "usps_collection_boxes", "addr:city": "ENCINITAS", "addr:country": "US", "addr:full": "1331 ENCINITAS BLVD", "addr:postcode": "92024", "addr:state": "CA", "brand": "USPS", "collection_times": "Mo-Fr 17:00; Sa 14:00", "name": "USPS COLLECTION BOX - BLUE BOX", "note": "ON 12/24 AND 12/31, THIS BOX MAY BE COLLECTED AS EARLY AS 12 NOON.", "ref": "9202400040"}, "type": "Feature"}
{"geometry": {"coordinates": [-117.282599, 33.04703], "type": "Point"}, "id": "_KPrdnS2JGIp3_q0RbudxdvPYeY=", "properties": {"@spider": "usps_collection_boxes", "addr:city": "ENCINITAS", "addr:country": "US", "addr:full": "479 ENCINITAS BLVD", "addr:postcode": "92024", "addr:state": "CA", "brand": "USPS", "collection_times": "Mo-Fr 15:00; Sa 14:00", "name": "USPS COLLECTION BOX - BLUE BOX", "note": "ON 12/24 AND 12/31, THIS BOX MAY BE COLLECTED AS EARLY AS 12 NOON.", "ref": "9202400043"}, "type": "Feature"}
{"geometry": {"coordinates": [-117.262585, 33.051409], "type": "Point"}, "id": "x9ibPVViasnBnmcWzFdjnrS_QyA=", "properties": {"@spider": "usps_collection_boxes", "addr:city": "ENCINITAS", "addr:country": "US", "addr:full": "262 N EL CAMINO REAL", "addr:postcode": "92024", "addr:state": "CA", "brand": "USPS", "collection_times": "Mo-Fr 15:00; Sa 14:00", "name": "USPS COLLECTION BOX - BLUE BOX", "note": "ON 12/24 AND 12/31, THIS BOX MAY BE COLLECTED AS EARLY AS 12 NOON.", "ref": "9202400048"}, "type": "Feature"}
{"geometry": {"coordinates": [-117.261739, 33.057085], "type": "Point"}, "id": "Pkq2MkzC-q-wIHVYslRUEkFa8-I=", "properties": {"@spider": "usps_collection_boxes", "addr:city": "ENCINITAS", "addr:country": "US", "addr:full": "477 N EL CAMINO REAL", "addr:postcode": "92024", "addr:state": "CA", "brand": "USPS", "collection_times": "Mo-Fr 15:00; Sa 14:00", "name": "USPS COLLECTION BOX - BLUE BOX", "note": "ON 12/24 AND 12/31, THIS BOX MAY BE COLLECTED AS EARLY AS 12 NOON.", "ref": "9202400050"}, "type": "Feature"}
{"geometry": {"coordinates": [-117.261729, 33.057101], "type": "Point"}, "id": "4yx2m8_XWI24wYAVmo4XM1CAF2Y=", "properties": {"@spider": "usps_collection_boxes", "addr:city": "ENCINITAS", "addr:country": "US", "addr:full": "477 N EL CAMINO REAL", "addr:postcode": "92024", "addr:state": "CA", "brand": "USPS", "collection_times": "Mo-Fr 15:00; Sa 14:00", "name": "USPS COLLECTION BOX - BLUE BOX", "note": "ON 12/24 AND 12/31, THIS BOX MAY BE COLLECTED AS EARLY AS 12 NOON.", "ref": "9202400051"}, "type": "Feature"}
{"geometry": {"coordinates": [-117.3039619596, 33.0691997885], "type": "Point"}, "id": "F_0XNYqSfqgaucEvC6ocn4fUyi4=", "properties": {"@spider": "usps_collection_boxes", "addr:city": "ENCINITAS", "addr:country": "US", "addr:full": "1160 N COAST HIGHWAY 101", "addr:postcode": "92024", "addr:state": "CA", "brand": "USPS", "collection_times": "Mo-Fr 17:00; Sa 14:00", "name": "USPS COLLECTION BOX - BLUE BOX", "note": "ON 12/24 AND 12/31, THIS BOX MAY BE COLLECTED AS EARLY AS 12 NOON.", "ref": "9202400052"}, "type": "Feature"}
{"geometry": {"coordinates": [-117.278984, 33.046833], "type": "Point"}, "id": "l2j1Co-ir6ss5JK8G93kys3sUuo=", "properties": {"@spider": "usps_collection_boxes", "addr:city": "ENCINITAS", "addr:country": "US", "addr:full": "560 WESTLAKE ST", "addr:postcode": "92024", "addr:state": "CA", "brand": "USPS", "collection_times": "Mo-Fr 15:00; Sa 14:00", "name": "USPS COLLECTION BOX - BLUE BOX", "note": "ON 12/24 AND 12/31, THIS BOX MAY BE COLLECTED AS EARLY AS 12 NOON.", "ref": "9202400054"}, "type": "Feature"}
{"geometry": {"coordinates": [-117.291573, 33.045578], "type": "Point"}, "id": "HkqwRrDwU-sYPCvhgS7xYRQ0VYs=", "properties": {"@spider": "usps_collection_boxes", "addr:city": "ENCINITAS", "addr:country": "US", "addr:full": "505 S VULCAN AVE", "addr:postcode": "92024", "addr:state": "CA", "brand": "USPS", "collection_times": "Mo-Fr 15:00", "name": "USPS COLLECTION BOX - BLUE BOX", "note": "ON 12/24 AND 12/31, THIS BOX MAY BE COLLECTED AS EARLY AS 12 NOON.", "ref": "9202400055"}, "type": "Feature"}
{"geometry": {"coordinates": [-117.260094, 33.05356], "type": "Point"}, "id": "4zrXEgHJwMc8-ePNlHG-jKQGDoE=", "properties": {"@spider": "usps_collection_boxes", "addr:city": "ENCINITAS", "addr:country": "US", "addr:full": "285 N EL CAMINO REAL", "addr:postcode": "92024", "addr:state": "CA", "brand": "USPS", "collection_times": "Mo-Fr 15:00; Sa 14:00", "name": "USPS COLLECTION BOX - BLUE BOX", "note": "ON 12/24 AND 12/31, THIS BOX MAY BE COLLECTED AS EARLY AS 12 NOON.", "ref": "9202400056"}, "type": "Feature"}
{"geometry": {"coordinates": [-117.3039619596, 33.0691997885], "type": "Point"}, "id": "lCotW1ZyBGOrllddT0j1Lb38boE=", "properties": {"@spider": "usps_collection_boxes", "addr:city": "ENCINITAS", "addr:country": "US", "addr:full": "1160 N COAST HIGHWAY 101", "addr:postcode": "92024", "addr:state": "CA", "brand": "USPS", "collection_times": "Mo-Fr 17:00; Sa 14:00", "name": "USPS COLLECTION BOX - BLUE BOX", "note": "ON 12/24 AND 12/31, THIS BOX MAY BE COLLECTED AS EARLY AS 12 NOON.", "ref": "9202400059"}, "type": "Feature"}
{"geometry": {"coordinates": [-117.2641169689, 33.0588119312], "type": "Point"}, "id": "y0fT3C-zSwWhiRlrCpvB0_vS1C4=", "properties": {"@spider": "usps_collection_boxes", "addr:city": "ENCINITAS", "addr:country": "US", "addr:full": "1150 GARDEN VIEW RD", "addr:postcode": "92024", "addr:state": "CA", "brand": "USPS", "collection_times": "Mo-Fr 17:00; Sa 16:15", "name": "USPS COLLECTION BOX - APC", "note": "ON 12/24 AND 12/31, THIS BOX MAY BE COLLECTED AS EARLY AS 12 NOON.", "ref": "9202400060"}, "type": "Feature"}
{"geometry": {"coordinates": [-117.2641169689, 33.0588119312], "type": "Point"}, "id": "r2U94V6OUHTWveAZqG7f7fBLN_U=", "properties": {"@spider": "usps_collection_boxes", "addr:city": "ENCINITAS", "addr:country": "US", "addr:full": "1150 GARDEN VIEW RD", "addr:postcode": "92024", "addr:state": "CA", "brand": "USPS", "collection_times": "Mo-Fr 17:00; Sa 16:15", "name": "USPS COLLECTION BOX - PO LOBBY", "note": "ON 12/24 AND 12/31, THIS BOX MAY BE COLLECTED AS EARLY AS 12 NOON.", "ref": "9202400062"}, "type": "Feature"}
{"geometry": {"coordinates": [-117.2641169689, 33.0588119312], "type": "Point"}, "id": "6gyBPnI0tQ7SQfr0AG5jgJeWnvw=", "properties": {"@spider": "usps_collection_boxes", "addr:city": "ENCINITAS", "addr:country": "US", "addr:full": "1150 GARDEN VIEW RD", "addr:postcode": "92024", "addr:state": "CA", "brand": "USPS", "collection_times": "Mo-Fr 17:00; Sa 16:15", "name": "USPS COLLECTION BOX - PO LOBBY", "note": "ON 12/24 AND 12/31, THIS BOX MAY BE COLLECTED AS EARLY AS 12 NOON.", "ref": "9202400063"}, "type": "Feature"}
{"geometry": {"coordinates": [-117.2641169689, 33.0588119312], "type": "Point"}, "id": "3Vh-VJFaJ6l9pE3M9s9LGuS2tEY=", "properties": {"@spider": "usps_collection_boxes", "addr:city": "ENCINITAS", "addr:country": "US", "addr:full": "1150 GARDEN VIEW RD", "addr:postcode": "92024", "addr:state": "CA", "brand": "USPS", "collection_times": "Mo-Fr 17:00; Sa 16:15", "name": "USPS COLLECTION BOX - BLUE BOX", "note": "ON 12/24 AND 12/31, THIS BOX MAY BE COLLECTED AS EARLY AS 12 NOON.", "ref": "9202400069"}, "type": "Feature"}
{"geometry": {"coordinates": [-117.29158, 33.04557], "type": "Point"}, "id": "_vAXH2sucM7MpyM49dB_VzekI3c=", "properties": {"@spider": "usps_collection_boxes", "addr:city": "ENCINITAS", "addr:country": "US", "addr:full": "505 S VULCAN AVE", "addr:postcode": "92024", "addr:state": "CA", "brand": "USPS", "collection_times": "Mo-Fr 15:00", "name": "USPS COLLECTION BOX - BLUE BOX", "note": "ON 12/24 AND 12/31, THIS BOX MAY BE COLLECTED AS EARLY AS 12 NOON.", "ref": "9202400070"}, "type": "Feature"}
{"geometry": {"coordinates": [-117.2641169689, 33.0588119312], "type": "Point"}, "id": "wAgWvzh_TJN54ZqIH4vBprp7ZbM=", "properties": {"@spider": "usps_collection_boxes", "addr:city": "ENCINITAS", "addr:country": "US", "addr:full": "1150 GARDEN VIEW RD", "addr:postcode": "92024", "addr:state": "CA", "brand": "USPS", "collection_times": "Mo-Fr 17:00; Sa 16:15", "name": "USPS COLLECTION BOX - BLUE BOX", "note": "ON 12/24 AND 12/31, THIS BOX MAY BE COLLECTED AS EARLY AS 12 NOON.", "ref": "9202400072"}, "type": "Feature"}
{"geometry": {"coordinates": [-117.264108894, 33.058809119], "type": "Point"}, "id": "whSBD_OWzaWmcz2jPEgw-Bl5Ubs=", "properties": {"@spider": "usps_collection_boxes", "addr:city": "ENCINITAS", "addr:country": "US", "addr:full": "1150 GARDEN VIEW RD", "addr:postcode": "92024", "addr:state": "CA", "brand": "USPS", "collection_times": "Mo-Fr 17:00; Sa 16:15", "name": "USPS COLLECTION BOX - BLUE BOX", "note": "ON 12/24 AND 12/31, THIS BOX MAY BE COLLECTED AS EARLY AS 12 NOON.", "ref": "9202400073"}, "type": "Feature"}
{"geometry": {"coordinates": [-117.2641169689, 33.0588119312], "type": "Point"}, "id": "FeyjLMgcDQlBcVBYeo1uwY8uXt4=", "properties": {"@spider": "usps_collection_boxes", "addr:city": "ENCINITAS", "addr:country": "US", "addr:full": "1150 GARDEN VIEW RD", "addr:postcode": "92024", "addr:state": "CA", "brand": "USPS", "collection_times": "Mo-Fr 17:00", "name": "USPS COLLECTION BOX - PO LOBBY", "note": "ON 12/24 AND 12/31, THIS BOX MAY BE COLLECTED AS EARLY AS 12 NOON.", "ref": "9202400086"}, "type": "Feature"}
{"geometry": {"coordinates": [-117.3039619596, 33.0691997885], "type": "Point"}, "id": "0OZNAFI7O6_N-JnPv3asCD2HFU8=", "properties": {"@spider": "usps_collection_boxes", "addr:city": "ENCINITAS", "addr:country": "US", "addr:full": "1160 N COAST HIGHWAY 101", "addr:postcode": "92024", "addr:state": "CA", "brand": "USPS", "collection_times": "Mo-Fr 16:30", "name": "USPS COLLECTION BOX - PO LOBBY", "note": "ON 12/24 AND 12/31, THIS BOX MAY BE COLLECTED AS EARLY AS 12 NOON.", "ref": "9202400087"}, "type": "Feature"}
{"geometry": {"coordinates": [-117.071137, 33.132967], "type": "Point"}, "id": "gbf5dNcHRmwOdahNGJn0qj66QXM=", "properties": {"@spider": "usps_collection_boxes", "addr:city": "ESCONDIDO", "addr:country": "US", "addr:full": "1084 E WASHINGTON AVE", "addr:postcode": "92025", "addr:state": "CA", "brand": "USPS", "collection_times": "Mo-Sa 12:00", "name": "USPS COLLECTION BOX - BLUE BOX", "ref": "9202500003"}, "type": "Feature"}
{"geometry": {"coordinates": [-117.0789782667, 33.1208074341], "type": "Point"}, "id": "cvjGiqFTPGhjZyZPhB3NViiI0T8=", "properties": {"@spider": "usps_collection_boxes", "addr:city": "ESCONDIDO", "addr:country": "US", "addr:full": "247 S KALMIA ST", "addr:postcode": "92025", "addr:state": "CA", "brand": "USPS", "collection_times": "Mo-Fr 15:00; Sa 13:00", "name": "USPS COLLECTION BOX - BLUE BOX", "note": "ON 12/24 AND 12/31, THIS BOX MAY BE COLLECTED AS EARLY AS 12 NOON.", "ref": "9202500007"}, "type": "Feature"}
{"geometry": {"coordinates": [-117.077019, 33.120393], "type": "Point"}, "id": "WFJ_S45cgIcGQCotR6b4npEODNM=", "properties": {"@spider": "usps_collection_boxes", "addr:city": "ESCONDIDO", "addr:country": "US", "addr:full": "333 S JUNIPER ST", "addr:postcode": "92025", "addr:state": "CA", "brand": "USPS", "collection_times": "Mo-Fr 16:30; Sa 13:00", "name": "USPS COLLECTION BOX - BLUE BOX", "note": "ON 12/24 AND 12/31, THIS BOX MAY BE COLLECTED AS EARLY AS 12 NOON.", "ref": "9202500008"}, "type": "Feature"}
{"geometry": {"coordinates": [-117.083457, 33.111042], "type": "Point"}, "id": "g9lmQVT8WSTydxBMZyExCKXecpc=", "properties": {"@spider": "usps_collection_boxes", "addr:city": "ESCONDIDO", "addr:country": "US", "addr:full": "610 W 9TH AVE", "addr:postcode": "92025", "addr:state": "CA", "brand": "USPS", "collection_times": "Mo-Fr 11:45; Sa 15:30", "name": "USPS COLLECTION BOX - BLUE BOX", "note": "ON 12/24 AND 12/31, THIS BOX MAY BE COLLECTED AS EARLY AS 12 NOON.", "ref": "9202500011"}, "type": "Feature"}
{"geometry": {"coordinates": [-117.076969778, 33.1252301496], "type": "Point"}, "id": "DKT1WSf7T0_8VqZVZ4PDH-NkHVs=", "properties": {"@spider": "usps_collection_boxes", "addr:city": "ESCONDIDO", "addr:country": "US", "addr:full": "488 E VALLEY PKWY", "addr:postcode": "92025", "addr:state": "CA", "brand": "USPS", "collection_times": "Mo-Fr 15:00; Sa 13:00", "name": "USPS COLLECTION BOX - BLUE BOX", "note": "ON 12/24 AND 12/31, THIS BOX MAY BE COLLECTED AS EARLY AS 12 NOON.", "ref": "9202500013"}, "type": "Feature"}
{"geometry": {"coordinates": [-117.076215, 33.122964], "type": "Point"}, "id": "tsVT2sT6XDyP7ikYOia1ZLy0Yv0=", "properties": {"@spider": "usps_collection_boxes", "addr:city": "ESCONDIDO", "addr:country": "US", "addr:full": "215 S HICKORY ST", "addr:postcode": "92025", "addr:state": "CA", "brand": "USPS", "collection_times": "Mo-Fr 15:00; Sa 13:00", "name": "USPS COLLECTION BOX - BLUE BOX", "note": "ON 12/24 AND 12/31, THIS BOX MAY BE COLLECTED AS EARLY AS 12 NOON.", "ref": "9202500025"}, "type": "Feature"}
{"geometry": {"coordinates": [-117.073685, 33.103362], "type": "Point"}, "id": "wCZ10xTrY9_NLBM6AbllaCQcnqs=", "properties": {"@spider": "usps_collection_boxes", "addr:city": "ESCONDIDO", "addr:country": "US", "addr:full": "349 W FELICITA AVE", "addr:postcode": "92025", "addr:state": "CA", "brand": "USPS", "collection_times": "Mo-Fr 15:45; Sa 15:30", "name": "USPS COLLECTION BOX - BLUE BOX", "note": "ON 12/24 AND 12/31, THIS BOX MAY BE COLLECTED AS EARLY AS 12 NOON.", "ref": "9202500029"}, "type": "Feature"}
{"geometry": {"coordinates": [-117.086073, 33.129684], "type": "Point"}, "id": "4JYsBwwRTFS4bYfSoKnmRDitJ58=", "properties": {"@spider": "usps_collection_boxes", "addr:city": "ESCONDIDO", "addr:country": "US", "addr:full": "125 W MISSION AVE", "addr:postcode": "92025", "addr:state": "CA", "brand": "USPS", "collection_times": "Mo-Fr 15:30; Sa 13:30", "name": "USPS COLLECTION BOX - BLUE BOX", "note": "ON 12/24 AND 12/31, THIS BOX MAY BE COLLECTED AS EARLY AS 12 NOON.", "ref": "9202500031"}, "type": "Feature"}
{"geometry": {"coordinates": [-117.1025525904, 33.1249086442], "type": "Point"}, "id": "ZjW1W6qCn93GjFeItWWpVOo-Hf8=", "properties": {"@spider": "usps_collection_boxes", "addr:city": "ESCONDIDO", "addr:country": "US", "addr:full": "1157 W MISSION AVE", "addr:postcode": "92025", "addr:state": "CA", "brand": "USPS", "collection_times": "Mo-Sa 17:00", "name": "USPS COLLECTION BOX - BLUE BOX", "note": "ON 12/24 AND 12/31, THIS BOX MAY BE COLLECTED AS EARLY AS 12 NOON.", "ref": "9202500034"}, "type": "Feature"}
{"geometry": {"coordinates": [-117.094815, 33.110647], "type": "Point"}, "id": "-ozWo7tNhbE_1yxg9gSphVqYz6s=", "properties": {"@spider": "usps_collection_boxes", "addr:city": "ESCONDIDO", "addr:country": "US", "addr:full": "800 LA TERRAZA BLVD", "addr:postcode": "92025", "addr:state": "CA", "brand": "USPS", "collection_times": "Mo-Fr 16:30; Sa 15:30", "name": "USPS COLLECTION BOX - BLUE BOX", "note": "ON 12/24 AND 12/31, THIS BOX MAY BE COLLECTED AS EARLY AS 12 NOON.", "ref": "9202500041"}, "type": "Feature"}
{"geometry": {"coordinates": [-117.1025525904, 33.1249086442], "type": "Point"}, "id": "qrST8GKpdobTK57Z4NJ7ibOLnis=", "properties": {"@spider": "usps_collection_boxes", "addr:city": "ESCONDIDO", "addr:country": "US", "addr:full": "1157 W MISSION AVE", "addr:postcode": "92025", "addr:state": "CA", "brand": "USPS", "collection_times": "Mo-Sa 17:00", "name": "USPS COLLECTION BOX - BLUE BOX", "note": "ON 12/24 AND 12/31, THIS BOX MAY BE COLLECTED AS EARLY AS 12 NOON.", "ref": "9202500047"}, "type": "Feature"}
{"geometry": {"coordinates": [-117.1025525904, 33.1249086442], "type": "Point"}, "id": "Zozb2GTP8ascZxXF-jK4lJPGBSY=", "properties": {"@spider": "usps_collection_boxes", "addr:city": "ESCONDIDO", "addr:country": "US", "addr:full": "1157 W MISSION AVE", "addr:postcode": "92025", "addr:state": "CA", "brand": "USPS", "collection_times": "Mo-Sa 17:00", "name": "USPS COLLECTION BOX - EXPRESS", "note": "ON 12/24 AND 12/31, THIS BOX MAY BE COLLECTED AS EARLY AS 12 NOON.", "ref": "9202500052"}, "type": "Feature"}
{"geometry": {"coordinates": [-117.0864866069, 33.1234813464], "type": "Point"}, "id": "jmjzRLJq-ro3bFGP_StS71nLC7Q=", "properties": {"@spider": "usps_collection_boxes", "addr:city": "ESCONDIDO", "addr:country": "US", "addr:full": "403 N ESCONDIDO BLVD", "addr:postcode": "92025", "addr:state": "CA", "brand": "USPS", "collection_times": "Mo-Sa 17:00", "name": "USPS COLLECTION BOX - BLUE BOX", "note": "ON 12/24 AND 12/31, THIS BOX MAY BE COLLECTED AS EARLY AS 12 NOON.", "ref": "9202500059"}, "type": "Feature"}
{"geometry": {"coordinates": [-117.0864866069, 33.1234813464], "type": "Point"}, "id": "Yg8U5p8Flw1e2mCd2PSWntvHy-A=", "properties": {"@spider": "usps_collection_boxes", "addr:city": "ESCONDIDO", "addr:country": "US", "addr:full": "403 N ESCONDIDO BLVD", "addr:postcode": "92025", "addr:state": "CA", "brand": "USPS", "collection_times": "Mo-Sa 17:00", "name": "USPS COLLECTION BOX - BLUE BOX", "note": "ON 12/24 AND 12/31, THIS BOX MAY BE COLLECTED AS EARLY AS 12 NOON.", "ref": "9202500060"}, "type": "Feature"}
{"geometry": {"coordinates": [-117.07204, 33.090652], "type": "Point"}, "id": "wAGCs4LYdaUCq_zkZer0hv2DWaM=", "properties": {"@spider": "usps_collection_boxes", "addr:city": "ESCONDIDO", "addr:country": "US", "addr:full": "2430 S ESCONDIDO BLVD", "addr:postcode": "92025", "addr:state": "CA", "brand": "USPS", "collection_times": "Mo-Sa 15:30", "name": "USPS COLLECTION BOX - BLUE BOX", "note": "ON 12/24 AND 12/31, THIS BOX MAY BE COLLECTED AS EARLY AS 12 NOON.", "ref": "9202500064"}, "type": "Feature"}
{"geometry": {"coordinates": [-117.077021, 33.12039], "type": "Point"}, "id": "qCPRLAvY8uT7MNW2iz_yoytP3WA=", "properties": {"@spider": "usps_collection_boxes", "addr:city": "ESCONDIDO", "addr:country": "US", "addr:full": "333 S JUNIPER ST", "addr:postcode": "92025", "addr:state": "CA", "brand": "USPS", "collection_times": "Mo-Fr 16:30; Sa 13:00", "name": "USPS COLLECTION BOX - BLUE BOX", "note": "ON 12/24 AND 12/31, THIS BOX MAY BE COLLECTED AS EARLY AS 12 NOON.", "ref": "9202500067"}, "type": "Feature"}
{"geometry": {"coordinates": [-117.0864866069, 33.1234813464], "type": "Point"}, "id": "_Y3qiMx8K-ihbgIgKa4kdIGoPW0=", "properties": {"@spider": "usps_collection_boxes", "addr:city": "ESCONDIDO", "addr:country": "US", "addr:full": "403 N ESCONDIDO BLVD", "addr:postcode": "92025", "addr:state": "CA", "brand": "USPS", "collection_times": "Mo-Sa 17:00", "name": "USPS COLLECTION BOX - APC", "note": "ON 12/24 AND 12/31, THIS BOX MAY BE COLLECTED AS EARLY AS 12 NOON.", "ref": "9202500069"}, "type": "Feature"}
{"geometry": {"coordinates": [-117.077219, 33.125794], "type": "Point"}, "id": "MFzbjVZqY62-Ay_CFPFx1VhEyic=", "properties": {"@spider": "usps_collection_boxes", "addr:city": "ESCONDIDO", "addr:country": "US", "addr:full": "488 E VALLEY PKWY", "addr:postcode": "92025", "addr:state": "CA", "brand": "USPS", "collection_times": "Mo-Fr 15:00; Sa 13:00", "name": "USPS COLLECTION BOX - BLUE BOX", "note": "ON 12/24 AND 12/31, THIS BOX MAY BE COLLECTED AS EARLY AS 12 NOON.", "ref": "9202500072"}, "type": "Feature"}
{"geometry": {"coordinates": [-117.0864866069, 33.1234813464], "type": "Point"}, "id": "rwiycu2ffl2KaVD7U58YQt33L_4=", "properties": {"@spider": "usps_collection_boxes", "addr:city": "ESCONDIDO", "addr:country": "US", "addr:full": "403 N ESCONDIDO BLVD", "addr:postcode": "92025", "addr:state": "CA", "brand": "USPS", "collection_times": "Mo-Sa 17:00", "name": "USPS COLLECTION BOX - BLUE BOX", "note": "ON 12/24 AND 12/31, THIS BOX MAY BE COLLECTED AS EARLY AS 12 NOON.", "ref": "9202500075"}, "type": "Feature"}
{"geometry": {"coordinates": [-117.1025525904, 33.1249086442], "type": "Point"}, "id": "sMOVH6aNcjgoMEOYFTFzPqPXqvE=", "properties": {"@spider": "usps_collection_boxes", "addr:city": "ESCONDIDO", "addr:country": "US", "addr:full": "1157 W MISSION AVE", "addr:postcode": "92025", "addr:state": "CA", "brand": "USPS", "collection_times": "Mo-Sa 17:00", "name": "USPS COLLECTION BOX - APC", "note": "ON 12/24 AND 12/31, THIS BOX MAY BE COLLECTED AS EARLY AS 12 NOON.", "ref": "9202500077"}, "type": "Feature"}
{"geometry": {"coordinates": [-117.071008, 33.097719], "type": "Point"}, "id": "c9HF5ybKJfVzWsfYmuJj8b42eBs=", "properties": {"@spider": "usps_collection_boxes", "addr:city": "ESCONDIDO", "addr:country": "US", "addr:full": "2065 S ESCONDIDO BLVD", "addr:postcode": "92025", "addr:state": "CA", "brand": "USPS", "collection_times": "Mo-Sa 15:30", "name": "USPS COLLECTION BOX - BLUE BOX", "note": "ON 12/24 AND 12/31, THIS BOX MAY BE COLLECTED AS EARLY AS 12 NOON.", "ref": "9202500081"}, "type": "Feature"}
{"geometry": {"coordinates": [-117.1025525904, 33.1249086442], "type": "Point"}, "id": "756-bQVbAxtGwLswlqBMiud9brQ=", "properties": {"@spider": "usps_collection_boxes", "addr:city": "ESCONDIDO", "addr:country": "US", "addr:full": "1157 W MISSION AVE", "addr:postcode": "92025", "addr:state": "CA", "brand": "USPS", "collection_times": "Mo-Fr 17:00", "name": "USPS COLLECTION BOX - PO LOBBY", "note": "ON 12/24 AND 12/31, THIS BOX MAY BE COLLECTED AS EARLY AS 12 NOON.", "ref": "9202500088"}, "type": "Feature"}
{"geometry": {"coordinates": [-117.0864866069, 33.1234813464], "type": "Point"}, "id": "hy8XvXIV169NFPR9Z1BRxVdNwL8=", "properties": {"@spider": "usps_collection_boxes", "addr:city": "ESCONDIDO", "addr:country": "US", "addr:full": "403 N ESCONDIDO BLVD", "addr:postcode": "92025", "addr:state": "CA", "brand": "USPS", "collection_times": "Mo-Fr 17:00", "name": "USPS COLLECTION BOX - PO LOBBY", "note": "ON 12/24 AND 12/31, THIS BOX MAY BE COLLECTED AS EARLY AS 12 NOON.", "ref": "9202500089"}, "type": "Feature"}
{"geometry": {"coordinates": [-117.124998, 33.155035], "type": "Point"}, "id": "-9zCJzd3f-ac_U1lsTl6yPK4mUU=", "properties": {"@spider": "usps_collection_boxes", "addr:city": "ESCONDIDO", "addr:country": "US", "addr:full": "1866 W EL NORTE PKWY", "addr:postcode": "92026", "addr:state": "CA", "brand": "USPS", "collection_times": "Mo-Fr 11:00; Sa 14:00", "name": "USPS COLLECTION BOX - BLUE BOX", "note": "ON 12/24 AND 12/31, THIS BOX MAY BE COLLECTED AS EARLY AS 12 NOON.", "ref": "9202600001"}, "type": "Feature"}
{"geometry": {"coordinates": [-117.142602, 33.2323], "type": "Point"}, "id": "Zm9d1oNqp-1VOOCpCc2BKQ6d9N4=", "properties": {"@spider": "usps_collection_boxes", "addr:city": "ESCONDIDO", "addr:country": "US", "addr:full": "8860 LAWRENCE WELK DR", "addr:postcode": "92026", "addr:state": "CA", "brand": "USPS", "collection_times": "Mo-Sa 10:00", "name": "USPS COLLECTION BOX - BLUE BOX", "ref": "9202600002"}, "type": "Feature"}
{"geometry": {"coordinates": [-117.100292, 33.159165], "type": "Point"}, "id": "zvTqVPiFPFkj5Yqj9hvVhKXAGcc=", "properties": {"@spider": "usps_collection_boxes", "addr:city": "ESCONDIDO", "addr:country": "US", "addr:full": "600 W COUNTRY CLUB LN", "addr:postcode": "92026", "addr:state": "CA", "brand": "USPS", "collection_times": "Mo-Fr 11:00; Sa 14:00", "name": "USPS COLLECTION BOX - BLUE BOX", "note": "ON 12/24 AND 12/31, THIS BOX MAY BE COLLECTED AS EARLY AS 12 NOON.", "ref": "9202600007"}, "type": "Feature"}
{"geometry": {"coordinates": [-117.140704, 33.22576], "type": "Point"}, "id": "kuNyOLYYI5zXdSPozY8VYiHdT2g=", "properties": {"@spider": "usps_collection_boxes", "addr:city": "ESCONDIDO", "addr:country": "US", "addr:full": "8975 LAWRENCE WELK DR", "addr:postcode": "92026", "addr:state": "CA", "brand": "USPS", "collection_times": "Mo-Sa 11:00", "name": "USPS COLLECTION BOX - BLUE BOX", "ref": "9202600008"}, "type": "Feature"}
{"geometry": {"coordinates": [-117.109164, 33.21564], "type": "Point"}, "id": "5oudkoB2Cop4nkywRec3CWxWBpw=", "properties": {"@spider": "usps_collection_boxes", "addr:city": "ESCONDIDO", "addr:country": "US", "addr:full": "10300 MEADOW GLEN WAY E", "addr:postcode": "92026", "addr:state": "CA", "brand": "USPS", "collection_times": "Mo-Sa 10:00", "name": "USPS COLLECTION BOX - BLUE BOX", "ref": "9202600009"}, "type": "Feature"}
{"geometry": {"coordinates": [-117.094193, 33.143062], "type": "Point"}, "id": "BKcWOffHgoelr1Mj4sY4a7p90G8=", "properties": {"@spider": "usps_collection_boxes", "addr:city": "ESCONDIDO", "addr:country": "US", "addr:full": "322 W EL NORTE PKWY", "addr:postcode": "92026", "addr:state": "CA", "brand": "USPS", "collection_times": "Mo-Fr 15:00; Sa 14:00", "name": "USPS COLLECTION BOX - BLUE BOX", "note": "ON 12/24 AND 12/31, THIS BOX MAY BE COLLECTED AS EARLY AS 12 NOON.", "ref": "9202600010"}, "type": "Feature"}
{"geometry": {"coordinates": [-117.098803, 33.144385], "type": "Point"}, "id": "lPHaAb2GFP1bqttu5KsUm8nMmMY=", "properties": {"@spider": "usps_collection_boxes", "addr:city": "ESCONDIDO", "addr:country": "US", "addr:full": "525 W EL NORTE PKWY", "addr:postcode": "92026", "addr:state": "CA", "brand": "USPS", "collection_times": "Mo-Fr 11:00; Sa 14:00", "name": "USPS COLLECTION BOX - BLUE BOX", "note": "ON 12/24 AND 12/31, THIS BOX MAY BE COLLECTED AS EARLY AS 12 NOON.", "ref": "9202600011"}, "type": "Feature"}
{"geometry": {"coordinates": [-117.155121, 33.256646], "type": "Point"}, "id": "jB4ZaW9NK7hXR4jLLkbuGRK2SA0=", "properties": {"@spider": "usps_collection_boxes", "addr:city": "ESCONDIDO", "addr:country": "US", "addr:full": "30012 OLD HIGHWAY 395", "addr:postcode": "92026", "addr:state": "CA", "brand": "USPS", "collection_times": "Mo-Sa 11:00", "name": "USPS COLLECTION BOX - BLUE BOX", "ref": "9202600013"}, "type": "Feature"}
{"geometry": {"coordinates": [-117.043860109, 33.141140511], "type": "Point"}, "id": "MI0CoEKHC79RqiLOv3J8zvIcfhA=", "properties": {"@spider": "usps_collection_boxes", "addr:city": "ESCONDIDO", "addr:country": "US", "addr:full": "2401 E VALLEY PKWY", "addr:postcode": "92027", "addr:state": "CA", "brand": "USPS", "collection_times": "Mo-Fr 15:15; Sa 14:30", "name": "USPS COLLECTION BOX - BLUE BOX", "note": "ON 12/24 AND 12/31, THIS BOX MAY BE COLLECTED AS EARLY AS 12 NOON.", "ref": "9202700007"}, "type": "Feature"}
{"geometry": {"coordinates": [-117.072911, 33.146192], "type": "Point"}, "id": "X-_EnoiNbImy49AABbMgpeDu6p0=", "properties": {"@spider": "usps_collection_boxes", "addr:city": "ESCONDIDO", "addr:country": "US", "addr:full": "1417 E EL NORTE PKWY", "addr:postcode": "92027", "addr:state": "CA", "brand": "USPS", "collection_times": "Mo-Fr 11:00; Sa 14:30", "name": "USPS COLLECTION BOX - BLUE BOX", "note": "ON 12/24 AND 12/31, THIS BOX MAY BE COLLECTED AS EARLY AS 12 NOON.", "ref": "9202700009"}, "type": "Feature"}
{"geometry": {"coordinates": [-117.0561463309, 33.1355761896], "type": "Point"}, "id": "aJuqgQcf3fWCUI_ao5Pk7Ty6CZI=", "properties": {"@spider": "usps_collection_boxes", "addr:city": "ESCONDIDO", "addr:country": "US", "addr:full": "1770 E VALLEY PKWY", "addr:postcode": "92027", "addr:state": "CA", "brand": "USPS", "collection_times": "Mo-Sa 17:00", "name": "USPS COLLECTION BOX - BLUE BOX", "note": "ON 12/24 AND 12/31, THIS BOX MAY BE COLLECTED AS EARLY AS 12 NOON.", "ref": "9202700015"}, "type": "Feature"}
{"geometry": {"coordinates": [-117.0561463309, 33.1355761896], "type": "Point"}, "id": "ObzPOYf78TjwlOD-9E2ZzYXtkAw=", "properties": {"@spider": "usps_collection_boxes", "addr:city": "ESCONDIDO", "addr:country": "US", "addr:full": "1770 E VALLEY PKWY", "addr:postcode": "92027", "addr:state": "CA", "brand": "USPS", "collection_times": "Mo-Sa 17:00", "name": "USPS COLLECTION BOX - BLUE BOX", "note": "ON 12/24 AND 12/31, THIS BOX MAY BE COLLECTED AS EARLY AS 12 NOON.", "ref": "9202700016"}, "type": "Feature"}
{"geometry": {"coordinates": [-117.0561463309, 33.1355761896], "type": "Point"}, "id": "j6_d0KNl-Fmt9O6s6afHTvBYAnQ=", "properties": {"@spider": "usps_collection_boxes", "addr:city": "ESCONDIDO", "addr:country": "US", "addr:full": "1770 E VALLEY PKWY", "addr:postcode": "92027", "addr:state": "CA", "brand": "USPS", "collection_times": "Mo-Sa 17:00", "name": "USPS COLLECTION BOX - EXPRESS", "note": "ON 12/24 AND 12/31, THIS BOX MAY BE COLLECTED AS EARLY AS 12 NOON.", "ref": "9202700017"}, "type": "Feature"}
{"geometry": {"coordinates": [-117.006204, 33.11172], "type": "Point"}, "id": "ZrKeWlS3-tKqk6YWARzg-9qIxX0=", "properties": {"@spider": "usps_collection_boxes", "addr:city": "ESCONDIDO", "addr:country": "US", "addr:full": "3101 HIDDEN OAKS LN", "addr:postcode": "92027", "addr:state": "CA", "brand": "USPS", "collection_times": "Mo-Sa 11:00", "name": "USPS COLLECTION BOX - BLUE BOX", "ref": "9202700023"}, "type": "Feature"}
{"geometry": {"coordinates": [-117.0561463309, 33.1355761896], "type": "Point"}, "id": "-1afpn1tgujHD8kpI3ALDlq3U3U=", "properties": {"@spider": "usps_collection_boxes", "addr:city": "ESCONDIDO", "addr:country": "US", "addr:full": "1770 E VALLEY PKWY", "addr:postcode": "92027", "addr:state": "CA", "brand": "USPS", "collection_times": "Mo-Fr 17:00", "name": "USPS COLLECTION BOX - PO LOBBY", "note": "ON 12/24 AND 12/31, THIS BOX MAY BE COLLECTED AS EARLY AS 12 NOON.", "ref": "9202700029"}, "type": "Feature"}
{"geometry": {"coordinates": [-117.251477, 33.382244], "type": "Point"}, "id": "o8OzpiraIPHCC3nx6Pi694A8oA0=", "properties": {"@spider": "usps_collection_boxes", "addr:city": "FALLBROOK", "addr:country": "US", "addr:full": "100 N MAIN AVE", "addr:postcode": "92028", "addr:state": "CA", "brand": "USPS", "collection_times": "Mo-Sa 14:00", "name": "USPS COLLECTION BOX - BLUE BOX", "note": "ON 12/24 AND 12/31, THIS BOX MAY BE COLLECTED AS EARLY AS 12 NOON.", "ref": "9202800001"}, "type": "Feature"}
{"geometry": {"coordinates": [-117.25542, 33.37215], "type": "Point"}, "id": "myHhQnN0ozLgsITYMwECPktT4XU=", "properties": {"@spider": "usps_collection_boxes", "addr:city": "FALLBROOK", "addr:country": "US", "addr:full": "1131 S MISSION RD", "addr:postcode": "92028", "addr:state": "CA", "brand": "USPS", "collection_times": "Mo-Sa 14:00", "name": "USPS COLLECTION BOX - BLUE BOX", "note": "ON 12/24 AND 12/31, THIS BOX MAY BE COLLECTED AS EARLY AS 12 NOON.", "ref": "9202800004"}, "type": "Feature"}
{"geometry": {"coordinates": [-117.250183, 33.368882], "type": "Point"}, "id": "9yT7dWdGZ24tE0dKqB0kcf7V-9Q=", "properties": {"@spider": "usps_collection_boxes", "addr:city": "FALLBROOK", "addr:country": "US", "addr:full": "1328 S MISSION RD", "addr:postcode": "92028", "addr:state": "CA", "brand": "USPS", "collection_times": "Mo-Sa 14:00", "name": "USPS COLLECTION BOX - BLUE BOX", "note": "ON 12/24 AND 12/31, THIS BOX MAY BE COLLECTED AS EARLY AS 12 NOON.", "ref": "9202800005"}, "type": "Feature"}
{"geometry": {"coordinates": [-117.249153, 33.363208], "type": "Point"}, "id": "daS6dCW0yfvDdyfqaxwlItW8NWk=", "properties": {"@spider": "usps_collection_boxes", "addr:city": "FALLBROOK", "addr:country": "US", "addr:full": "1630 S MISSION RD", "addr:postcode": "92028", "addr:state": "CA", "brand": "USPS", "collection_times": "Mo-Sa 14:00", "name": "USPS COLLECTION BOX - BLUE BOX", "note": "ON 12/24 AND 12/31, THIS BOX MAY BE COLLECTED AS EARLY AS 12 NOON.", "ref": "9202800008"}, "type": "Feature"}
{"geometry": {"coordinates": [-117.162006, 33.332683], "type": "Point"}, "id": "KPeC0etEPRlVXFk2TWpI5C8QIJI=", "properties": {"@spider": "usps_collection_boxes", "addr:city": "FALLBROOK", "addr:country": "US", "addr:full": "4775 VIA BELMONTE", "addr:postcode": "92028", "addr:state": "CA", "brand": "USPS", "collection_times": "Mo-Sa 12:00", "name": "USPS COLLECTION BOX - BLUE BOX", "ref": "9202800010"}, "type": "Feature"}
{"geometry": {"coordinates": [-117.151523832, 33.413878521], "type": "Point"}, "id": "v8IJF5E5VVdBm334BI4ZUpTMAFE=", "properties": {"@spider": "usps_collection_boxes", "addr:city": "FALLBROOK", "addr:country": "US", "addr:full": "5113 5TH ST", "addr:postcode": "92028", "addr:state": "CA", "brand": "USPS", "collection_times": "Mo-Sa 12:00", "name": "USPS COLLECTION BOX - BLUE BOX", "ref": "9202800011"}, "type": "Feature"}
{"geometry": {"coordinates": [-117.2536954087, 33.37614], "type": "Point"}, "id": "-YG_aAGwJFh1K-wxXa5bhxgIdTA=", "properties": {"@spider": "usps_collection_boxes", "addr:city": "FALLBROOK", "addr:country": "US", "addr:full": "747 S MISSION RD", "addr:postcode": "92028", "addr:state": "CA", "brand": "USPS", "collection_times": "Mo-Fr 17:00; Sa 16:30", "name": "USPS COLLECTION BOX - BLUE BOX", "note": "ON 12/24 AND 12/31, THIS BOX MAY BE COLLECTED AS EARLY AS 12 NOON.", "ref": "9202800012"}, "type": "Feature"}
{"geometry": {"coordinates": [-117.2536954087, 33.37614], "type": "Point"},