{"geometry": {"coordinates": [-147.701761959, 64.8519030143], "type": "Point"}, "id": "POIbc72Vk02WHt-EFp9kQmNCpGI=", "properties": {"@spider": "usps_collection_boxes", "addr:city": "FAIRBANKS", "addr:country": "US", "addr:full": "32 COLLEGE RD", "addr:postcode": "99701", "addr:state": "AK", "brand": "USPS", "brand:wikidata": "Q668687", "collection_times": "Mo-Fr 17:00; Sa 15:00", "name": "USPS COLLECTION BOX - BLUE BOX", "note": "ON 12/24 AND 12/31, THIS BOX MAY BE COLLECTED AS EARLY AS 12 NOON.", "ref": "9970100011"}, "type": "Feature"}
{"geometry": {"coordinates": [-147.7245139646, 64.8403869918], "type": "Point"}, "id": "xFEnkPJDiLFrA37hYAra4rUykcE=", "properties": {"@spider": "usps_collection_boxes", "addr:city": "FAIRBANKS", "addr:country": "US", "addr:full": "675 7TH AVE", "addr:postcode": "99701", "addr:state": "AK", "brand": "USPS", "brand:wikidata": "Q668687", "collection_times": "Mo-Fr 16:30", "name": "USPS COLLECTION BOX - BLUE BOX", "note": "ON 12/24 AND 12/31, THIS BOX MAY BE COLLECTED AS EARLY AS 12 NOON.", "ref": "9970100020"}, "type": "Feature"}
{"geometry": {"coordinates": [-147.7259829193, 64.8462281361], "type": "Point"}, "id": "jOH5e8zjnY2ACbxqQwVnFORcaA4=", "properties": {"@spider": "usps_collection_boxes", "addr:city": "FAIRBANKS", "addr:country": "US", "addr:full": "809 PIONEER RD", "addr:postcode": "99701", "addr:state": "AK", "brand": "USPS", "brand:wikidata": "Q668687", "collection_times": "Mo-Fr 16:45", "name": "USPS COLLECTION BOX - BLUE BOX", "note": "ON 12/24 AND 12/31, THIS BOX MAY BE COLLECTED AS EARLY AS 12 NOON.", "ref": "9970100064"}, "type": "Feature"}
{"geometry": {"coordinates": [-147.7565279732, 64.8358090058], "type": "Point"}, "id": "OCGCQS4GR5i-QJdosqseiYg49S4=", "properties": {"@spider": "usps_collection_boxes", "addr:city": "FAIRBANKS", "addr:country": "US", "addr:full": "1867 AIRPORT WAY", "addr:postcode": "99701", "addr:state": "AK", "brand": "USPS", "brand:wikidata": "Q668687", "collection_times": "Mo-Fr 15:30", "name": "USPS COLLECTION BOX - BLUE BOX", "note": "ON 12/24 AND 12/31, THIS BOX MAY BE COLLECTED AS EARLY AS 12 NOON.", "ref": "9970100070"}, "type": "Feature"}
{"geometry": {"coordinates": [-147.7236770316, 64.8423890094], "type": "Point"}, "id": "-8aVjkrlIV4D0loc2oNmXLSuw_0=", "properties": {"@spider": "usps_collection_boxes", "addr:city": "FAIRBANKS", "addr:country": "US", "addr:full": "315 BARNETTE ST", "addr:postcode": "99701", "addr:state": "AK", "brand": "USPS", "brand:wikidata": "Q668687", "collection_times": "Mo-Fr 17:00; Sa 13:00", "name": "USPS COLLECTION BOX - PO LOBBY", "note": "ON 12/24 AND 12/31, THIS BOX MAY BE COLLECTED AS EARLY AS 12 NOON.", "ref": "9970100074"}, "type": "Feature"}
{"geometry": {"coordinates": [-147.0954096107, 64.6724950227], "type": "Point"}, "id": "ApKqG-3KeZl3G9hbSzpfmcGizww=", "properties": {"@spider": "usps_collection_boxes", "addr:city": "FAIRBANKS", "addr:country": "US", "addr:full": "365 KODIAK ST", "addr:postcode": "99702", "addr:state": "AK", "brand": "USPS", "brand:wikidata": "Q668687", "collection_times": "Mo-Fr 14:00; Sa 13:00", "name": "USPS COLLECTION BOX - BLUE BOX", "note": "ON 12/24 AND 12/31, THIS BOX MAY BE COLLECTED AS EARLY AS 12 NOON.", "ref": "9970200000"}, "type": "Feature"}
{"geometry": {"coordinates": [-147.6388950731, 64.8277127525], "type": "Point"}, "id": "nMvP1bHGoH7V0uUYbGmnPxZIc1o=", "properties": {"@spider": "usps_collection_boxes", "addr:city": "FAIRBANKS", "addr:country": "US", "addr:full": "3726 NEELY RD", "addr:postcode": "99703", "addr:state": "AK", "brand": "USPS", "brand:wikidata": "Q668687", "collection_times": "Mo-Fr 16:00; Sa 12:00", "name": "USPS COLLECTION BOX - BLUE BOX", "note": "ON 12/24 AND 12/31, THIS BOX MAY BE COLLECTED AS EARLY AS 12 NOON.", "ref": "9970300001"}, "type": "Feature"}
{"geometry": {"coordinates": [-149.161643119, 64.29124682], "type": "Point"}, "id": "EeC8i5XQRA36woHsXq64xNa43cM=", "properties": {"@spider": "usps_collection_boxes", "addr:city": "CLEAR", "addr:country": "US", "addr:full": "202 A ST STOP 1047", "addr:postcode": "99704", "addr:state": "AK", "brand": "USPS", "brand:wikidata": "Q668687", "collection_times": "Mo-Fr 10:00", "name": "USPS COLLECTION BOX - PO LOBBY", "ref": "9970400001"}, "type": "Feature"}
{"geometry": {"coordinates": [-147.3470490367, 64.7613989956], "type": "Point"}, "id": "2-zd6P7jykLVO1unTq9d7WpaNhM=", "properties": {"@spider": "usps_collection_boxes", "addr:city": "NORTH POLE", "addr:country": "US", "addr:full": "3340 BADGER RD", "addr:postcode": "99705", "addr:state": "AK", "brand": "USPS", "brand:wikidata": "Q668687", "collection_times": "Mo-Sa 11:00", "name": "USPS COLLECTION BOX - BLUE BOX", "ref": "9970500000"}, "type": "Feature"}
{"geometry": {"coordinates": [-147.3546860401, 64.7529779909], "type": "Point"}, "id": "LYG4oxKoFOX5q1Ls3FRaxQoS4EE=", "properties": {"@spider": "usps_collection_boxes", "addr:city": "NORTH POLE", "addr:country": "US", "addr:full": "325 S SANTA CLAUS LN", "addr:postcode": "99705", "addr:state": "AK", "brand": "USPS", "brand:wikidata": "Q668687", "collection_times": "Mo-Fr 16:00; Sa 14:00", "name": "USPS COLLECTION BOX - BLUE BOX", "note": "ON 12/24 AND 12/31, THIS BOX MAY BE COLLECTED AS EARLY AS 12 NOON.", "ref": "9970500002"}, "type": "Feature"}
{"geometry": {"coordinates": [-147.3546860401, 64.7529779909], "type": "Point"}, "id": "a_9afk0gr8KoguK4dGE8MT46mEg=", "properties": {"@spider": "usps_collection_boxes", "addr:city": "NORTH POLE", "addr:country": "US", "addr:full": "325 S SANTA CLAUS LN", "addr:postcode": "99705", "addr:state": "AK", "brand": "USPS", "brand:wikidata": "Q668687", "collection_times": "Mo-Fr 16:00; Sa 14:00", "name": "USPS COLLECTION BOX - PO LOBBY", "note": "ON 12/24 AND 12/31, THIS BOX MAY BE COLLECTED AS EARLY AS 12 NOON.", "ref": "9970500005"}, "type": "Feature"}
{"geometry": {"coordinates": [-147.8285619653, 64.8483469919], "type": "Point"}, "id": "Ze0w6OLtHxVKvEbAgF3Jodrd1Y4=", "properties": {"@spider": "usps_collection_boxes", "addr:city": "FAIRBANKS", "addr:country": "US", "addr:full": "755 FAIRBANKS ST", "addr:postcode": "99708", "addr:state": "AK", "brand": "USPS", "brand:wikidata": "Q668687", "collection_times": "Mo-Fr 17:30; Sa 16:00", "name": "USPS COLLECTION BOX - BLUE BOX", "note": "ON 12/24 AND 12/31, THIS BOX MAY BE COLLECTED AS EARLY AS 12 NOON.", "ref": "9970800009"}, "type": "Feature"}
{"geometry": {"coordinates": [-147.8285619653, 64.8483469919], "type": "Point"}, "id": "1Lj616PTKCWqnz5Ge9c21e3MgWk=", "properties": {"@spider": "usps_collection_boxes", "addr:city": "FAIRBANKS", "addr:country": "US", "addr:full": "755 FAIRBANKS ST", "addr:postcode": "99708", "addr:state": "AK", "brand": "USPS", "brand:wikidata": "Q668687", "collection_times": "Mo-Fr 17:30; Sa 16:00", "name": "USPS COLLECTION BOX - BLUE BOX", "note": "ON 12/24 AND 12/31, THIS BOX MAY BE COLLECTED AS EARLY AS 12 NOON.", "ref": "9970800010"}, "type": "Feature"}
{"geometry": {"coordinates": [-147.8285619653, 64.8483469919], "type": "Point"}, "id": "mjPR8i3hyFLgJ-2hOKlmLB0LJi8=", "properties": {"@spider": "usps_collection_boxes", "addr:city": "FAIRBANKS", "addr:country": "US", "addr:full": "755 FAIRBANKS ST", "addr:postcode": "99708", "addr:state": "AK", "brand": "USPS", "brand:wikidata": "Q668687", "collection_times": "Mo-Fr 17:30; Sa 16:00", "name": "USPS COLLECTION BOX - PO LOBBY", "note": "ON 12/24 AND 12/31, THIS BOX MAY BE COLLECTED AS EARLY AS 12 NOON.", "ref": "9970800012"}, "type": "Feature"}
{"geometry": {"coordinates": [-147.8285619653, 64.8483469919], "type": "Point"}, "id": "RKvr4bblHWudi92Qoh1W085Q_1w=", "properties": {"@spider": "usps_collection_boxes", "addr:city": "FAIRBANKS", "addr:country": "US", "addr:full": "755 FAIRBANKS ST", "addr:postcode": "99708", "addr:state": "AK", "brand": "USPS", "brand:wikidata": "Q668687", "collection_times": "Mo-Fr 17:30; Sa 16:00", "name": "USPS COLLECTION BOX - PO LOBBY", "note": "ON 12/24 AND 12/31, THIS BOX MAY BE COLLECTED AS EARLY AS 12 NOON.", "ref": "9970800013"}, "type": "Feature"}
{"geometry": {"coordinates": [-147.8812289833, 64.8156289872], "type": "Point"}, "id": "YaL9SpduxiyImIcEJg1eUlMoIz8=", "properties": {"@spider": "usps_collection_boxes", "addr:city": "FAIRBANKS", "addr:country": "US", "addr:full": "5400 MAIL TRL", "addr:postcode": "99709", "addr:state": "AK", "brand": "USPS", "brand:wikidata": "Q668687", "collection_times": "Mo-Fr 18:00; Sa 16:00", "name": "USPS COLLECTION BOX - EXPRESS", "note": "ON 12/24 AND 12/31, THIS BOX MAY BE COLLECTED AS EARLY AS 12 NOON.", "ref": "9970900006"}, "type": "Feature"}
{"geometry": {"coordinates": [-147.8812289833, 64.8156289872], "type": "Point"}, "id": "17-sdD_wOB8XnWHaEIN-H1Iqlbs=", "properties": {"@spider": "usps_collection_boxes", "addr:city": "FAIRBANKS", "addr:country": "US", "addr:full": "5400 MAIL TRL", "addr:postcode": "99709", "addr:state": "AK", "brand": "USPS", "brand:wikidata": "Q668687", "collection_times": "Mo-Fr 18:00; Sa 16:00", "name": "USPS COLLECTION BOX - BLUE BOX", "note": "ON 12/24 AND 12/31, THIS BOX MAY BE COLLECTED AS EARLY AS 12 NOON.", "ref": "9970900007"}, "type": "Feature"}
{"geometry": {"coordinates": [-147.8084390274, 64.8356520128], "type": "Point"}, "id": "LHJD01JvO_3ZEU0vI4QiGd-rQak=", "properties": {"@spider": "usps_collection_boxes", "addr:city": "FAIRBANKS", "addr:country": "US", "addr:full": "3627 AIRPORT WAY", "addr:postcode": "99709", "addr:state": "AK", "brand": "USPS", "brand:wikidata": "Q668687", "collection_times": "Mo-Fr 15:15; Sa 13:45", "name": "USPS COLLECTION BOX - BLUE BOX", "note": "ON 12/24 AND 12/31, THIS BOX MAY BE COLLECTED AS EARLY AS 12 NOON.", "ref": "9970900010"}, "type": "Feature"}
{"geometry": {"coordinates": [-147.8189599923, 64.835248005], "type": "Point"}, "id": "uWtLy_JxuzBtil35xsQPhnoI-lA=", "properties": {"@spider": "usps_collection_boxes", "addr:city": "FAIRBANKS", "addr:country": "US", "addr:full": "3755 AIRPORT WAY", "addr:postcode": "99709", "addr:state": "AK", "brand": "USPS", "brand:wikidata": "Q668687", "collection_times": "Mo-Fr 17:30; Sa 15:00", "name": "USPS COLLECTION BOX - BLUE BOX", "note": "ON 12/24 AND 12/31, THIS BOX MAY BE COLLECTED AS EARLY AS 12 NOON.", "ref": "9970900012"}, "type": "Feature"}
{"geometry": {"coordinates": [-147.8671609647, 64.8176849842], "type": "Point"}, "id": "bdP4TKBaVm9lziBvvpmgRUA8bxE=", "properties": {"@spider": "usps_collection_boxes", "addr:city": "FAIRBANKS", "addr:country": "US", "addr:full": "6450 AIRPORT WAY", "addr:postcode": "99709", "addr:state": "AK", "brand": "USPS", "brand:wikidata": "Q668687", "collection_times": "Mo-Fr 17:30; Sa 15:00", "name": "USPS COLLECTION BOX - BLUE BOX", "note": "ON 12/24 AND 12/31, THIS BOX MAY BE COLLECTED AS EARLY AS 12 NOON.", "ref": "9970900013"}, "type": "Feature"}
{"geometry": {"coordinates": [-147.7770610376, 64.8317219898], "type": "Point"}, "id": "C2hDmT0mWCjF_skXa7opJRvA8kQ=", "properties": {"@spider": "usps_collection_boxes", "addr:city": "FAIRBANKS", "addr:country": "US", "addr:full": "1979 PEGER RD", "addr:postcode": "99709", "addr:state": "AK", "brand": "USPS", "brand:wikidata": "Q668687", "collection_times": "Mo-Fr 15:15", "name": "USPS COLLECTION BOX - BLUE BOX", "note": "ON 12/24 AND 12/31, THIS BOX MAY BE COLLECTED AS EARLY AS 12 NOON.", "ref": "9970900015"}, "type": "Feature"}
{"geometry": {"coordinates": [-147.5667080412, 64.8177890036], "type": "Point"}, "id": "3NEhrNRsPCw0-yNTCvncbmXeSp8=", "properties": {"@spider": "usps_collection_boxes", "addr:city": "NORTH POLE", "addr:country": "US", "addr:full": "771 BADGER RD", "addr:postcode": "99711", "addr:state": "AK", "brand": "USPS", "brand:wikidata": "Q668687", "collection_times": "Mo-Fr 16:00; Sa 14:00", "name": "USPS COLLECTION BOX - BLUE BOX", "note": "ON 12/24 AND 12/31, THIS BOX MAY BE COLLECTED AS EARLY AS 12 NOON.", "ref": "9971100000"}, "type": "Feature"}
{"geometry": {"coordinates": [-146.8809550381, 64.8798520094], "type": "Point"}, "id": "UubfUu341hruh3sWw8jliQv9zB0=", "properties": {"@spider": "usps_collection_boxes", "addr:city": "FAIRBANKS", "addr:country": "US", "addr:full": "7291 CHENA HOT SPRINGS RD", "addr:postcode": "99712", "addr:state": "AK", "brand": "USPS", "brand:wikidata": "Q668687", "collection_times": "Mo-Fr 12:30; Sa 10:45", "name": "USPS COLLECTION BOX - BLUE BOX", "note": "ON 12/24 AND 12/31, THIS BOX MAY BE COLLECTED AS EARLY AS 12 NOON.", "ref": "9971200001"}, "type": "Feature"}
{"geometry": {"coordinates": [-146.9126350279, 64.4552100005], "type": "Point"}, "id": "9R4fbGHROzSSPpX6cwP8oliXpA0=", "properties": {"@spider": "usps_collection_boxes", "addr:city": "SALCHA", "addr:country": "US", "addr:full": "9162 RICHARDSON HWY", "addr:postcode": "99714", "addr:state": "AK", "brand": "USPS", "brand:wikidata": "Q668687", "collection_times": "Mo-Sa 14:00", "name": "USPS COLLECTION BOX - PO LOBBY", "note": "ON 12/24 AND 12/31, THIS BOX MAY BE COLLECTED AS EARLY AS 12 NOON.", "ref": "9971400000"}, "type": "Feature"}
{"geometry": {"coordinates": [-152.6517172322, 66.5639002914], "type": "Point"}, "id": "cUenB8cCykIg7E3ZRYul8G-eCGY=", "properties": {"@spider": "usps_collection_boxes", "addr:city": "ALLAKAKET", "addr:country": "US", "addr:full": "21 ALLAKAKET RD", "addr:postcode": "99720", "addr:state": "AK", "brand": "USPS", "brand:wikidata": "Q668687", "collection_times": "Mo-Fr 10:00", "name": "USPS COLLECTION BOX - PO LOBBY", "ref": "9972000001"}, "type": "Feature"}
{"geometry": {"coordinates": [-151.7341807746, 68.1400445075], "type": "Point"}, "id": "PWtZd6ztDbU-hEJonVsXXYY1qcI=", "properties": {"@spider": "usps_collection_boxes", "addr:city": "ANAKTUVUK PASS", "addr:country": "US", "addr:full": "1077 SUMMER ST", "addr:postcode": "99721", "addr:state": "AK", "brand": "USPS", "brand:wikidata": "Q668687", "collection_times": "Mo-Fr 11:00", "name": "USPS COLLECTION BOX - BLUE BOX", "ref": "9972100000"}, "type": "Feature"}
{"geometry": {"coordinates": [-151.7341807746, 68.1400445075], "type": "Point"}, "id": "W6h8FU1wMQc-Ox1lpr77VMCu11o=", "properties": {"@spider": "usps_collection_boxes", "addr:city": "ANAKTUVUK PASS", "addr:country": "US", "addr:full": "1077 SUMMER ST", "addr:postcode": "99721", "addr:state": "AK", "brand": "USPS", "brand:wikidata": "Q668687", "collection_times": "Mo-Fr 11:00", "name": "USPS COLLECTION BOX - PO LOBBY", "ref": "9972100001"}, "type": "Feature"}
{"geometry": {"coordinates": [-145.5378762203, 68.126988843], "type": "Point"}, "id": "XtNT_tSkVVXFYxGUiCsOB0p-z1A=", "properties": {"@spider": "usps_collection_boxes", "addr:city": "ARCTIC VILLAGE", "addr:country": "US", "addr:full": "9998 BRIDGE ST", "addr:postcode": "99722", "addr:state": "AK", "brand": "USPS", "brand:wikidata": "Q668687", "collection_times": "Mo-Fr 10:30; Sa 11:30", "name": "USPS COLLECTION BOX - PO LOBBY", "ref": "9972200000"}, "type": "Feature"}
{"geometry": {"coordinates": [-156.787271, 71.292627], "type": "Point"}, "id": "lweJzPfPj8fBJJhIB0gd2Aov2rw=", "properties": {"@spider": "usps_collection_boxes", "addr:city": "BARROW", "addr:country": "US", "addr:full": "3080 EBEN HOBSON ST", "addr:postcode": "99723", "addr:state": "AK", "brand": "USPS", "brand:wikidata": "Q668687", "collection_times": "Mo-Fr 11:00", "name": "USPS COLLECTION BOX - PO LOBBY", "ref": "9972300001"}, "type": "Feature"}
{"geometry": {"coordinates": [-156.787271, 71.292627], "type": "Point"}, "id": "w4F9Rw5Pl0uvI_OyYu8rEg9_gFE=", "properties": {"@spider": "usps_collection_boxes", "addr:city": "BARROW", "addr:country": "US", "addr:full": "3080 EBEN HOBSON ST", "addr:postcode": "99723", "addr:state": "AK", "brand": "USPS", "brand:wikidata": "Q668687", "collection_times": "Mo-Fr 11:00", "name": "USPS COLLECTION BOX - PO LOBBY", "ref": "9972300002"}, "type": "Feature"}
{"geometry": {"coordinates": [-148.019641, 64.84524], "type": "Point"}, "id": "zQsttM4Av8gpnU_HACvdbyDyvXg=", "properties": {"@spider": "usps_collection_boxes", "addr:city": "ESTER", "addr:country": "US", "addr:full": "501 VILLAGE RD", "addr:postcode": "99725", "addr:state": "AK", "brand": "USPS", "brand:wikidata": "Q668687", "collection_times": "Mo-Fr 14:30; Sa 11:00", "name": "USPS COLLECTION BOX - BLUE BOX", "note": "ON 12/24 AND 12/31, THIS BOX MAY BE COLLECTED AS EARLY AS 12 NOON.", "ref": "9972500000"}, "type": "Feature"}
{"geometry": {"coordinates": [-148.019641, 64.84524], "type": "Point"}, "id": "N8JGJ8paIRUuOfcRgSkDVQW-yH4=", "properties": {"@spider": "usps_collection_boxes", "addr:city": "ESTER", "addr:country": "US", "addr:full": "501 VILLAGE RD", "addr:postcode": "99725", "addr:state": "AK", "brand": "USPS", "brand:wikidata": "Q668687", "collection_times": "Mo-Fr 14:30; Sa 11:00", "name": "USPS COLLECTION BOX - PO LOBBY", "note": "ON 12/24 AND 12/31, THIS BOX MAY BE COLLECTED AS EARLY AS 12 NOON.", "ref": "9972500001"}, "type": "Feature"}
{"geometry": {"coordinates": [-151.5116430805, 66.9188576564], "type": "Point"}, "id": "Tev1-UDqIg164if4tIOdg-4wlmE=", "properties": {"@spider": "usps_collection_boxes", "addr:city": "BETTLES FIELD", "addr:country": "US", "addr:full": "1 FRONT ST", "addr:postcode": "99726", "addr:state": "AK", "brand": "USPS", "brand:wikidata": "Q668687", "collection_times": "Mo-Fr 10:00", "name": "USPS COLLECTION BOX - PO LOBBY", "ref": "9972600001"}, "type": "Feature"}
{"geometry": {"coordinates": [-148.8982077325, 63.3926574813], "type": "Point"}, "id": "QUUu4zf9YlDgCZy3Eh6rdS6j6j4=", "properties": {"@spider": "usps_collection_boxes", "addr:city": "CANTWELL", "addr:country": "US", "addr:full": "210 GEORGE PARKS HWY", "addr:postcode": "99729", "addr:state": "AK", "brand": "USPS", "brand:wikidata": "Q668687", "collection_times": "Mo-Sa 10:30", "name": "USPS COLLECTION BOX - PO LOBBY", "ref": "9972900000"}, "type": "Feature"}
{"geometry": {"coordinates": [-144.8178748565, 65.5710260473], "type": "Point"}, "id": "GrTfk3CudYOnsMlGmkucBOiky_0=", "properties": {"@spider": "usps_collection_boxes", "addr:city": "CENTRAL", "addr:country": "US", "addr:full": "128 STEESE HWY", "addr:postcode": "99730", "addr:state": "AK", "brand": "USPS", "brand:wikidata": "Q668687", "collection_times": "Mo-Fr 10:30", "name": "USPS COLLECTION BOX - PO LOBBY", "ref": "9973000003"}, "type": "Feature"}
{"geometry": {"coordinates": [-144.071107153, 65.821847682], "type": "Point"}, "id": "C6qNkatdwqHYEZfP_aB48XzXTlI=", "properties": {"@spider": "usps_collection_boxes", "addr:city": "CIRCLE", "addr:country": "US", "addr:full": "161 STEESE HWY", "addr:postcode": "99733", "addr:state": "AK", "brand": "USPS", "brand:wikidata": "Q668687", "collection_times": "Mo-Fr 10:00", "name": "USPS COLLECTION BOX - PO LOBBY", "ref": "9973300000"}, "type": "Feature"}
{"geometry": {"coordinates": [-149.6289328348, 70.066316187], "type": "Point"}, "id": "EZcV6vvRXzjxfhMFrO1zMBoSoFw=", "properties": {"@spider": "usps_collection_boxes", "addr:city": "PRUDOE BAY", "addr:country": "US", "addr:full": "1 POSTAL WAY", "addr:postcode": "99734", "addr:state": "AK", "brand": "USPS", "brand:wikidata": "Q668687", "collection_times": "Mo-Sa 13:00", "name": "USPS COLLECTION BOX - PO LOBBY", "note": "ON 12/24 AND 12/31, THIS BOX MAY BE COLLECTED AS EARLY AS 12 NOON.", "ref": "9973400000"}, "type": "Feature"}
{"geometry": {"coordinates": [-145.734074, 64.039681], "type": "Point"}, "id": "wnx7f5Vm6PHmGSVMzVG_QGHJjXI=", "properties": {"@spider": "usps_collection_boxes", "addr:city": "DELTA JUNCTION", "addr:country": "US", "addr:full": "266 RICHARDSON HWY", "addr:postcode": "99737", "addr:state": "AK", "brand": "USPS", "brand:wikidata": "Q668687", "collection_times": "Mo-Fr 14:45; Sa 11:45", "name": "USPS COLLECTION BOX - BLUE BOX", "note": "ON 12/24 AND 12/31, THIS BOX MAY BE COLLECTED AS EARLY AS 12 NOON.", "ref": "9973700000"}, "type": "Feature"}
{"geometry": {"coordinates": [-145.734074, 64.039681], "type": "Point"}, "id": "P6NDIxT7AZQyJn_d6rJjqeaORTQ=", "properties": {"@spider": "usps_collection_boxes", "addr:city": "DELTA JUNCTION", "addr:country": "US", "addr:full": "266 RICHARDSON HWY", "addr:postcode": "99737", "addr:state": "AK", "brand": "USPS", "brand:wikidata": "Q668687", "collection_times": "Mo-Fr 14:45; Sa 11:45", "name": "USPS COLLECTION BOX - PO LOBBY", "note": "ON 12/24 AND 12/31, THIS BOX MAY BE COLLECTED AS EARLY AS 12 NOON.", "ref": "9973700002"}, "type": "Feature"}
{"geometry": {"coordinates": [-145.734074, 64.039681], "type": "Point"}, "id": "klFHp3ayjxTPzptY-Ezaz6zEuXw=", "properties": {"@spider": "usps_collection_boxes", "addr:city": "DELTA JUNCTION", "addr:country": "US", "addr:full": "266 RICHARDSON HWY", "addr:postcode": "99737", "addr:state": "AK", "brand": "USPS", "brand:wikidata": "Q668687", "collection_times": "Mo-Fr 14:45; Sa 11:45", "name": "USPS COLLECTION BOX - PO LOBBY", "note": "ON 12/24 AND 12/31, THIS BOX MAY BE COLLECTED AS EARLY AS 12 NOON.", "ref": "9973700003"}, "type": "Feature"}
{"geometry": {"coordinates": [-141.202145281, 64.7871968149], "type": "Point"}, "id": "rdkeo1upiLvcZGbrwFjWrb2fpYg=", "properties": {"@spider": "usps_collection_boxes", "addr:city": "EAGLE", "addr:country": "US", "addr:full": "200 JEFFERSON ST", "addr:postcode": "99738", "addr:state": "AK", "brand": "USPS", "brand:wikidata": "Q668687", "collection_times": "Mo-Fr 10:00", "name": "USPS COLLECTION BOX - PO LOBBY", "ref": "9973800001"}, "type": "Feature"}
{"geometry": {"coordinates": [-145.2566628699, 66.5657986533], "type": "Point"}, "id": "9cwQR9hgrETNqatbbriiQOfa7wY=", "properties": {"@spider": "usps_collection_boxes", "addr:city": "FORT YUKON", "addr:country": "US", "addr:full": "9998 E 3RD AVE", "addr:postcode": "99740", "addr:state": "AK", "brand": "USPS", "brand:wikidata": "Q668687", "collection_times": "Mo-Fr 10:00", "name": "USPS COLLECTION BOX - PO LOBBY", "ref": "9974000001"}, "type": "Feature"}
{"geometry": {"coordinates": [-156.9292538597, 64.733542212], "type": "Point"}, "id": "ARVIxCzL850-j-qfN4xHRfV4CCQ=", "properties": {"@spider": "usps_collection_boxes", "addr:city": "GALENA", "addr:country": "US", "addr:full": "511 GALENA RD", "addr:postcode": "99741", "addr:state": "AK", "brand": "USPS", "brand:wikidata": "Q668687", "collection_times": "Mo-Fr 10:00", "name": "USPS COLLECTION BOX - PO LOBBY", "ref": "9974100001"}, "type": "Feature"}
{"geometry": {"coordinates": [-171.72613, 63.77678], "type": "Point"}, "id": "RWcOOKwSZjQe3uKMhmrqROJ2tHc=", "properties": {"@spider": "usps_collection_boxes", "addr:city": "GAMBELL", "addr:country": "US", "addr:full": "9998 SAINT LAWRENCE IS", "addr:postcode": "99742", "addr:state": "AK", "brand": "USPS", "brand:wikidata": "Q668687", "collection_times": "Mo-Fr 11:00", "name": "USPS COLLECTION BOX - PO LOBBY", "ref": "9974200000"}, "type": "Feature"}
{"geometry": {"coordinates": [-149.017829274, 63.871451642], "type": "Point"}, "id": "VNpz4e60-0juNmZdnR7AWsALxEM=", "properties": {"@spider": "usps_collection_boxes", "addr:city": "HEALY", "addr:country": "US", "addr:full": "9998 COAL ST", "addr:postcode": "99743", "addr:state": "AK", "brand": "USPS", "brand:wikidata": "Q668687", "collection_times": "Mo-Sa 11:00", "name": "USPS COLLECTION BOX - BLUE BOX", "ref": "9974300000"}, "type": "Feature"}
{"geometry": {"coordinates": [-149.017829274, 63.871451642], "type": "Point"}, "id": "pws2lOP_T6l0-0uvONWw7x7p-EM=", "properties": {"@spider": "usps_collection_boxes", "addr:city": "HEALY", "addr:country": "US", "addr:full": "9998 COAL ST", "addr:postcode": "99743", "addr:state": "AK", "brand": "USPS", "brand:wikidata": "Q668687", "collection_times": "Mo-Sa 11:00", "name": "USPS COLLECTION BOX - PO LOBBY", "ref": "9974300001"}, "type": "Feature"}
{"geometry": {"coordinates": [-149.1792701876, 64.3434979254], "type": "Point"}, "id": "6OaL9drmJGTuNNNgKZL4l_6LgVs=", "properties": {"@spider": "usps_collection_boxes", "addr:city": "ANDERSON", "addr:country": "US", "addr:full": "260 W 1ST ST", "addr:postcode": "99744", "addr:state": "AK", "brand": "USPS", "brand:wikidata": "Q668687", "collection_times": "Mo-Fr 12:00", "name": "USPS COLLECTION BOX - BLUE BOX", "ref": "9974400003"}, "type": "Feature"}
{"geometry": {"coordinates": [-149.179270188, 64.343497925], "type": "Point"}, "id": "_Zi9MTRSWZMf7LuOFY8hstA3oLE=", "properties": {"@spider": "usps_collection_boxes", "addr:city": "ANDERSON", "addr:country": "US", "addr:full": "260 W 1ST ST", "addr:postcode": "99744", "addr:state": "AK", "brand": "USPS", "brand:wikidata": "Q668687", "collection_times": "Mo-Fr 12:00", "name": "USPS COLLECTION BOX - PO LOBBY", "ref": "9974400004"}, "type": "Feature"}
{"geometry": {"coordinates": [-156.3882073427, 65.7016455163], "type": "Point"}, "id": "QEjA9FqJGUNnerPZ4beX-9F6yrQ=", "properties": {"@spider": "usps_collection_boxes", "addr:city": "HUSLIA", "addr:country": "US", "addr:full": "34 DAKLI ST", "addr:postcode": "99746", "addr:state": "AK", "brand": "USPS", "brand:wikidata": "Q668687", "collection_times": "Mo-Fr 11:00", "name": "USPS COLLECTION BOX - PO LOBBY", "ref": "9974600001"}, "type": "Feature"}
{"geometry": {"coordinates": [-158.7272926987, 64.3259425055], "type": "Point"}, "id": "oKidFcKEuMkeXZoewMrOrJ0G-U4=", "properties": {"@spider": "usps_collection_boxes", "addr:city": "KALTAG", "addr:country": "US", "addr:full": "100 6TH AVE", "addr:postcode": "99748", "addr:state": "AK", "brand": "USPS", "brand:wikidata": "Q668687", "collection_times": "Mo-Fr 10:00", "name": "USPS COLLECTION BOX - PO LOBBY", "ref": "9974800001"}, "type": "Feature"}
{"geometry": {"coordinates": [-156.8878520124, 66.9088709554], "type": "Point"}, "id": "aKjeoGlT32FrUnyd-HFK5D1yvgQ=", "properties": {"@spider": "usps_collection_boxes", "addr:city": "KOBUK", "addr:country": "US", "addr:full": "9998 AIRPORT RD", "addr:postcode": "99751", "addr:state": "AK", "brand": "USPS", "brand:wikidata": "Q668687", "collection_times": "Mo-Fr 10:00", "name": "USPS COLLECTION BOX - PO LOBBY", "ref": "9975100000"}, "type": "Feature"}
{"geometry": {"coordinates": [-162.600403, 66.898328], "type": "Point"}, "id": "Uh-6jCu7dHSAYBkEjF9GE8tcSaQ=", "properties": {"@spider": "usps_collection_boxes", "addr:city": "KOTZEBUE", "addr:country": "US", "addr:full": "333 SHORE AVE", "addr:postcode": "99752", "addr:state": "AK", "brand": "USPS", "brand:wikidata": "Q668687", "collection_times": "Mo-Sa 10:00", "name": "USPS COLLECTION BOX - PO LOBBY", "ref": "9975200001"}, "type": "Feature"}
{"geometry": {"coordinates": [-148.890739, 63.73077], "type": "Point"}, "id": "NGlOHSanzC0m2MFw_6U-Wg9-KXU=", "properties": {"@spider": "usps_collection_boxes", "addr:city": "DENALI NATIONAL", "addr:country": "US", "addr:full": "55998 DENALI PARK RD", "addr:postcode": "99755", "addr:state": "AK", "brand": "USPS", "brand:wikidata": "Q668687", "collection_times": "Mo-Sa 10:30", "name": "USPS COLLECTION BOX - PO LOBBY", "ref": "9975500001"}, "type": "Feature"}
{"geometry": {"coordinates": [-149.3482421614, 65.1498129764], "type": "Point"}, "id": "jCafbgNesn_BbU8U2QdWpw0Sq4g=", "properties": {"@spider": "usps_collection_boxes", "addr:city": "MINTO", "addr:country": "US", "addr:full": "100 3RD ST", "addr:postcode": "99758", "addr:state": "AK", "brand": "USPS", "brand:wikidata": "Q668687", "collection_times": "Mo-Fr 09:00", "name": "USPS COLLECTION BOX - PO LOBBY", "ref": "9975800001"}, "type": "Feature"}
{"geometry": {"coordinates": [-149.094034, 64.563535], "type": "Point"}, "id": "uoY8VQ7eIsRu_mIVPmdzUAN3dCE=", "properties": {"@spider": "usps_collection_boxes", "addr:city": "NENANA", "addr:country": "US", "addr:full": "803 MARKET ST", "addr:postcode": "99760", "addr:state": "AK", "brand": "USPS", "brand:wikidata": "Q668687", "collection_times": "Sa 09:45", "name": "USPS COLLECTION BOX - BLUE BOX", "ref": "9976000000"}, "type": "Feature"}
{"geometry": {"coordinates": [-149.094034, 64.563535], "type": "Point"}, "id": "qddClYa-_AUGmx23HdMsn7PGvKA=", "properties": {"@spider": "usps_collection_boxes", "addr:city": "NENANA", "addr:country": "US", "addr:full": "803 MARKET ST", "addr:postcode": "99760", "addr:state": "AK", "brand": "USPS", "brand:wikidata": "Q668687", "collection_times": "Sa 09:45", "name": "USPS COLLECTION BOX - PO LOBBY", "ref": "9976000001"}, "type": "Feature"}
{"geometry": {"coordinates": [-149.094034, 64.563535], "type": "Point"}, "id": "2ZXOxVFkOKolHrB8KQGMYE0RD5c=", "properties": {"@spider": "usps_collection_boxes", "addr:city": "NENANA", "addr:country": "US", "addr:full": "803 MARKET ST", "addr:postcode": "99760", "addr:state": "AK", "brand": "USPS", "brand:wikidata": "Q668687", "collection_times": "Sa 09:45", "name": "USPS COLLECTION BOX - PO LOBBY", "ref": "9976000002"}, "type": "Feature"}
{"geometry": {"coordinates": [-165.409133, 64.497928], "type": "Point"}, "id": "N8IC5jmxoH-XE1RFyEUgQQruHDo=", "properties": {"@spider": "usps_collection_boxes", "addr:city": "NOME", "addr:country": "US", "addr:full": "113 E FRONT ST", "addr:postcode": "99762", "addr:state": "AK", "brand": "USPS", "brand:wikidata": "Q668687", "collection_times": "Mo-Fr 10:00", "name": "USPS COLLECTION BOX - BLUE BOX", "ref": "9976200002"}, "type": "Feature"}
{"geometry": {"coordinates": [-165.409133, 64.497928], "type": "Point"}, "id": "N2lDYejO5L1jyU5_VvOlqm7lVKk=", "properties": {"@spider": "usps_collection_boxes", "addr:city": "NOME", "addr:country": "US", "addr:full": "113 E FRONT ST", "addr:postcode": "99762", "addr:state": "AK", "brand": "USPS", "brand:wikidata": "Q668687", "collection_times": "Mo-Fr 10:00", "name": "USPS COLLECTION BOX - PO LOBBY", "ref": "9976200003"}, "type": "Feature"}
{"geometry": {"coordinates": [-165.409133, 64.497928], "type": "Point"}, "id": "My-yBRve8UNO1kUNA0kM7Oh31gA=", "properties": {"@spider": "usps_collection_boxes", "addr:city": "NOME", "addr:country": "US", "addr:full": "113 E FRONT ST", "addr:postcode": "99762", "addr:state": "AK", "brand": "USPS", "brand:wikidata": "Q668687", "collection_times": "Mo-Fr 10:00", "name": "USPS COLLECTION BOX - PO LOBBY", "ref": "9976200004"}, "type": "Feature"}
{"geometry": {"coordinates": [-165.4091316822, 64.4979279411], "type": "Point"}, "id": "2Ai0o_p6v1xvkc-3gjS-a-ENyqo=", "properties": {"@spider": "usps_collection_boxes", "addr:city": "NOME", "addr:country": "US", "addr:full": "113 E FRONT ST", "addr:postcode": "99762", "addr:state": "AK", "brand": "USPS", "brand:wikidata": "Q668687", "collection_times": "Mo-Fr 10:00", "name": "USPS COLLECTION BOX - PO LOBBY", "ref": "9976200005"}, "type": "Feature"}
{"geometry": {"coordinates": [-141.928952286, 62.963326643], "type": "Point"}, "id": "-yItwy4Yb_2GFPe7N6UKoR8io2Y=", "properties": {"@spider": "usps_collection_boxes", "addr:city": "NORTHWAY", "addr:country": "US", "addr:full": "6650 NORTHWAY RD", "addr:postcode": "99764", "addr:state": "AK", "brand": "USPS", "brand:wikidata": "Q668687", "collection_times": "Mo-Fr 10:00", "name": "USPS COLLECTION BOX - PO LOBBY", "ref": "9976400001"}, "type": "Feature"}
{"geometry": {"coordinates": [-158.1135496431, 64.7322377956], "type": "Point"}, "id": "1zheaMgM68UoykXthf869mXZDZw=", "properties": {"@spider": "usps_collection_boxes", "addr:city": "NULATO", "addr:country": "US", "addr:full": "250 NIKAGHUN ST", "addr:postcode": "99765", "addr:state": "AK", "brand": "USPS", "brand:wikidata": "Q668687", "collection_times": "Mo-Fr 10:00", "name": "USPS COLLECTION BOX - PO LOBBY", "ref": "9976500001"}, "type": "Feature"}
{"geometry": {"coordinates": [-155.488198237, 64.738576685], "type": "Point"}, "id": "EnU0ma8NwFcru8WPxtr6rc24p9o=", "properties": {"@spider": "usps_collection_boxes", "addr:city": "RUBY", "addr:country": "US", "addr:full": "9998 WILDBERRY RD", "addr:postcode": "99768", "addr:state": "AK", "brand": "USPS", "brand:wikidata": "Q668687", "collection_times": "Mo-Fr 10:00", "name": "USPS COLLECTION BOX - PO LOBBY", "ref": "9976800001"}, "type": "Feature"}
{"geometry": {"coordinates": [-166.07556, 66.256098], "type": "Point"}, "id": "DXNDIgrweqFq2uAjkg8-AWTRQhE=", "properties": {"@spider": "usps_collection_boxes", "addr:city": "SHISHMAREF", "addr:country": "US", "addr:full": "123 MAIN ST", "addr:postcode": "99772", "addr:state": "AK", "brand": "USPS", "brand:wikidata": "Q668687", "collection_times": "Mo-Fr 10:00", "name": "USPS COLLECTION BOX - BLUE BOX", "ref": "9977200000"}, "type": "Feature"}
{"geometry": {"coordinates": [-166.07556, 66.256098], "type": "Point"}, "id": "oPW5UvX5I1e7J4UW4p5MLEoXnOc=", "properties": {"@spider": "usps_collection_boxes", "addr:city": "SHISHMAREF", "addr:country": "US", "addr:full": "123 MAIN ST", "addr:postcode": "99772", "addr:state": "AK", "brand": "USPS", "brand:wikidata": "Q668687", "collection_times": "Mo-Fr 10:00", "name": "USPS COLLECTION BOX - PO LOBBY", "ref": "9977200001"}, "type": "Feature"}
{"geometry": {"coordinates": [-147.821143, 64.855871], "type": "Point"}, "id": "nd3cJrxC3uMRHtniM6ql0io5Sv8=", "properties": {"@spider": "usps_collection_boxes", "addr:city": "FAIRBANKS", "addr:country": "US", "addr:full": "500 SALCHA ST", "addr:postcode": "99775", "addr:state": "AK", "brand": "USPS", "brand:wikidata": "Q668687", "collection_times": "Mo-Fr 14:45; Sa 13:15", "name": "USPS COLLECTION BOX - BLUE BOX", "note": "ON 12/24 AND 12/31, THIS BOX MAY BE COLLECTED AS EARLY AS 12 NOON.", "ref": "9977500001"}, "type": "Feature"}
{"geometry": {"coordinates": [-147.830691, 64.858082], "type": "Point"}, "id": "5kV0X1WvZlAmezpqJSEflqIotAE=", "properties": {"@spider": "usps_collection_boxes", "addr:city": "FAIRBANKS", "addr:country": "US", "addr:full": "500 YUKON DR", "addr:postcode": "99775", "addr:state": "AK", "brand": "USPS", "brand:wikidata": "Q668687", "collection_times": "Mo-Fr 15:00; Sa 13:30", "name": "USPS COLLECTION BOX - BLUE BOX", "note": "ON 12/24 AND 12/31, THIS BOX MAY BE COLLECTED AS EARLY AS 12 NOON.", "ref": "9977500008"}, "type": "Feature"}
{"geometry": {"coordinates": [-152.0803448312, 65.1706012446], "type": "Point"}, "id": "Tl-sQITQnUrCUsE72xc4SJf_dYY=", "properties": {"@spider": "usps_collection_boxes", "addr:city": "TANANA", "addr:country": "US", "addr:full": "100 FRONT ST", "addr:postcode": "99777", "addr:state": "AK", "brand": "USPS", "brand:wikidata": "Q668687", "collection_times": "Mo-Fr 10:00", "name": "USPS COLLECTION BOX - PO LOBBY", "ref": "9977700001"}, "type": "Feature"}
{"geometry": {"coordinates": [-142.2462980595, 63.9193253501], "type": "Point"}, "id": "5ReV0gime2TvSs4Kdo26dCJgcbA=", "properties": {"@spider": "usps_collection_boxes", "addr:city": "TOK", "addr:country": "US", "addr:full": "1314.3 ALASKA HWY", "addr:postcode": "99780", "addr:state": "AK", "brand": "USPS", "brand:wikidata": "Q668687", "collection_times": "Mo-Sa 10:00", "name": "USPS COLLECTION BOX - BLUE BOX", "ref": "9978000000"}, "type": "Feature"}
{"geometry": {"coordinates": [-142.2462980595, 63.9193253501], "type": "Point"}, "id": "UtXmvGUJZbh63DZZiBqOS_ZaDVA=", "properties": {"@spider": "usps_collection_boxes", "addr:city": "TOK", "addr:country": "US", "addr:full": "1314.3 ALASKA HWY", "addr:postcode": "99780", "addr:state": "AK", "brand": "USPS", "brand:wikidata": "Q668687", "collection_times": "Mo-Sa 10:00", "name": "USPS COLLECTION BOX - PO LOBBY", "ref": "9978000001"}, "type": "Feature"}
{"geometry": {"coordinates": [-142.2462980595, 63.9193253501], "type": "Point"}, "id": "RpT1cGEPoWhKWDtXxlhy5-Mgxp4=", "properties": {"@spider": "usps_collection_boxes", "addr:city": "TOK", "addr:country": "US", "addr:full": "1314.3 ALASKA HWY", "addr:postcode": "99780", "addr:state": "AK", "brand": "USPS", "brand:wikidata": "Q668687", "collection_times": "Mo-Sa 10:00", "name": "USPS COLLECTION BOX - PO LOBBY", "ref": "9978000002"}, "type": "Feature"}
